{"address1": null, "address2": "23 rue de la Croix d'en Hue", "city": "LAMBALLE", "convocationLabel": "SALLE POLYVALENTE LA POTERIE", "distance": 0.0, "fullAddress": "23 rue de la Croix d'en Hue 22400 LAMBALLE", "giveBlood": 1, "givePlasma": 0, "givePlatelet": 0, "regionCode": "016", "groupCode": "F10118", "latitude": 48.469684, "longitude": -2.473431, "name": "LAMBALLE Poterie DAM2", "postCode": "22400", "samplingLocationCode": "1265", "horaires": null, "infos": null, "metro": null, "bus": null, "tram": null, "parking": null, "debutInfos": null, "finInfos": null, "ville": null, "id": null, "phone": null, "urlBlood": null, "urlPlasma": null, "urlPlatelets": null}
{"address1": null, "address2": "6 rue Mouexign\u00e9", "city": "LAMBALLE", "convocationLabel": "SALLE MUNICIPALE", "distance": 0.0, "fullAddress": "6 rue Mouexign\u00e9 22400 LAMBALLE", "giveBlood": 1, "givePlasma": 0, "givePlatelet": 0, "regionCode": "016", "groupCode": "F10118", "latitude": 48.4655304, "longitude": -2.51387811, "name": "LAMBALLE S Municipale AM1", "postCode": "22400", "samplingLocationCode": "2", "horaires": null, "infos": null, "metro": null, "bus": null, "tram": null, "parking": null, "debutInfos": null, "finInfos": null, "ville": null, "id": null, "phone": null, "urlBlood": null, "urlPlasma": null, "urlPlatelets": null}
{"address1": null, "address2": "6 rue Mouexign\u00e9", "city": "LAMBALLE", "convocationLabel": "SALLE MUNICIPALE", "distance": 0.0, "fullAddress": "6 rue Mouexign\u00e9 22400 LAMBALLE", "giveBlood": 1, "givePlasma": 0, "givePlatelet": 0, "regionCode": "016", "groupCode": "F10118", "latitude": 48.4655304, "longitude": -2.51387811, "name": "LAMBALLE S Municipale AM2", "postCode": "22400", "samplingLocationCode": "3", "horaires": null, "infos": null, "metro": null, "bus": null, "tram": null, "parking": null, "debutInfos": null, "finInfos": null, "ville": null, "id": null, "phone": null, "urlBlood": null, "urlPlasma": null, "urlPlatelets": null}
{"address1": null, "address2": "23 route de la Croix d'en Hue", "city": "LAMBALLE", "convocationLabel": "SALLE POLYVALENTE LA POTERIE", "distance": 0.0, "fullAddress": "23 route de la Croix d'en Hue 22400 LAMBALLE", "giveBlood": 1, "givePlasma": 0, "givePlatelet": 0, "regionCode": "016", "groupCode": "F10118", "latitude": 48.469684, "longitude": -2.473431, "name": "LAMBALLE Poterie AM1", "postCode": "22400", "samplingLocationCode": "4", "horaires": null, "infos": null, "metro": null, "bus": null, "tram": null, "parking": null, "debutInfos": null, "finInfos": null, "ville": null, "id": null, "phone": null, "urlBlood": null, "urlPlasma": null, "urlPlatelets": null}
{"address1": null, "address2": "6 rue Mouexign\u00e9", "city": "LAMBALLE", "convocationLabel": "SALLE MUNICIPALE", "distance": 0.0, "fullAddress": "6 rue Mouexign\u00e9 22400 LAMBALLE", "giveBlood": 1, "givePlasma": 0, "givePlatelet": 0, "regionCode": "016", "groupCode": "F10118", "latitude": 48.4655304, "longitude": -2.51387811, "name": "LAMBALLE S Municipale DAM3", "postCode": "22400", "samplingLocationCode": "5", "horaires": null, "infos": null, "metro": null, "bus": null, "tram": null, "parking": null, "debutInfos": null, "finInfos": null, "ville": null, "id": null, "phone": null, "urlBlood": null, "urlPlasma": null, "urlPlatelets": null}
