{"address1": null, "address2": "RUE PARK AR ROUDOUR", "city": "SAINT MARTIN DES CHAMPS", "convocationLabel": "LE ROUDOUR", "distance": 0.0, "fullAddress": "RUE PARK AR ROUDOUR 29600 SAINT MARTIN DES CHAMPS", "giveBlood": 1, "givePlasma": 0, "givePlatelet": 0, "regionCode": "016", "groupCode": "F50244", "latitude": 48.57201767, "longitude": -3.84707475, "name": "SMDC LE ROUDOUR J2 - J3", "postCode": "29600", "samplingLocationCode": "2", "horaires": null, "infos": null, "metro": null, "bus": null, "tram": null, "parking": null, "debutInfos": null, "finInfos": null, "ville": null, "id": null, "phone": null, "urlBlood": null, "urlPlasma": null, "urlPlatelets": null}
{"address1": null, "address2": "RUE PARK AR ROUDOUR", "city": "SAINT MARTIN DES CHAMPS", "convocationLabel": "LE ROUDOUR", "distance": 0.0, "fullAddress": "RUE PARK AR ROUDOUR 29600 SAINT MARTIN DES CHAMPS", "giveBlood": 1, "givePlasma": 0, "givePlatelet": 0, "regionCode": "016", "groupCode": "F50244", "latitude": 48.57201767, "longitude": -3.84707475, "name": "SMDC LE ROUDOUR J4", "postCode": "29600", "samplingLocationCode": "3", "horaires": null, "infos": null, "metro": null, "bus": null, "tram": null, "parking": null, "debutInfos": null, "finInfos": null, "ville": null, "id": null, "phone": null, "urlBlood": null, "urlPlasma": null, "urlPlatelets": null}
{"address1": null, "address2": "RUE TUNES", "city": "SAINT MARTIN DES CHAMPS", "convocationLabel": "ESPACE DU BINIGOU", "distance": 0.0, "fullAddress": "RUE TUNES 29600 SAINT MARTIN DES CHAMPS", "giveBlood": 1, "givePlasma": 0, "givePlatelet": 0, "regionCode": "016", "groupCode": "F50244", "latitude": 48.57201767, "longitude": -3.84707475, "name": "SMDC BINIGOU J1", "postCode": "29600", "samplingLocationCode": "4", "horaires": null, "infos": null, "metro": null, "bus": null, "tram": null, "parking": null, "debutInfos": null, "finInfos": null, "ville": null, "id": null, "phone": null, "urlBlood": null, "urlPlasma": null, "urlPlatelets": null}
{"address1": null, "address2": "RUE TUNES", "city": "SAINT MARTIN DES CHAMPS", "convocationLabel": "ESPACE DU BINIGOU", "distance": 0.0, "fullAddress": "RUE TUNES 29600 SAINT MARTIN DES CHAMPS", "giveBlood": 1, "givePlasma": 0, "givePlatelet": 0, "regionCode": "016", "groupCode": "F50244", "latitude": 48.57201767, "longitude": -3.84707475, "name": "SMDC BINIGOU J4", "postCode": "29600", "samplingLocationCode": "5", "horaires": null, "infos": null, "metro": null, "bus": null, "tram": null, "parking": null, "debutInfos": null, "finInfos": null, "ville": null, "id": null, "phone": null, "urlBlood": null, "urlPlasma": null, "urlPlatelets": null}
{"address1": null, "address2": "RUE PARK AR ROUDOUR", "city": "SAINT MARTIN DES CHAMPS", "convocationLabel": "LE ROUDOUR", "distance": 0.0, "fullAddress": "RUE PARK AR ROUDOUR 29600 SAINT MARTIN DES CHAMPS", "giveBlood": 1, "givePlasma": 0, "givePlatelet": 0, "regionCode": "016", "groupCode": "F50244", "latitude": 48.57201767, "longitude": -3.84707475, "name": "SMDC LE ROUDOUR J1 ", "postCode": "29600", "samplingLocationCode": "6", "horaires": null, "infos": null, "metro": null, "bus": null, "tram": null, "parking": null, "debutInfos": null, "finInfos": null, "ville": null, "id": null, "phone": null, "urlBlood": null, "urlPlasma": null, "urlPlatelets": null}
{"address1": null, "address2": null, "city": "SAINT MARTIN DES CHAMPS", "convocationLabel": "LE ROUDOUR", "distance": 0.0, "fullAddress": "29600 SAINT MARTIN DES CHAMPS", "giveBlood": 1, "givePlasma": 0, "givePlatelet": 0, "regionCode": "016", "groupCode": "F50244", "latitude": 48.5769, "longitude": -3.855414, "name": "J2 ", "postCode": "29600", "samplingLocationCode": "7", "horaires": null, "infos": null, "metro": null, "bus": null, "tram": null, "parking": null, "debutInfos": null, "finInfos": null, "ville": null, "id": null, "phone": null, "urlBlood": null, "urlPlasma": null, "urlPlatelets": null}
{"address1": null, "address2": "RUE TUNES", "city": "SAINT MARTIN DES CHAMPS", "convocationLabel": "ESPACE DU BINIGOU", "distance": 0.0, "fullAddress": "RUE TUNES 29600 SAINT MARTIN DES CHAMPS", "giveBlood": 1, "givePlasma": 0, "givePlatelet": 0, "regionCode": "016", "groupCode": "F50244", "latitude": 48.57201767, "longitude": -3.84707475, "name": "SMDC BINIGOU J2 - J3", "postCode": "29600", "samplingLocationCode": "8", "horaires": null, "infos": null, "metro": null, "bus": null, "tram": null, "parking": null, "debutInfos": null, "finInfos": null, "ville": null, "id": null, "phone": null, "urlBlood": null, "urlPlasma": null, "urlPlatelets": null}
{"address1": null, "address2": "PARK AR ROUDOUR", "city": "SAINT MARTIN DES CHAMPS", "convocationLabel": "LE ROUDOUR", "distance": 0.0, "fullAddress": "PARK AR ROUDOUR 29600 SAINT MARTIN DES CHAMPS", "giveBlood": 1, "givePlasma": 0, "givePlatelet": 0, "regionCode": "016", "groupCode": "F50244", "latitude": 48.572147, "longitude": -3.846704, "name": "J1 JUILLET", "postCode": "29600", "samplingLocationCode": "841", "horaires": null, "infos": null, "metro": null, "bus": null, "tram": null, "parking": null, "debutInfos": null, "finInfos": null, "ville": null, "id": null, "phone": null, "urlBlood": null, "urlPlasma": null, "urlPlatelets": null}
