{"address1": null, "address2": "2 RUE PARK AR FETAN", "city": "BRECH", "convocationLabel": "SALLE MUNICIPALE", "distance": 0.0, "fullAddress": "2 RUE PARK AR FETAN 56400 BRECH", "giveBlood": 1, "givePlasma": 0, "givePlatelet": 0, "regionCode": "016", "groupCode": "F30113", "latitude": 47.720384, "longitude": -2.997715, "name": "BRECH SALLE MUNICIPALE  S", "postCode": "56400", "samplingLocationCode": "1472", "horaires": null, "infos": null, "metro": null, "bus": null, "tram": null, "parking": null, "debutInfos": null, "finInfos": null, "ville": null, "id": null, "phone": null, "urlBlood": null, "urlPlasma": null, "urlPlatelets": null}
{"address1": null, "address2": "8 RUE JEAN IV DUC DE BRETAGNE", "city": "BRECH", "convocationLabel": "SALLE DE LA MAIRIE ANNEXE DE PENHOET", "distance": 0.0, "fullAddress": "8 RUE JEAN IV DUC DE BRETAGNE 56400 BRECH", "giveBlood": 1, "givePlasma": 0, "givePlatelet": 0, "regionCode": "016", "groupCode": "F30113", "latitude": 47.68402, "longitude": -2.996545, "name": "SALLE DE LA MAIRIE ANNEXE (S)", "postCode": "56400", "samplingLocationCode": "2", "horaires": null, "infos": null, "metro": null, "bus": null, "tram": null, "parking": null, "debutInfos": null, "finInfos": null, "ville": null, "id": null, "phone": null, "urlBlood": null, "urlPlasma": null, "urlPlatelets": null}
{"address1": null, "address2": "2 RUE PARK AR FETAN", "city": "BRECH", "convocationLabel": "SALLE MUNICIPALE", "distance": 0.0, "fullAddress": "2 RUE PARK AR FETAN 56400 BRECH", "giveBlood": 1, "givePlasma": 0, "givePlatelet": 0, "regionCode": "016", "groupCode": "F30113", "latitude": 47.720384, "longitude": -2.997715, "name": "BRECH SALLE MUNICIPALE  M", "postCode": "56400", "samplingLocationCode": "3", "horaires": null, "infos": null, "metro": null, "bus": null, "tram": null, "parking": null, "debutInfos": null, "finInfos": null, "ville": null, "id": null, "phone": null, "urlBlood": null, "urlPlasma": null, "urlPlatelets": null}
{"address1": null, "address2": "2 RUE PARK AR FETAN", "city": "BRECH", "convocationLabel": "SALLE MUNICIPALE", "distance": 0.0, "fullAddress": "2 RUE PARK AR FETAN 56400 BRECH", "giveBlood": 1, "givePlasma": 0, "givePlatelet": 0, "regionCode": "016", "groupCode": "F30113", "latitude": 47.72006607, "longitude": -2.99860573, "name": "BRECH- 15 h - 19 h", "postCode": "56400", "samplingLocationCode": "4", "horaires": null, "infos": null, "metro": null, "bus": null, "tram": null, "parking": null, "debutInfos": null, "finInfos": null, "ville": null, "id": null, "phone": null, "urlBlood": null, "urlPlasma": null, "urlPlatelets": null}
{"address1": null, "address2": "2 RUE PARK AR FETAN", "city": "BRECH", "convocationLabel": "RESTAURANT SCOLAIRE", "distance": 0.0, "fullAddress": "2 RUE PARK AR FETAN 56400 BRECH", "giveBlood": 1, "givePlasma": 0, "givePlatelet": 0, "regionCode": "016", "groupCode": "F30113", "latitude": 47.720384, "longitude": -2.997715, "name": "BRECH RESTAU SCOL (M) LORIENT", "postCode": "56400", "samplingLocationCode": "5", "horaires": null, "infos": null, "metro": null, "bus": null, "tram": null, "parking": null, "debutInfos": null, "finInfos": null, "ville": null, "id": null, "phone": null, "urlBlood": null, "urlPlasma": null, "urlPlatelets": null}
{"address1": null, "address2": "2 RUE PARK AR FETAN", "city": "BRECH", "convocationLabel": "SALLE MUNICIPALE", "distance": 0.0, "fullAddress": "2 RUE PARK AR FETAN 56400 BRECH", "giveBlood": 1, "givePlasma": 0, "givePlatelet": 0, "regionCode": "016", "groupCode": "F30113", "latitude": 47.720384, "longitude": -2.997715, "name": "BRECH 14 H 45 - 18 H 45", "postCode": "56400", "samplingLocationCode": "6", "horaires": null, "infos": null, "metro": null, "bus": null, "tram": null, "parking": null, "debutInfos": null, "finInfos": null, "ville": null, "id": null, "phone": null, "urlBlood": null, "urlPlasma": null, "urlPlatelets": null}
{"address1": null, "address2": "2 RUE PARK AR FETAN", "city": "BRECH", "convocationLabel": "SALLE MUNICIPALE", "distance": 0.0, "fullAddress": "2 RUE PARK AR FETAN 56400 BRECH", "giveBlood": 1, "givePlasma": 0, "givePlatelet": 0, "regionCode": "016", "groupCode": "F30113", "latitude": 47.71915436, "longitude": -2.99642873, "name": "BRECH 15 h - 18 h 45", "postCode": "56400", "samplingLocationCode": "7", "horaires": null, "infos": null, "metro": null, "bus": null, "tram": null, "parking": null, "debutInfos": null, "finInfos": null, "ville": null, "id": null, "phone": null, "urlBlood": null, "urlPlasma": null, "urlPlatelets": null}
{"address1": null, "address2": "8 RUE JEAN IV DUC DE BRETAGNE", "city": "BRECH", "convocationLabel": "MAIRIE ANNEXE", "distance": 0.0, "fullAddress": "8 RUE JEAN IV DUC DE BRETAGNE 56400 BRECH", "giveBlood": 1, "givePlasma": 0, "givePlatelet": 0, "regionCode": "016", "groupCode": "F30113", "latitude": 47.6838913, "longitude": -2.9966774, "name": "BRECH - MAIRIE ANNEXE", "postCode": "56400", "samplingLocationCode": "8", "horaires": null, "infos": null, "metro": null, "bus": null, "tram": null, "parking": null, "debutInfos": null, "finInfos": null, "ville": null, "id": null, "phone": null, "urlBlood": null, "urlPlasma": null, "urlPlatelets": null}
