{"address1": null, "address2": "AVENUE DU PRESIDENT JF KENNEDY", "city": "AURAY", "convocationLabel": "SALLE PERON - PARKING SAINT JOSEPH", "distance": 0.0, "fullAddress": "AVENUE DU PRESIDENT JF KENNEDY 56400 AURAY", "giveBlood": 1, "givePlasma": 0, "givePlatelet": 0, "regionCode": "016", "groupCode": "F30105", "latitude": 47.67023468, "longitude": -2.97974777, "name": "AURAY MATIN", "postCode": "56400", "samplingLocationCode": "10", "horaires": null, "infos": null, "metro": null, "bus": null, "tram": null, "parking": null, "debutInfos": null, "finInfos": null, "ville": null, "id": null, "phone": null, "urlBlood": null, "urlPlasma": null, "urlPlatelets": null}
{"address1": null, "address2": "RUE DU VERGER", "city": "AURAY", "convocationLabel": "COMPLEXE SPORTIF MUNICIPAL DU VERGER", "distance": 0.0, "fullAddress": "RUE DU VERGER 56400 AURAY", "giveBlood": 1, "givePlasma": 0, "givePlatelet": 0, "regionCode": "016", "groupCode": "F30105", "latitude": 47.663595, "longitude": -2.985382, "name": "AURAY COMPLEXE SPORTIF VERGER", "postCode": "56400", "samplingLocationCode": "11", "horaires": null, "infos": null, "metro": null, "bus": null, "tram": null, "parking": null, "debutInfos": null, "finInfos": null, "ville": null, "id": null, "phone": null, "urlBlood": null, "urlPlasma": null, "urlPlatelets": null}
{"address1": null, "address2": "AVENUE DU PRESIDENT JF KENNEDY", "city": "AURAY", "convocationLabel": "SALLE PERON - PARKING SAINT JOSEPH", "distance": 0.0, "fullAddress": "AVENUE DU PRESIDENT JF KENNEDY 56400 AURAY", "giveBlood": 1, "givePlasma": 0, "givePlatelet": 0, "regionCode": "016", "groupCode": "F30105", "latitude": 47.67075, "longitude": -2.988255, "name": "AURAY  12 H - 16 H 30", "postCode": "56400", "samplingLocationCode": "12", "horaires": null, "infos": null, "metro": null, "bus": null, "tram": null, "parking": null, "debutInfos": null, "finInfos": null, "ville": null, "id": null, "phone": null, "urlBlood": null, "urlPlasma": null, "urlPlatelets": null}
{"address1": null, "address2": "AVENUE DU PRESIDENT JF KENNEDY", "city": "AURAY", "convocationLabel": "SALLE PERON - PARKING SAINT JOSEPH", "distance": 0.0, "fullAddress": "AVENUE DU PRESIDENT JF KENNEDY 56400 AURAY", "giveBlood": 1, "givePlasma": 0, "givePlatelet": 0, "regionCode": "016", "groupCode": "F30105", "latitude": 47.67075, "longitude": -2.988255, "name": "AURAY 14 h - 18 h 30", "postCode": "56400", "samplingLocationCode": "13", "horaires": null, "infos": null, "metro": null, "bus": null, "tram": null, "parking": null, "debutInfos": null, "finInfos": null, "ville": null, "id": null, "phone": null, "urlBlood": null, "urlPlasma": null, "urlPlatelets": null}
{"address1": null, "address2": "AVENUE DU PRESIDENT JF KENNEDY", "city": "AURAY", "convocationLabel": "SALLE PERON - PARKING SAINT JOSEPH", "distance": 0.0, "fullAddress": "AVENUE DU PRESIDENT JF KENNEDY 56400 AURAY", "giveBlood": 1, "givePlasma": 0, "givePlatelet": 0, "regionCode": "016", "groupCode": "F30105", "latitude": 47.67075, "longitude": -2.988255, "name": "AURAY 13 h 30 - 18 h 00", "postCode": "56400", "samplingLocationCode": "14", "horaires": null, "infos": null, "metro": null, "bus": null, "tram": null, "parking": null, "debutInfos": null, "finInfos": null, "ville": null, "id": null, "phone": null, "urlBlood": null, "urlPlasma": null, "urlPlatelets": null}
{"address1": null, "address2": "PLACE DU GOHLEREZ", "city": "AURAY", "convocationLabel": "ESPACE ATHENA", "distance": 0.0, "fullAddress": "PLACE DU GOHLEREZ 56400 AURAY", "giveBlood": 1, "givePlasma": 0, "givePlatelet": 0, "regionCode": "016", "groupCode": "F30105", "latitude": 47.66571808, "longitude": -2.98949623, "name": "AURAY - ATHENA 14 h 30 -19 h ", "postCode": "56400", "samplingLocationCode": "1471", "horaires": null, "infos": null, "metro": null, "bus": null, "tram": null, "parking": null, "debutInfos": null, "finInfos": null, "ville": null, "id": null, "phone": null, "urlBlood": null, "urlPlasma": null, "urlPlatelets": null}
{"address1": null, "address2": "PLACE DU GOHLEREZ", "city": "AURAY", "convocationLabel": "ESPACE ATHENA", "distance": 0.0, "fullAddress": "PLACE DU GOHLEREZ 56400 AURAY", "giveBlood": 1, "givePlasma": 0, "givePlatelet": 0, "regionCode": "016", "groupCode": "F30105", "latitude": 47.66583962133947, "longitude": -2.989654541015625, "name": "AURAY ATHENA 9H-13H", "postCode": "56400", "samplingLocationCode": "15", "horaires": null, "infos": null, "metro": null, "bus": null, "tram": null, "parking": null, "debutInfos": null, "finInfos": null, "ville": null, "id": null, "phone": null, "urlBlood": null, "urlPlasma": null, "urlPlatelets": null}
{"address1": "SELF", "address2": "1 RUE DE LA FORET", "city": "AURAY", "convocationLabel": "LYCEE BENJAMIN FRANKLIN", "distance": 0.0, "fullAddress": "SELF 1 RUE DE LA FORET 56400 AURAY", "giveBlood": 1, "givePlasma": 0, "givePlatelet": 0, "regionCode": "016", "groupCode": "F30105", "latitude": 47.671608, "longitude": -2.980237, "name": "AURAY - LYCEE B FRANKLIN", "postCode": "56400", "samplingLocationCode": "16", "horaires": null, "infos": null, "metro": null, "bus": null, "tram": null, "parking": null, "debutInfos": null, "finInfos": null, "ville": null, "id": null, "phone": null, "urlBlood": null, "urlPlasma": null, "urlPlatelets": null}
{"address1": null, "address2": "PLACE DU GOHLEREZ", "city": "AURAY", "convocationLabel": "ESPACE ATHENA", "distance": 0.0, "fullAddress": "PLACE DU GOHLEREZ 56400 AURAY", "giveBlood": 1, "givePlasma": 0, "givePlatelet": 0, "regionCode": "016", "groupCode": "F30105", "latitude": 47.66574097, "longitude": -2.98943186, "name": "AURAY 15/19 JPM", "postCode": "56400", "samplingLocationCode": "2", "horaires": null, "infos": null, "metro": null, "bus": null, "tram": null, "parking": null, "debutInfos": null, "finInfos": null, "ville": null, "id": null, "phone": null, "urlBlood": null, "urlPlasma": null, "urlPlatelets": null}
{"address1": null, "address2": "AVENUE DU PRESIDENT JF KENNEDY", "city": "AURAY", "convocationLabel": "SALLE PERON - PARKING SAINT JOSEPH", "distance": 0.0, "fullAddress": "AVENUE DU PRESIDENT JF KENNEDY 56400 AURAY", "giveBlood": 1, "givePlasma": 0, "givePlatelet": 0, "regionCode": "016", "groupCode": "F30105", "latitude": 47.67023468, "longitude": -2.97974777, "name": "AURAY 14h30-19h00", "postCode": "56400", "samplingLocationCode": "3", "horaires": null, "infos": null, "metro": null, "bus": null, "tram": null, "parking": null, "debutInfos": null, "finInfos": null, "ville": null, "id": null, "phone": null, "urlBlood": null, "urlPlasma": null, "urlPlatelets": null}
{"address1": null, "address2": "PLACE DU GOHLEREZ", "city": "AURAY", "convocationLabel": "ESPACE ATHENA", "distance": 0.0, "fullAddress": "PLACE DU GOHLEREZ 56400 AURAY", "giveBlood": 1, "givePlasma": 0, "givePlatelet": 0, "regionCode": "016", "groupCode": "F30105", "latitude": 47.665147, "longitude": -2.989331, "name": "AURAY 10/18h30", "postCode": "56400", "samplingLocationCode": "4", "horaires": null, "infos": null, "metro": null, "bus": null, "tram": null, "parking": null, "debutInfos": null, "finInfos": null, "ville": null, "id": null, "phone": null, "urlBlood": null, "urlPlasma": null, "urlPlatelets": null}
{"address1": null, "address2": "PLACE DU GOHLEREZ", "city": "AURAY", "convocationLabel": "ESPACE ATHENA", "distance": 0.0, "fullAddress": "PLACE DU GOHLEREZ 56400 AURAY", "giveBlood": 1, "givePlasma": 0, "givePlatelet": 0, "regionCode": "016", "groupCode": "F30105", "latitude": 47.665147, "longitude": -2.989331, "name": "AURAY 10h30/13-15/19", "postCode": "56400", "samplingLocationCode": "5", "horaires": null, "infos": null, "metro": null, "bus": null, "tram": null, "parking": null, "debutInfos": null, "finInfos": null, "ville": null, "id": null, "phone": null, "urlBlood": null, "urlPlasma": null, "urlPlatelets": null}
{"address1": null, "address2": "PLACE DU GOHLEREZ", "city": "AURAY", "convocationLabel": "ESPACE ATHENA", "distance": 0.0, "fullAddress": "PLACE DU GOHLEREZ 56400 AURAY", "giveBlood": 1, "givePlasma": 0, "givePlatelet": 0, "regionCode": "016", "groupCode": "F30105", "latitude": 47.665147, "longitude": -2.989331, "name": "AURAY MATIN", "postCode": "56400", "samplingLocationCode": "6", "horaires": null, "infos": null, "metro": null, "bus": null, "tram": null, "parking": null, "debutInfos": null, "finInfos": null, "ville": null, "id": null, "phone": null, "urlBlood": null, "urlPlasma": null, "urlPlatelets": null}
{"address1": null, "address2": "AVENUE PIERRE DUGOR", "city": "AURAY", "convocationLabel": "GYMNASE DE LA FORET", "distance": 0.0, "fullAddress": "AVENUE PIERRE DUGOR 56400 AURAY", "giveBlood": 1, "givePlasma": 0, "givePlatelet": 0, "regionCode": "016", "groupCode": "F30105", "latitude": 47.673339, "longitude": -2.983224, "name": "AURAY-GYMNASE 14H30/19H00", "postCode": "56400", "samplingLocationCode": "8", "horaires": null, "infos": null, "metro": null, "bus": null, "tram": null, "parking": null, "debutInfos": null, "finInfos": null, "ville": null, "id": null, "phone": null, "urlBlood": null, "urlPlasma": null, "urlPlatelets": null}
{"address1": null, "address2": "AVENUE PIERRE DUGOR", "city": "AURAY", "convocationLabel": "GYMNASE DE LA FORET", "distance": 0.0, "fullAddress": "AVENUE PIERRE DUGOR 56400 AURAY", "giveBlood": 1, "givePlasma": 0, "givePlatelet": 0, "regionCode": "016", "groupCode": "F30105", "latitude": 47.673339, "longitude": -2.983224, "name": "AURAY GYMNASE MATIN", "postCode": "56400", "samplingLocationCode": "9", "horaires": null, "infos": null, "metro": null, "bus": null, "tram": null, "parking": null, "debutInfos": null, "finInfos": null, "ville": null, "id": null, "phone": null, "urlBlood": null, "urlPlasma": null, "urlPlatelets": null}
