{"address1": null, "address2": "RUE DU DR WAGNER", "city": "LE RHEU", "convocationLabel": "CENTRE ADMINISTRATIF", "distance": 0.0, "fullAddress": "RUE DU DR WAGNER 35650 LE RHEU", "giveBlood": 1, "givePlasma": 0, "givePlatelet": 0, "regionCode": "016", "groupCode": "F70191", "latitude": 48.10167, "longitude": -1.794758, "name": "LE RHEU C. ADMINI V. FERIE MAT", "postCode": "35650", "samplingLocationCode": "2", "horaires": null, "infos": null, "metro": null, "bus": null, "tram": null, "parking": null, "debutInfos": null, "finInfos": null, "ville": null, "id": null, "phone": null, "urlBlood": null, "urlPlasma": null, "urlPlatelets": null}
{"address1": null, "address2": "RUE DU DR WAGNER", "city": "LE RHEU", "convocationLabel": "CENTRE ADMINISTRATIF", "distance": 0.0, "fullAddress": "RUE DU DR WAGNER 35650 LE RHEU", "giveBlood": 1, "givePlasma": 0, "givePlatelet": 0, "regionCode": "016", "groupCode": "F70191", "latitude": 48.10167, "longitude": -1.794758, "name": "LE RHEU C. ADMINI. SEM", "postCode": "35650", "samplingLocationCode": "203", "horaires": null, "infos": null, "metro": null, "bus": null, "tram": null, "parking": null, "debutInfos": null, "finInfos": null, "ville": null, "id": null, "phone": null, "urlBlood": null, "urlPlasma": null, "urlPlatelets": null}
{"address1": null, "address2": "RUE DE L'HERMITAGE", "city": "LE RHEU", "convocationLabel": "SALLE MARIETTE NANSOT", "distance": 0.0, "fullAddress": "RUE DE L'HERMITAGE 35650 LE RHEU", "giveBlood": 1, "givePlasma": 0, "givePlatelet": 0, "regionCode": "016", "groupCode": "F70191", "latitude": 48.10030365, "longitude": -1.79247987, "name": "LE RHEU SALLE OMNISPORT SEM", "postCode": "35650", "samplingLocationCode": "3", "horaires": null, "infos": null, "metro": null, "bus": null, "tram": null, "parking": null, "debutInfos": null, "finInfos": null, "ville": null, "id": null, "phone": null, "urlBlood": null, "urlPlasma": null, "urlPlatelets": null}
{"address1": null, "address2": "RUE DE L'HERMITAGE", "city": "LE RHEU", "convocationLabel": "SALLE MARIETTE NANSOT", "distance": 0.0, "fullAddress": "RUE DE L'HERMITAGE 35650 LE RHEU", "giveBlood": 1, "givePlasma": 0, "givePlatelet": 0, "regionCode": "016", "groupCode": "F70191", "latitude": 48.102591, "longitude": -1.797345, "name": "LE RHEU SALLE OMNISPORT MAT", "postCode": "35650", "samplingLocationCode": "4", "horaires": null, "infos": null, "metro": null, "bus": null, "tram": null, "parking": null, "debutInfos": null, "finInfos": null, "ville": null, "id": null, "phone": null, "urlBlood": null, "urlPlasma": null, "urlPlatelets": null}
{"address1": null, "address2": "RUE DE L'HERMITAGE", "city": "LE RHEU", "convocationLabel": "SALLE MARIETTE NANSOT", "distance": 0.0, "fullAddress": "RUE DE L'HERMITAGE 35650 LE RHEU", "giveBlood": 1, "givePlasma": 0, "givePlatelet": 0, "regionCode": "016", "groupCode": "F70191", "latitude": 48.102591, "longitude": -1.797345, "name": "LE RHEU SALLE OMNISPORT AM", "postCode": "35650", "samplingLocationCode": "5", "horaires": null, "infos": null, "metro": null, "bus": null, "tram": null, "parking": null, "debutInfos": null, "finInfos": null, "ville": null, "id": null, "phone": null, "urlBlood": null, "urlPlasma": null, "urlPlatelets": null}
{"address1": null, "address2": "RUE DE L'HERMITAGE", "city": "LE RHEU", "convocationLabel": "SALLE MARIETTE NANSOT", "distance": 0.0, "fullAddress": "RUE DE L'HERMITAGE 35650 LE RHEU", "giveBlood": 1, "givePlasma": 0, "givePlatelet": 0, "regionCode": "016", "groupCode": "F70191", "latitude": 48.10389328, "longitude": -1.79641354, "name": "2 LE RHEU-NANSOT AM ", "postCode": "35650", "samplingLocationCode": "6", "horaires": null, "infos": null, "metro": null, "bus": null, "tram": null, "parking": null, "debutInfos": null, "finInfos": null, "ville": null, "id": null, "phone": null, "urlBlood": null, "urlPlasma": null, "urlPlatelets": null}
