{"address1": null, "address2": "AVENUE DU PORHOET", "city": "TAUPONT", "convocationLabel": "SALLE DES FETES pr\u00e8s de la mairie", "distance": 0.0, "fullAddress": "AVENUE DU PORHOET 56800 TAUPONT", "giveBlood": 1, "givePlasma": 0, "givePlatelet": 0, "regionCode": "016", "groupCode": "F30350", "latitude": 47.958738, "longitude": -2.439239, "name": "TAUPONT 14 h 30 - 18 h 30", "postCode": "56800", "samplingLocationCode": "10", "horaires": null, "infos": null, "metro": null, "bus": null, "tram": null, "parking": null, "debutInfos": null, "finInfos": null, "ville": null, "id": null, "phone": null, "urlBlood": null, "urlPlasma": null, "urlPlatelets": null}
{"address1": null, "address2": "AVENUE DU PORHOET", "city": "TAUPONT", "convocationLabel": "SALLE DES FETES pr\u00e8s de la mairie", "distance": 0.0, "fullAddress": "AVENUE DU PORHOET 56800 TAUPONT", "giveBlood": 1, "givePlasma": 0, "givePlatelet": 0, "regionCode": "016", "groupCode": "F30350", "latitude": 47.958738, "longitude": -2.439239, "name": "TAUPONT 12 h - 16 h", "postCode": "56800", "samplingLocationCode": "11", "horaires": null, "infos": null, "metro": null, "bus": null, "tram": null, "parking": null, "debutInfos": null, "finInfos": null, "ville": null, "id": null, "phone": null, "urlBlood": null, "urlPlasma": null, "urlPlatelets": null}
{"address1": null, "address2": "AVENUE DU PORHOET", "city": "TAUPONT", "convocationLabel": "SALLE DES FETES pr\u00e8s de la mairie", "distance": 0.0, "fullAddress": "AVENUE DU PORHOET 56800 TAUPONT", "giveBlood": 1, "givePlasma": 0, "givePlatelet": 0, "regionCode": "016", "groupCode": "F30350", "latitude": 47.958738, "longitude": -2.439239, "name": "TAUPONT 14 h 00 - 18 h 00", "postCode": "56800", "samplingLocationCode": "12", "horaires": null, "infos": null, "metro": null, "bus": null, "tram": null, "parking": null, "debutInfos": null, "finInfos": null, "ville": null, "id": null, "phone": null, "urlBlood": null, "urlPlasma": null, "urlPlatelets": null}
{"address1": null, "address2": "RUE GENERAL GIRAUD", "city": "PLOERMEL", "convocationLabel": "SALLE DES FETES", "distance": 0.0, "fullAddress": "RUE GENERAL GIRAUD 56800 PLOERMEL", "giveBlood": 1, "givePlasma": 0, "givePlatelet": 0, "regionCode": "016", "groupCode": "F30350", "latitude": 47.92851639, "longitude": -2.39622283, "name": "PLOERMEL 14 H - 18 H", "postCode": "56800", "samplingLocationCode": "13", "horaires": null, "infos": null, "metro": null, "bus": null, "tram": null, "parking": null, "debutInfos": null, "finInfos": null, "ville": null, "id": null, "phone": null, "urlBlood": null, "urlPlasma": null, "urlPlatelets": null}
{"address1": null, "address2": "RUE GENERAL GIRAUD", "city": "PLOERMEL", "convocationLabel": "SALLE DES FETES", "distance": 0.0, "fullAddress": "RUE GENERAL GIRAUD 56800 PLOERMEL", "giveBlood": 1, "givePlasma": 0, "givePlatelet": 0, "regionCode": "016", "groupCode": "F30350", "latitude": 47.92851639, "longitude": -2.39622283, "name": "PLOERMEL ENTREPRISES- LYCEES", "postCode": "56800", "samplingLocationCode": "14", "horaires": null, "infos": null, "metro": null, "bus": null, "tram": null, "parking": null, "debutInfos": null, "finInfos": null, "ville": null, "id": null, "phone": null, "urlBlood": null, "urlPlasma": null, "urlPlatelets": null}
{"address1": null, "address2": "RUE GENERAL GIRAUD", "city": "PLOERMEL", "convocationLabel": "SALLE DES FETES", "distance": 0.0, "fullAddress": "RUE GENERAL GIRAUD 56800 PLOERMEL", "giveBlood": 1, "givePlasma": 0, "givePlatelet": 0, "regionCode": "016", "groupCode": "F30350", "latitude": 47.92851639, "longitude": -2.39622283, "name": "PLOERMEL-SALLE DES FETES", "postCode": "56800", "samplingLocationCode": "1548", "horaires": null, "infos": null, "metro": null, "bus": null, "tram": null, "parking": null, "debutInfos": null, "finInfos": null, "ville": null, "id": null, "phone": null, "urlBlood": null, "urlPlasma": null, "urlPlatelets": null}
{"address1": null, "address2": "RUE GENERAL GIRAUD", "city": "PLOERMEL", "convocationLabel": "SALLE DES FETES", "distance": 0.0, "fullAddress": "RUE GENERAL GIRAUD 56800 PLOERMEL", "giveBlood": 1, "givePlasma": 0, "givePlatelet": 0, "regionCode": "016", "groupCode": "F30350", "latitude": 47.92851639, "longitude": -2.39622283, "name": "PLOERMEL-SALLE DES FETES  AM", "postCode": "56800", "samplingLocationCode": "2", "horaires": null, "infos": null, "metro": null, "bus": null, "tram": null, "parking": null, "debutInfos": null, "finInfos": null, "ville": null, "id": null, "phone": null, "urlBlood": null, "urlPlasma": null, "urlPlatelets": null}
{"address1": null, "address2": "RUE DU GENERAL GIRAUD", "city": "PLOERMEL", "convocationLabel": "SALLE DES FETES", "distance": 0.0, "fullAddress": "RUE DU GENERAL GIRAUD 56800 PLOERMEL", "giveBlood": 1, "givePlasma": 0, "givePlatelet": 0, "regionCode": "016", "groupCode": "F30350", "latitude": 47.928576, "longitude": -2.396075, "name": "PLOERMEL J", "postCode": "56800", "samplingLocationCode": "3", "horaires": null, "infos": null, "metro": null, "bus": null, "tram": null, "parking": null, "debutInfos": null, "finInfos": null, "ville": null, "id": null, "phone": null, "urlBlood": null, "urlPlasma": null, "urlPlatelets": null}
{"address1": null, "address2": "RUE PIERRE DE COUBERTIN", "city": "PLOERMEL", "convocationLabel": "CENTRE ARTS MARTIAUX", "distance": 0.0, "fullAddress": "RUE PIERRE DE COUBERTIN 56800 PLOERMEL", "giveBlood": 1, "givePlasma": 0, "givePlatelet": 0, "regionCode": "016", "groupCode": "F30350", "latitude": 47.924489, "longitude": -2.395929, "name": "PLOERMEL ENTREPRISE OU LYCEES", "postCode": "56800", "samplingLocationCode": "4", "horaires": null, "infos": null, "metro": null, "bus": null, "tram": null, "parking": null, "debutInfos": null, "finInfos": null, "ville": null, "id": null, "phone": null, "urlBlood": null, "urlPlasma": null, "urlPlatelets": null}
{"address1": null, "address2": "RUE DU LAC", "city": "PLOERMEL", "convocationLabel": "E LECLERC", "distance": 0.0, "fullAddress": "RUE DU LAC 56800 PLOERMEL", "giveBlood": 1, "givePlasma": 0, "givePlatelet": 0, "regionCode": "016", "groupCode": "F30350", "latitude": 47.936348, "longitude": -2.401524, "name": "PLOERMEL E LECLERC", "postCode": "56800", "samplingLocationCode": "5", "horaires": null, "infos": null, "metro": null, "bus": null, "tram": null, "parking": null, "debutInfos": null, "finInfos": null, "ville": null, "id": null, "phone": null, "urlBlood": null, "urlPlasma": null, "urlPlatelets": null}
{"address1": null, "address2": "RUE DE LA LIBERATION", "city": "GOURHEL", "convocationLabel": "SALLE DES FETES", "distance": 0.0, "fullAddress": "RUE DE LA LIBERATION 56800 GOURHEL", "giveBlood": 1, "givePlasma": 0, "givePlatelet": 0, "regionCode": "016", "groupCode": "F30350", "latitude": 47.937255, "longitude": -2.362286, "name": "GOURHEL-SALLE DES FETES PM", "postCode": "56800", "samplingLocationCode": "6", "horaires": null, "infos": null, "metro": null, "bus": null, "tram": null, "parking": null, "debutInfos": null, "finInfos": null, "ville": null, "id": null, "phone": null, "urlBlood": null, "urlPlasma": null, "urlPlatelets": null}
{"address1": null, "address2": "RUE DE LA LIBERATION", "city": "GOURHEL", "convocationLabel": "SALLE DES FETES", "distance": 0.0, "fullAddress": "RUE DE LA LIBERATION 56800 GOURHEL", "giveBlood": 1, "givePlasma": 0, "givePlatelet": 0, "regionCode": "016", "groupCode": "F30350", "latitude": 47.937255, "longitude": -2.362286, "name": "GOURHEL-SALLE DES FETES AM", "postCode": "56800", "samplingLocationCode": "7", "horaires": null, "infos": null, "metro": null, "bus": null, "tram": null, "parking": null, "debutInfos": null, "finInfos": null, "ville": null, "id": null, "phone": null, "urlBlood": null, "urlPlasma": null, "urlPlatelets": null}
{"address1": null, "address2": "RUE PIERRE DE COUBERTIN", "city": "PLOERMEL", "convocationLabel": "CENTRE REGIONAL DES ARTS MARTIAUX", "distance": 0.0, "fullAddress": "RUE PIERRE DE COUBERTIN 56800 PLOERMEL", "giveBlood": 1, "givePlasma": 0, "givePlatelet": 0, "regionCode": "016", "groupCode": "F30350", "latitude": 47.924489, "longitude": -2.395929, "name": "PLOERMEL-CENTRE ARTS MARTIAUX", "postCode": "56800", "samplingLocationCode": "8", "horaires": null, "infos": null, "metro": null, "bus": null, "tram": null, "parking": null, "debutInfos": null, "finInfos": null, "ville": null, "id": null, "phone": null, "urlBlood": null, "urlPlasma": null, "urlPlatelets": null}
{"address1": null, "address2": "RUE GENERAL GIRAUD", "city": "PLOERMEL", "convocationLabel": "SALLE DES FETES", "distance": 0.0, "fullAddress": "RUE GENERAL GIRAUD 56800 PLOERMEL", "giveBlood": 1, "givePlasma": 0, "givePlatelet": 0, "regionCode": "016", "groupCode": "F30350", "latitude": 47.928576, "longitude": -2.396075, "name": "PLOERMEL 12 h 00 - 16 h 00", "postCode": "56800", "samplingLocationCode": "9", "horaires": null, "infos": null, "metro": null, "bus": null, "tram": null, "parking": null, "debutInfos": null, "finInfos": null, "ville": null, "id": null, "phone": null, "urlBlood": null, "urlPlasma": null, "urlPlatelets": null}
