{"address1": null, "address2": "RUE ALEXIS GEFFRAULT", "city": "NOYAL SUR VILAINE", "convocationLabel": "SALLE LA PARENTHESE", "distance": 0.0, "fullAddress": "RUE ALEXIS GEFFRAULT 35530 NOYAL SUR VILAINE", "giveBlood": 1, "givePlasma": 0, "givePlatelet": 0, "regionCode": "016", "groupCode": "F70158", "latitude": 48.113957, "longitude": -1.521816, "name": "NOYAL/VILAINE", "postCode": "35530", "samplingLocationCode": "171", "horaires": null, "infos": null, "metro": null, "bus": null, "tram": null, "parking": null, "debutInfos": null, "finInfos": null, "ville": null, "id": null, "phone": null, "urlBlood": null, "urlPlasma": null, "urlPlatelets": null}
{"address1": null, "address2": "RUE JOSEPH  DESHOMMES", "city": "NOYAL SUR VILAINE", "convocationLabel": "SALLE TREMA", "distance": 0.0, "fullAddress": "RUE JOSEPH  DESHOMMES 35530 NOYAL SUR VILAINE", "giveBlood": 1, "givePlasma": 0, "givePlatelet": 0, "regionCode": "016", "groupCode": "F70158", "latitude": 48.10483932, "longitude": -1.51971483, "name": "2 NOYAL/VILAINE-TREMA MAT", "postCode": "35530", "samplingLocationCode": "2", "horaires": null, "infos": null, "metro": null, "bus": null, "tram": null, "parking": null, "debutInfos": null, "finInfos": null, "ville": null, "id": null, "phone": null, "urlBlood": null, "urlPlasma": null, "urlPlatelets": null}
{"address1": null, "address2": "RUE JOSEPH  DESHOMMES", "city": "NOYAL SUR VILAINE", "convocationLabel": "SALLE TREMA", "distance": 0.0, "fullAddress": "RUE JOSEPH  DESHOMMES 35530 NOYAL SUR VILAINE", "giveBlood": 1, "givePlasma": 0, "givePlatelet": 0, "regionCode": "016", "groupCode": "F70158", "latitude": 48.1047821, "longitude": -1.51967192, "name": "NOYAL/VILAINE AM SEM", "postCode": "35530", "samplingLocationCode": "3", "horaires": null, "infos": null, "metro": null, "bus": null, "tram": null, "parking": null, "debutInfos": null, "finInfos": null, "ville": null, "id": null, "phone": null, "urlBlood": null, "urlPlasma": null, "urlPlatelets": null}
{"address1": null, "address2": "RUE JOSEPH  DESHOMMES", "city": "NOYAL SUR VILAINE", "convocationLabel": "SALLE TREMA", "distance": 0.0, "fullAddress": "RUE JOSEPH  DESHOMMES 35530 NOYAL SUR VILAINE", "giveBlood": 1, "givePlasma": 0, "givePlatelet": 0, "regionCode": "016", "groupCode": "F70158", "latitude": 48.104853, "longitude": -1.518691, "name": "NOYAL/VILAINE VEILLE FERIE MAT", "postCode": "35530", "samplingLocationCode": "4", "horaires": null, "infos": null, "metro": null, "bus": null, "tram": null, "parking": null, "debutInfos": null, "finInfos": null, "ville": null, "id": null, "phone": null, "urlBlood": null, "urlPlasma": null, "urlPlatelets": null}
{"address1": null, "address2": "RUE JOSEPH  DESHOMMES", "city": "NOYAL SUR VILAINE", "convocationLabel": "SALLE TREMA", "distance": 0.0, "fullAddress": "RUE JOSEPH  DESHOMMES 35530 NOYAL SUR VILAINE", "giveBlood": 1, "givePlasma": 0, "givePlatelet": 0, "regionCode": "016", "groupCode": "F70158", "latitude": 48.10512924, "longitude": -1.51789749, "name": "2 NOYAL/VILAINE-TREMA AM", "postCode": "35530", "samplingLocationCode": "5", "horaires": null, "infos": null, "metro": null, "bus": null, "tram": null, "parking": null, "debutInfos": null, "finInfos": null, "ville": null, "id": null, "phone": null, "urlBlood": null, "urlPlasma": null, "urlPlatelets": null}
{"address1": null, "address2": "RUE JOSEPH  DESHOMMES", "city": "NOYAL SUR VILAINE", "convocationLabel": "SALLE TREMA", "distance": 0.0, "fullAddress": "RUE JOSEPH  DESHOMMES 35530 NOYAL SUR VILAINE", "giveBlood": 1, "givePlasma": 0, "givePlatelet": 0, "regionCode": "016", "groupCode": "F70158", "latitude": 48.104853, "longitude": -1.518691, "name": "2 NOYAL/VILAINE-TREMA DAM J+", "postCode": "35530", "samplingLocationCode": "6", "horaires": null, "infos": null, "metro": null, "bus": null, "tram": null, "parking": null, "debutInfos": null, "finInfos": null, "ville": null, "id": null, "phone": null, "urlBlood": null, "urlPlasma": null, "urlPlatelets": null}
{"address1": null, "address2": "RUE JOSEPH DESHOMMES", "city": "NOYAL SUR VILAINE", "convocationLabel": "SALLE TREMA", "distance": 0.0, "fullAddress": "RUE JOSEPH DESHOMMES 35530 NOYAL SUR VILAINE", "giveBlood": 1, "givePlasma": 0, "givePlatelet": 0, "regionCode": "016", "groupCode": "F70158", "latitude": 48.104853, "longitude": -1.518691, "name": "2 NOYAL/VILAINE-TREMA DAM ", "postCode": "35530", "samplingLocationCode": "7", "horaires": null, "infos": null, "metro": null, "bus": null, "tram": null, "parking": null, "debutInfos": null, "finInfos": null, "ville": null, "id": null, "phone": null, "urlBlood": null, "urlPlasma": null, "urlPlatelets": null}
{"address1": null, "address2": "RUE JOSEPH  DESHOMMES", "city": "NOYAL SUR VILAINE", "convocationLabel": "SALLE TREMA", "distance": 0.0, "fullAddress": "RUE JOSEPH  DESHOMMES 35530 NOYAL SUR VILAINE", "giveBlood": 1, "givePlasma": 0, "givePlatelet": 0, "regionCode": "016", "groupCode": "F70158", "latitude": 48.104853, "longitude": -1.518691, "name": "2 NOYAL/VILAINE-TREMA VE AM", "postCode": "35530", "samplingLocationCode": "8", "horaires": null, "infos": null, "metro": null, "bus": null, "tram": null, "parking": null, "debutInfos": null, "finInfos": null, "ville": null, "id": null, "phone": null, "urlBlood": null, "urlPlasma": null, "urlPlatelets": null}
