{"address1": null, "address2": "2 RUE DE LA MAIRIE", "city": "MONT DOL", "convocationLabel": "SALLE DE LA MAIRIE MONT DOL", "distance": 0.0, "fullAddress": "2 RUE DE LA MAIRIE 35120 MONT DOL", "giveBlood": 1, "givePlasma": 0, "givePlatelet": 0, "regionCode": "016", "groupCode": "F70070", "latitude": 48.569941, "longitude": -1.768831, "name": "DOL DE BRETAGNE MT DOL SA AM", "postCode": "35120", "samplingLocationCode": "10", "horaires": null, "infos": null, "metro": null, "bus": null, "tram": null, "parking": null, "debutInfos": null, "finInfos": null, "ville": null, "id": null, "phone": null, "urlBlood": null, "urlPlasma": null, "urlPlatelets": null}
{"address1": null, "address2": "PLACE DE LA CATHEDRALE", "city": "DOL DE BRETAGNE", "convocationLabel": "ESPACE NOMINOE", "distance": 0.0, "fullAddress": "PLACE DE LA CATHEDRALE 35120 DOL DE BRETAGNE", "giveBlood": 1, "givePlasma": 0, "givePlatelet": 0, "regionCode": "016", "groupCode": "F70070", "latitude": 48.550495, "longitude": -1.756543, "name": "DOL DE BRETAGNE NOMINOE matin", "postCode": "35120", "samplingLocationCode": "11", "horaires": null, "infos": null, "metro": null, "bus": null, "tram": null, "parking": null, "debutInfos": null, "finInfos": null, "ville": null, "id": null, "phone": null, "urlBlood": null, "urlPlasma": null, "urlPlatelets": null}
{"address1": null, "address2": "PLACE DE LA CATHEDRALE", "city": "DOL DE BRETAGNE", "convocationLabel": "ESPACE NOMINOE", "distance": 0.0, "fullAddress": "PLACE DE LA CATHEDRALE 35120 DOL DE BRETAGNE", "giveBlood": 1, "givePlasma": 0, "givePlatelet": 0, "regionCode": "016", "groupCode": "F70070", "latitude": 48.550495, "longitude": -1.756543, "name": "DOL DE BRETAGNE NOMINOE amidi", "postCode": "35120", "samplingLocationCode": "12", "horaires": null, "infos": null, "metro": null, "bus": null, "tram": null, "parking": null, "debutInfos": null, "finInfos": null, "ville": null, "id": null, "phone": null, "urlBlood": null, "urlPlasma": null, "urlPlatelets": null}
{"address1": null, "address2": "1 RUE CHATEAUBRIAND", "city": "DOL DE BRETAGNE", "convocationLabel": "SALLE CHATEAUBRIAND", "distance": 0.0, "fullAddress": "1 RUE CHATEAUBRIAND 35120 DOL DE BRETAGNE", "giveBlood": 1, "givePlasma": 0, "givePlatelet": 0, "regionCode": "016", "groupCode": "F70070", "latitude": 48.550452, "longitude": -1.750816, "name": "DOL DE BRETAGNE VEILLE FE MAT", "postCode": "35120", "samplingLocationCode": "13", "horaires": null, "infos": null, "metro": null, "bus": null, "tram": null, "parking": null, "debutInfos": null, "finInfos": null, "ville": null, "id": null, "phone": null, "urlBlood": null, "urlPlasma": null, "urlPlatelets": null}
{"address1": null, "address2": "1 RUE CHATEAUBRIAND", "city": "DOL DE BRETAGNE", "convocationLabel": "SALLE CHATEAUBRIAND", "distance": 0.0, "fullAddress": "1 RUE CHATEAUBRIAND 35120 DOL DE BRETAGNE", "giveBlood": 1, "givePlasma": 0, "givePlatelet": 0, "regionCode": "016", "groupCode": "F70070", "latitude": 48.55044174, "longitude": -1.75064933, "name": "2 DOL DE BRETAGNE-CHATEAU AM ", "postCode": "35120", "samplingLocationCode": "14", "horaires": null, "infos": null, "metro": null, "bus": null, "tram": null, "parking": null, "debutInfos": null, "finInfos": null, "ville": null, "id": null, "phone": null, "urlBlood": null, "urlPlasma": null, "urlPlatelets": null}
{"address1": null, "address2": "1 RUE CHATEAUBRIAND", "city": "DOL DE BRETAGNE", "convocationLabel": "SALLE CHATEAUBRIAND", "distance": 0.0, "fullAddress": "1 RUE CHATEAUBRIAND 35120 DOL DE BRETAGNE", "giveBlood": 1, "givePlasma": 0, "givePlatelet": 0, "regionCode": "016", "groupCode": "F70070", "latitude": 48.550452, "longitude": -1.750816, "name": "2 DOL DE BRETAGNE-CHATEAU DAM", "postCode": "35120", "samplingLocationCode": "15", "horaires": null, "infos": null, "metro": null, "bus": null, "tram": null, "parking": null, "debutInfos": null, "finInfos": null, "ville": null, "id": null, "phone": null, "urlBlood": null, "urlPlasma": null, "urlPlatelets": null}
{"address1": "DANS LA COUR DU CATHEDRALOSCOPE", "address2": "3 PLACE DE LA CATHEDRALE", "city": "DOL DE BRETAGNE", "convocationLabel": "SALLE NOMINOE", "distance": 0.0, "fullAddress": "DANS LA COUR DU CATHEDRALOSCOPE 3 PLACE DE LA CATHEDRALE 35120 DOL DE BRETAGNE", "giveBlood": 1, "givePlasma": 0, "givePlatelet": 0, "regionCode": "016", "groupCode": "F70070", "latitude": 48.55038071, "longitude": -1.75647581, "name": "2 DOL DE BRETAGNE-NOMINOE AM", "postCode": "35120", "samplingLocationCode": "16", "horaires": null, "infos": null, "metro": null, "bus": null, "tram": null, "parking": null, "debutInfos": null, "finInfos": null, "ville": null, "id": null, "phone": null, "urlBlood": null, "urlPlasma": null, "urlPlatelets": null}
{"address1": "DANS LA COUR DU CATHEDRALOSCOPE", "address2": "3 PLACE DE LA CATHEDRALE", "city": "DOL DE BRETAGNE", "convocationLabel": "SALLE NOMINOE", "distance": 0.0, "fullAddress": "DANS LA COUR DU CATHEDRALOSCOPE 3 PLACE DE LA CATHEDRALE 35120 DOL DE BRETAGNE", "giveBlood": 1, "givePlasma": 0, "givePlatelet": 0, "regionCode": "016", "groupCode": "F70070", "latitude": 48.550495, "longitude": -1.756543, "name": "2 DOL DE BRETAGNE-NOMINOE DAM ", "postCode": "35120", "samplingLocationCode": "17", "horaires": null, "infos": null, "metro": null, "bus": null, "tram": null, "parking": null, "debutInfos": null, "finInfos": null, "ville": null, "id": null, "phone": null, "urlBlood": null, "urlPlasma": null, "urlPlatelets": null}
{"address1": null, "address2": "1 RUE DE CHATEAUBRIAND", "city": "DOL DE BRETAGNE", "convocationLabel": "SALLE CHATEAUBRIAND", "distance": 0.0, "fullAddress": "1 RUE DE CHATEAUBRIAND 35120 DOL DE BRETAGNE", "giveBlood": 1, "givePlasma": 0, "givePlatelet": 0, "regionCode": "016", "groupCode": "F70070", "latitude": 48.550452, "longitude": -1.750816, "name": "2 DOL DE BRETAGNE-CHATEA VE AM", "postCode": "35120", "samplingLocationCode": "18", "horaires": null, "infos": null, "metro": null, "bus": null, "tram": null, "parking": null, "debutInfos": null, "finInfos": null, "ville": null, "id": null, "phone": null, "urlBlood": null, "urlPlasma": null, "urlPlatelets": null}
{"address1": null, "address2": "1 RUE CHATEAUBRIAND", "city": "DOL DE BRETAGNE", "convocationLabel": "SALLE CHATEAUBRIAND", "distance": 0.0, "fullAddress": "1 RUE CHATEAUBRIAND 35120 DOL DE BRETAGNE", "giveBlood": 1, "givePlasma": 0, "givePlatelet": 0, "regionCode": "016", "groupCode": "F70070", "latitude": 48.550452, "longitude": -1.750816, "name": "DOL DE BRETAGNE CHAT.SEM MAT", "postCode": "35120", "samplingLocationCode": "2", "horaires": null, "infos": null, "metro": null, "bus": null, "tram": null, "parking": null, "debutInfos": null, "finInfos": null, "ville": null, "id": null, "phone": null, "urlBlood": null, "urlPlasma": null, "urlPlatelets": null}
{"address1": null, "address2": "4 RUE DES MURETS", "city": "DOL DE BRETAGNE", "convocationLabel": "LYCEE LES VERGERS (entr\u00e9e rue des Murets)", "distance": 0.0, "fullAddress": "4 RUE DES MURETS 35120 DOL DE BRETAGNE", "giveBlood": 1, "givePlasma": 0, "givePlatelet": 0, "regionCode": "016", "groupCode": "F70070", "latitude": 48.552255, "longitude": -1.752755, "name": "DOL DE BRETAGNE SEM matin", "postCode": "35120", "samplingLocationCode": "3", "horaires": null, "infos": null, "metro": null, "bus": null, "tram": null, "parking": null, "debutInfos": null, "finInfos": null, "ville": null, "id": null, "phone": null, "urlBlood": null, "urlPlasma": null, "urlPlatelets": null}
{"address1": null, "address2": "1 RUE CHATEAUBRIAND", "city": "DOL DE BRETAGNE", "convocationLabel": "SALLE CHATEAUBRIAND", "distance": 0.0, "fullAddress": "1 RUE CHATEAUBRIAND 35120 DOL DE BRETAGNE", "giveBlood": 1, "givePlasma": 0, "givePlatelet": 0, "regionCode": "016", "groupCode": "F70070", "latitude": 48.550452, "longitude": -1.750816, "name": "DOL DE BRETAGNE CHATEAU SEM AM", "postCode": "35120", "samplingLocationCode": "4", "horaires": null, "infos": null, "metro": null, "bus": null, "tram": null, "parking": null, "debutInfos": null, "finInfos": null, "ville": null, "id": null, "phone": null, "urlBlood": null, "urlPlasma": null, "urlPlatelets": null}
{"address1": null, "address2": "1 RUE CHATEAUBRIAND", "city": "DOL DE BRETAGNE", "convocationLabel": "SALLE CHATEAUBRIAND", "distance": 0.0, "fullAddress": "1 RUE CHATEAUBRIAND 35120 DOL DE BRETAGNE", "giveBlood": 1, "givePlasma": 0, "givePlatelet": 0, "regionCode": "016", "groupCode": "F70070", "latitude": 48.55044937, "longitude": -1.75063396, "name": "DOL DE BRETAGNE SA", "postCode": "35120", "samplingLocationCode": "5", "horaires": null, "infos": null, "metro": null, "bus": null, "tram": null, "parking": null, "debutInfos": null, "finInfos": null, "ville": null, "id": null, "phone": null, "urlBlood": null, "urlPlasma": null, "urlPlatelets": null}
{"address1": null, "address2": "4 RUE DES MURETS", "city": "DOL DE BRETAGNE", "convocationLabel": " LYCEE LES VERGERS", "distance": 0.0, "fullAddress": "4 RUE DES MURETS 35120 DOL DE BRETAGNE", "giveBlood": 1, "givePlasma": 0, "givePlatelet": 0, "regionCode": "016", "groupCode": "F70070", "latitude": 48.552255, "longitude": -1.752755, "name": "DOL DE BRETAGNE SA AM VERGER", "postCode": "35120", "samplingLocationCode": "6", "horaires": null, "infos": null, "metro": null, "bus": null, "tram": null, "parking": null, "debutInfos": null, "finInfos": null, "ville": null, "id": null, "phone": null, "urlBlood": null, "urlPlasma": null, "urlPlatelets": null}
{"address1": null, "address2": "PLACE DE LA CATHEDRALE", "city": "DOL DE BRETAGNE", "convocationLabel": "ESPACE NOMINOE", "distance": 0.0, "fullAddress": "PLACE DE LA CATHEDRALE 35120 DOL DE BRETAGNE", "giveBlood": 1, "givePlasma": 0, "givePlatelet": 0, "regionCode": "016", "groupCode": "F70070", "latitude": 48.550495, "longitude": -1.756543, "name": "DOL DE BRETAGNE SA MAT NOMINOE", "postCode": "35120", "samplingLocationCode": "7", "horaires": null, "infos": null, "metro": null, "bus": null, "tram": null, "parking": null, "debutInfos": null, "finInfos": null, "ville": null, "id": null, "phone": null, "urlBlood": null, "urlPlasma": null, "urlPlatelets": null}
{"address1": null, "address2": "PLACE DE LA CATHEDRALE", "city": "DOL DE BRETAGNE", "convocationLabel": "SALLE NOMINOE", "distance": 0.0, "fullAddress": "PLACE DE LA CATHEDRALE 35120 DOL DE BRETAGNE", "giveBlood": 1, "givePlasma": 0, "givePlatelet": 0, "regionCode": "016", "groupCode": "F70070", "latitude": 48.550495, "longitude": -1.756543, "name": "DOL DE BRETAGNE NOMINOE SAMEDI", "postCode": "35120", "samplingLocationCode": "8", "horaires": null, "infos": null, "metro": null, "bus": null, "tram": null, "parking": null, "debutInfos": null, "finInfos": null, "ville": null, "id": null, "phone": null, "urlBlood": null, "urlPlasma": null, "urlPlatelets": null}
{"address1": null, "address2": "4 RUE DES MURETS", "city": "DOL DE BRETAGNE", "convocationLabel": " LYCEE LES VERGERS", "distance": 0.0, "fullAddress": "4 RUE DES MURETS 35120 DOL DE BRETAGNE", "giveBlood": 1, "givePlasma": 0, "givePlatelet": 0, "regionCode": "016", "groupCode": "F70070", "latitude": 48.552255, "longitude": -1.752755, "name": "DOL DE BRETAGNE SA MAT VERGER", "postCode": "35120", "samplingLocationCode": "83", "horaires": null, "infos": null, "metro": null, "bus": null, "tram": null, "parking": null, "debutInfos": null, "finInfos": null, "ville": null, "id": null, "phone": null, "urlBlood": null, "urlPlasma": null, "urlPlatelets": null}
{"address1": null, "address2": "2 RUE DE LA MAIRIE", "city": "MONT DOL", "convocationLabel": "SALLE DE LA MAIRIE MONT DOL", "distance": 0.0, "fullAddress": "2 RUE DE LA MAIRIE 35120 MONT DOL", "giveBlood": 1, "givePlasma": 0, "givePlatelet": 0, "regionCode": "016", "groupCode": "F70070", "latitude": 48.569941, "longitude": -1.768831, "name": "DOL DE BRETAGNE MT DOL SA MAT", "postCode": "35120", "samplingLocationCode": "9", "horaires": null, "infos": null, "metro": null, "bus": null, "tram": null, "parking": null, "debutInfos": null, "finInfos": null, "ville": null, "id": null, "phone": null, "urlBlood": null, "urlPlasma": null, "urlPlatelets": null}
