{"address1": null, "address2": "RUE ROBERT JAN", "city": "CONCARNEAU", "convocationLabel": "COMPLEXE SPORTIF DES SABLES BLANCS", "distance": 0.0, "fullAddress": "RUE ROBERT JAN 29900 CONCARNEAU", "giveBlood": 1, "givePlasma": 0, "givePlatelet": 0, "regionCode": "016", "groupCode": "F50034", "latitude": 47.877724, "longitude": -3.92687, "name": "CC Sables Blancs J4", "postCode": "29900", "samplingLocationCode": "10", "horaires": null, "infos": null, "metro": null, "bus": null, "tram": null, "parking": null, "debutInfos": null, "finInfos": null, "ville": null, "id": null, "phone": null, "urlBlood": null, "urlPlasma": null, "urlPlatelets": null}
{"address1": null, "address2": "10 BOULEVARD BOUGAINVILLE", "city": "CONCARNEAU", "convocationLabel": "C.A.C.  SALLE DE RECEPTION", "distance": 0.0, "fullAddress": "10 BOULEVARD BOUGAINVILLE 29900 CONCARNEAU", "giveBlood": 1, "givePlasma": 0, "givePlatelet": 0, "regionCode": "016", "groupCode": "F50034", "latitude": 47.870067, "longitude": -3.921792, "name": "CC  CAC JeuM et LunM", "postCode": "29900", "samplingLocationCode": "1088", "horaires": null, "infos": null, "metro": null, "bus": null, "tram": null, "parking": null, "debutInfos": null, "finInfos": null, "ville": null, "id": null, "phone": null, "urlBlood": null, "urlPlasma": null, "urlPlatelets": null}
{"address1": null, "address2": "10 BOULEVARD BOUGAINVILLE", "city": "CONCARNEAU", "convocationLabel": "C.A.C SALLE DE RECEPTION", "distance": 0.0, "fullAddress": "10 BOULEVARD BOUGAINVILLE 29900 CONCARNEAU", "giveBlood": 1, "givePlasma": 0, "givePlatelet": 0, "regionCode": "016", "groupCode": "F50034", "latitude": 47.8700943, "longitude": -3.92176104, "name": "CONCARNEAU CAC J1 2022", "postCode": "29900", "samplingLocationCode": "11", "horaires": null, "infos": null, "metro": null, "bus": null, "tram": null, "parking": null, "debutInfos": null, "finInfos": null, "ville": null, "id": null, "phone": null, "urlBlood": null, "urlPlasma": null, "urlPlatelets": null}
{"address1": null, "address2": "10 BOULEVARD OUGAINVILLE", "city": "CONCARNEAU", "convocationLabel": "C.A.C SALLE DE RECEPTION", "distance": 0.0, "fullAddress": "10 BOULEVARD OUGAINVILLE 29900 CONCARNEAU", "giveBlood": 1, "givePlasma": 0, "givePlatelet": 0, "regionCode": "016", "groupCode": "F50034", "latitude": 47.8700943, "longitude": -3.92176104, "name": "CONCARNEAU CAC J2 2022", "postCode": "29900", "samplingLocationCode": "12", "horaires": null, "infos": null, "metro": null, "bus": null, "tram": null, "parking": null, "debutInfos": null, "finInfos": null, "ville": null, "id": null, "phone": null, "urlBlood": null, "urlPlasma": null, "urlPlatelets": null}
{"address1": null, "address2": "10 BOULEVARD BOUGAINVILLE", "city": "CONCARNEAU", "convocationLabel": "C.A.C SALLE DE RECEPTION", "distance": 0.0, "fullAddress": "10 BOULEVARD BOUGAINVILLE 29900 CONCARNEAU", "giveBlood": 1, "givePlasma": 0, "givePlatelet": 0, "regionCode": "016", "groupCode": "F50034", "latitude": 47.8700943, "longitude": -3.92176104, "name": "CONCARNEAU CAC J3 2022", "postCode": "29900", "samplingLocationCode": "13", "horaires": null, "infos": null, "metro": null, "bus": null, "tram": null, "parking": null, "debutInfos": null, "finInfos": null, "ville": null, "id": null, "phone": null, "urlBlood": null, "urlPlasma": null, "urlPlatelets": null}
{"address1": null, "address2": "QUAI DE LA CROIX", "city": "CONCARNEAU", "convocationLabel": "POLE NAUTIQUE DE LA CROIX", "distance": 0.0, "fullAddress": "QUAI DE LA CROIX 29900 CONCARNEAU", "giveBlood": 1, "givePlasma": 0, "givePlatelet": 0, "regionCode": "016", "groupCode": "F50034", "latitude": 47.86938, "longitude": -3.917988, "name": "CONCARNEAU POLE NAUTIQUE J1", "postCode": "29900", "samplingLocationCode": "14", "horaires": null, "infos": null, "metro": null, "bus": null, "tram": null, "parking": null, "debutInfos": null, "finInfos": null, "ville": null, "id": null, "phone": null, "urlBlood": null, "urlPlasma": null, "urlPlatelets": null}
{"address1": null, "address2": "QUAI DE LA CROIX", "city": "CONCARNEAU", "convocationLabel": "POLE NAUTIQUE DE LA CROIX", "distance": 0.0, "fullAddress": "QUAI DE LA CROIX 29900 CONCARNEAU", "giveBlood": 1, "givePlasma": 0, "givePlatelet": 0, "regionCode": "016", "groupCode": "F50034", "latitude": 47.86938, "longitude": -3.917988, "name": "CONCARNEAU POLE NAUTIQUE J2", "postCode": "29900", "samplingLocationCode": "15", "horaires": null, "infos": null, "metro": null, "bus": null, "tram": null, "parking": null, "debutInfos": null, "finInfos": null, "ville": null, "id": null, "phone": null, "urlBlood": null, "urlPlasma": null, "urlPlatelets": null}
{"address1": null, "address2": "QUAI DE LA CROIX", "city": "CONCARNEAU", "convocationLabel": "POLE NAUTIQUE DE LA CROIX", "distance": 0.0, "fullAddress": "QUAI DE LA CROIX 29900 CONCARNEAU", "giveBlood": 1, "givePlasma": 0, "givePlatelet": 0, "regionCode": "016", "groupCode": "F50034", "latitude": 47.86938, "longitude": -3.917988, "name": "CONCARNEAU POLE NAUTIQUE J3", "postCode": "29900", "samplingLocationCode": "16", "horaires": null, "infos": null, "metro": null, "bus": null, "tram": null, "parking": null, "debutInfos": null, "finInfos": null, "ville": null, "id": null, "phone": null, "urlBlood": null, "urlPlasma": null, "urlPlatelets": null}
{"address1": null, "address2": "QUAI DE LA CROIX", "city": "CONCARNEAU", "convocationLabel": "POLE NAUTIQUE DE LA CROIX", "distance": 0.0, "fullAddress": "QUAI DE LA CROIX 29900 CONCARNEAU", "giveBlood": 1, "givePlasma": 0, "givePlatelet": 0, "regionCode": "016", "groupCode": "F50034", "latitude": 47.86901474, "longitude": -3.91757584, "name": "CONCARNEAU POLE J1", "postCode": "29900", "samplingLocationCode": "17", "horaires": null, "infos": null, "metro": null, "bus": null, "tram": null, "parking": null, "debutInfos": null, "finInfos": null, "ville": null, "id": null, "phone": null, "urlBlood": null, "urlPlasma": null, "urlPlatelets": null}
{"address1": null, "address2": "QUAI DE LA CROIX", "city": "CONCARNEAU", "convocationLabel": "POLE NAUTIQUE DE LA CROIX", "distance": 0.0, "fullAddress": "QUAI DE LA CROIX 29900 CONCARNEAU", "giveBlood": 1, "givePlasma": 0, "givePlatelet": 0, "regionCode": "016", "groupCode": "F50034", "latitude": 47.86901474, "longitude": -3.91757584, "name": "CONCARNEAU POLE J2", "postCode": "29900", "samplingLocationCode": "18", "horaires": null, "infos": null, "metro": null, "bus": null, "tram": null, "parking": null, "debutInfos": null, "finInfos": null, "ville": null, "id": null, "phone": null, "urlBlood": null, "urlPlasma": null, "urlPlatelets": null}
{"address1": null, "address2": "QUAI DE LA CROIX", "city": "CONCARNEAU", "convocationLabel": "POLE NAUTIQUE DE LA CROIX", "distance": 0.0, "fullAddress": "QUAI DE LA CROIX 29900 CONCARNEAU", "giveBlood": 1, "givePlasma": 0, "givePlatelet": 0, "regionCode": "016", "groupCode": "F50034", "latitude": 47.86901474, "longitude": -3.91757584, "name": "CONCARNEAU POLE J3", "postCode": "29900", "samplingLocationCode": "19", "horaires": null, "infos": null, "metro": null, "bus": null, "tram": null, "parking": null, "debutInfos": null, "finInfos": null, "ville": null, "id": null, "phone": null, "urlBlood": null, "urlPlasma": null, "urlPlatelets": null}
{"address1": null, "address2": "10 BOULEVARD BOUGAINVILLE", "city": "CONCARNEAU", "convocationLabel": "C.A.C. SALLE DE RECEPTION", "distance": 0.0, "fullAddress": "10 BOULEVARD BOUGAINVILLE 29900 CONCARNEAU", "giveBlood": 1, "givePlasma": 0, "givePlatelet": 0, "regionCode": "016", "groupCode": "F50034", "latitude": 47.870067, "longitude": -3.921792, "name": "CC CAC VM", "postCode": "29900", "samplingLocationCode": "2", "horaires": null, "infos": null, "metro": null, "bus": null, "tram": null, "parking": null, "debutInfos": null, "finInfos": null, "ville": null, "id": null, "phone": null, "urlBlood": null, "urlPlasma": null, "urlPlatelets": null}
{"address1": null, "address2": "26 RUE MARECHAL FOCH", "city": "CONCARNEAU", "convocationLabel": "MAISON DES ASSOCIATIONS SALLE KORNOG", "distance": 0.0, "fullAddress": "26 RUE MARECHAL FOCH 29900 CONCARNEAU", "giveBlood": 1, "givePlasma": 0, "givePlatelet": 0, "regionCode": "016", "groupCode": "F50034", "latitude": 47.891735, "longitude": -3.896018, "name": "CONCARNEAU  J1", "postCode": "29900", "samplingLocationCode": "20", "horaires": null, "infos": null, "metro": null, "bus": null, "tram": null, "parking": null, "debutInfos": null, "finInfos": null, "ville": null, "id": null, "phone": null, "urlBlood": null, "urlPlasma": null, "urlPlatelets": null}
{"address1": null, "address2": "26 RUE MARECHAL FOCH", "city": "CONCARNEAU", "convocationLabel": "MAISON DES ASSOCIATIONS SALLE KORNOG", "distance": 0.0, "fullAddress": "26 RUE MARECHAL FOCH 29900 CONCARNEAU", "giveBlood": 1, "givePlasma": 0, "givePlatelet": 0, "regionCode": "016", "groupCode": "F50034", "latitude": 47.891735, "longitude": -3.896018, "name": "CONCARNEAU  J2", "postCode": "29900", "samplingLocationCode": "21", "horaires": null, "infos": null, "metro": null, "bus": null, "tram": null, "parking": null, "debutInfos": null, "finInfos": null, "ville": null, "id": null, "phone": null, "urlBlood": null, "urlPlasma": null, "urlPlatelets": null}
{"address1": null, "address2": "10 BD BOUGAINVILLE", "city": "CONCARNEAU", "convocationLabel": "C.A.C. SALLE DE RECEPTION", "distance": 0.0, "fullAddress": "10 BD BOUGAINVILLE 29900 CONCARNEAU", "giveBlood": 1, "givePlasma": 0, "givePlatelet": 0, "regionCode": "016", "groupCode": "F50034", "latitude": 47.870067, "longitude": -3.921792, "name": "CC CAC Sa", "postCode": "29900", "samplingLocationCode": "3", "horaires": null, "infos": null, "metro": null, "bus": null, "tram": null, "parking": null, "debutInfos": null, "finInfos": null, "ville": null, "id": null, "phone": null, "urlBlood": null, "urlPlasma": null, "urlPlatelets": null}
{"address1": null, "address2": "10 BOULEVARD BOUGAINVILLE", "city": "CONCARNEAU", "convocationLabel": "C.A.C SALLE DE RECEPTION", "distance": 0.0, "fullAddress": "10 BOULEVARD BOUGAINVILLE 29900 CONCARNEAU", "giveBlood": 1, "givePlasma": 0, "givePlatelet": 0, "regionCode": "016", "groupCode": "F50034", "latitude": 47.870067, "longitude": -3.921792, "name": "CC CAC J AM", "postCode": "29900", "samplingLocationCode": "4", "horaires": null, "infos": null, "metro": null, "bus": null, "tram": null, "parking": null, "debutInfos": null, "finInfos": null, "ville": null, "id": null, "phone": null, "urlBlood": null, "urlPlasma": null, "urlPlatelets": null}
{"address1": null, "address2": "10 BOULEVARD BOUGAINVILLE", "city": "CONCARNEAU", "convocationLabel": "C.A.C. SALLE DE RECEPTION", "distance": 0.0, "fullAddress": "10 BOULEVARD BOUGAINVILLE 29900 CONCARNEAU", "giveBlood": 1, "givePlasma": 0, "givePlatelet": 0, "regionCode": "016", "groupCode": "F50034", "latitude": 47.870067, "longitude": -3.921792, "name": "CC CAC VenAM et MarAM", "postCode": "29900", "samplingLocationCode": "5", "horaires": null, "infos": null, "metro": null, "bus": null, "tram": null, "parking": null, "debutInfos": null, "finInfos": null, "ville": null, "id": null, "phone": null, "urlBlood": null, "urlPlasma": null, "urlPlatelets": null}
{"address1": null, "address2": "RUE ROBERT JAN", "city": "CONCARNEAU", "convocationLabel": "COMPLEXE SPORTIF DES SABLES BLANCS", "distance": 0.0, "fullAddress": "RUE ROBERT JAN 29900 CONCARNEAU", "giveBlood": 1, "givePlasma": 0, "givePlatelet": 0, "regionCode": "016", "groupCode": "F50034", "latitude": 47.87895203, "longitude": -3.92422152, "name": "CONCARNEAU Sables Blancs J1", "postCode": "29900", "samplingLocationCode": "6", "horaires": null, "infos": null, "metro": null, "bus": null, "tram": null, "parking": null, "debutInfos": null, "finInfos": null, "ville": null, "id": null, "phone": null, "urlBlood": null, "urlPlasma": null, "urlPlatelets": null}
{"address1": null, "address2": "RUE ROBERT JAN", "city": "CONCARNEAU", "convocationLabel": "COMPLEXE SPORTIF DES SABLES BLANCS", "distance": 0.0, "fullAddress": "RUE ROBERT JAN 29900 CONCARNEAU", "giveBlood": 1, "givePlasma": 0, "givePlatelet": 0, "regionCode": "016", "groupCode": "F50034", "latitude": 47.87895203, "longitude": -3.92422152, "name": "CONCARNEAU COMPLEXE J1", "postCode": "29900", "samplingLocationCode": "7", "horaires": null, "infos": null, "metro": null, "bus": null, "tram": null, "parking": null, "debutInfos": null, "finInfos": null, "ville": null, "id": null, "phone": null, "urlBlood": null, "urlPlasma": null, "urlPlatelets": null}
{"address1": null, "address2": "RUE ROBERT JAN", "city": "CONCARNEAU", "convocationLabel": "COMPLEXE SPORTIF DES SABLES BLANCS", "distance": 0.0, "fullAddress": "RUE ROBERT JAN 29900 CONCARNEAU", "giveBlood": 1, "givePlasma": 0, "givePlatelet": 0, "regionCode": "016", "groupCode": "F50034", "latitude": 47.87895203, "longitude": -3.92422152, "name": "CONCARNEAU COMPLEXE J2", "postCode": "29900", "samplingLocationCode": "8", "horaires": null, "infos": null, "metro": null, "bus": null, "tram": null, "parking": null, "debutInfos": null, "finInfos": null, "ville": null, "id": null, "phone": null, "urlBlood": null, "urlPlasma": null, "urlPlatelets": null}
