{"address1": null, "address2": "AVENUE DE BUSUM", "city": "CAMARET SUR MER", "convocationLabel": "SALLE OMNISPORTS", "distance": 0.0, "fullAddress": "AVENUE DE BUSUM 29570 CAMARET SUR MER", "giveBlood": 1, "givePlasma": 0, "givePlatelet": 0, "regionCode": "016", "groupCode": "F50017", "latitude": 48.27841187, "longitude": -4.60457468, "name": "CAMARET SALLE OMNISPORTS J1", "postCode": "29570", "samplingLocationCode": "2", "horaires": null, "infos": null, "metro": null, "bus": null, "tram": null, "parking": null, "debutInfos": null, "finInfos": null, "ville": null, "id": null, "phone": null, "urlBlood": null, "urlPlasma": null, "urlPlatelets": null}
{"address1": null, "address2": "AVENUE DE BUSUM", "city": "CAMARET SUR MER", "convocationLabel": "SALLE OMNISPORTS", "distance": 0.0, "fullAddress": "AVENUE DE BUSUM 29570 CAMARET SUR MER", "giveBlood": 1, "givePlasma": 0, "givePlatelet": 0, "regionCode": "016", "groupCode": "F50017", "latitude": 48.27841187, "longitude": -4.60457468, "name": "CAMARET SALLE OMNISPORTS J2", "postCode": "29570", "samplingLocationCode": "3", "horaires": null, "infos": null, "metro": null, "bus": null, "tram": null, "parking": null, "debutInfos": null, "finInfos": null, "ville": null, "id": null, "phone": null, "urlBlood": null, "urlPlasma": null, "urlPlatelets": null}
{"address1": null, "address2": "RUE DU LOC H", "city": "CAMARET SUR MER", "convocationLabel": "SALLE SAINT IVES", "distance": 0.0, "fullAddress": "RUE DU LOC H 29570 CAMARET SUR MER", "giveBlood": 1, "givePlasma": 0, "givePlatelet": 0, "regionCode": "016", "groupCode": "F50017", "latitude": 48.274148, "longitude": -4.595811, "name": "CAMARET SALLE SAINT IVES J1", "postCode": "29570", "samplingLocationCode": "4", "horaires": null, "infos": null, "metro": null, "bus": null, "tram": null, "parking": null, "debutInfos": null, "finInfos": null, "ville": null, "id": null, "phone": null, "urlBlood": null, "urlPlasma": null, "urlPlatelets": null}
{"address1": null, "address2": "RUE DU LOC H", "city": "CAMARET SUR MER", "convocationLabel": "SALLE SAINT IVES", "distance": 0.0, "fullAddress": "RUE DU LOC H 29570 CAMARET SUR MER", "giveBlood": 1, "givePlasma": 0, "givePlatelet": 0, "regionCode": "016", "groupCode": "F50017", "latitude": 48.274148, "longitude": -4.595811, "name": "CAMARET SALLE SAINT IVES J2", "postCode": "29570", "samplingLocationCode": "5", "horaires": null, "infos": null, "metro": null, "bus": null, "tram": null, "parking": null, "debutInfos": null, "finInfos": null, "ville": null, "id": null, "phone": null, "urlBlood": null, "urlPlasma": null, "urlPlatelets": null}
{"address1": null, "address2": "RUE DU LOC H", "city": "CAMARET SUR MER", "convocationLabel": "SALLE SAINT IVES", "distance": 0.0, "fullAddress": "RUE DU LOC H 29570 CAMARET SUR MER", "giveBlood": 1, "givePlasma": 0, "givePlatelet": 0, "regionCode": "016", "groupCode": "F50017", "latitude": 48.274148, "longitude": -4.595811, "name": "CAMARET", "postCode": "29570", "samplingLocationCode": "882", "horaires": null, "infos": null, "metro": null, "bus": null, "tram": null, "parking": null, "debutInfos": null, "finInfos": null, "ville": null, "id": null, "phone": null, "urlBlood": null, "urlPlasma": null, "urlPlatelets": null}
