{"address1": null, "address2": "29, RUE GOUYON MATIGNON", "city": "DINARD", "convocationLabel": "SALLE DU COSEC", "distance": 0.0, "fullAddress": "29, RUE GOUYON MATIGNON 35800 DINARD", "giveBlood": 1, "givePlasma": 0, "givePlatelet": 0, "regionCode": "016", "groupCode": "F70068", "latitude": 48.623937, "longitude": -2.06678, "name": "DINARD COSEC J2 MAT", "postCode": "35800", "samplingLocationCode": "10", "horaires": null, "infos": null, "metro": null, "bus": null, "tram": null, "parking": null, "debutInfos": null, "finInfos": null, "ville": null, "id": null, "phone": null, "urlBlood": null, "urlPlasma": null, "urlPlatelets": null}
{"address1": null, "address2": "29, RUE GOUYON MATIGNON", "city": "DINARD", "convocationLabel": "SALLE DU COSEC", "distance": 0.0, "fullAddress": "29, RUE GOUYON MATIGNON 35800 DINARD", "giveBlood": 1, "givePlasma": 0, "givePlatelet": 0, "regionCode": "016", "groupCode": "F70068", "latitude": 48.623937, "longitude": -2.06678, "name": "DINARD COSEC J2 AM", "postCode": "35800", "samplingLocationCode": "11", "horaires": null, "infos": null, "metro": null, "bus": null, "tram": null, "parking": null, "debutInfos": null, "finInfos": null, "ville": null, "id": null, "phone": null, "urlBlood": null, "urlPlasma": null, "urlPlatelets": null}
{"address1": null, "address2": "29, RUE GOUYON MATIGNON", "city": "DINARD", "convocationLabel": "SALLE DU COSEC", "distance": 0.0, "fullAddress": "29, RUE GOUYON MATIGNON 35800 DINARD", "giveBlood": 1, "givePlasma": 0, "givePlatelet": 0, "regionCode": "016", "groupCode": "F70068", "latitude": 48.62359619, "longitude": -2.06626487, "name": "2 DINARD-COSEC J1 AM ", "postCode": "35800", "samplingLocationCode": "12", "horaires": null, "infos": null, "metro": null, "bus": null, "tram": null, "parking": null, "debutInfos": null, "finInfos": null, "ville": null, "id": null, "phone": null, "urlBlood": null, "urlPlasma": null, "urlPlatelets": null}
{"address1": null, "address2": "29, RUE GOUYON MATIGNON", "city": "DINARD", "convocationLabel": "SALLE DU COSEC", "distance": 0.0, "fullAddress": "29, RUE GOUYON MATIGNON 35800 DINARD", "giveBlood": 1, "givePlasma": 0, "givePlatelet": 0, "regionCode": "016", "groupCode": "F70068", "latitude": 48.623937, "longitude": -2.06678, "name": "2 DINARD-COSEC AM J+", "postCode": "35800", "samplingLocationCode": "13", "horaires": null, "infos": null, "metro": null, "bus": null, "tram": null, "parking": null, "debutInfos": null, "finInfos": null, "ville": null, "id": null, "phone": null, "urlBlood": null, "urlPlasma": null, "urlPlatelets": null}
{"address1": null, "address2": "29, RUE GOUYON MATIGNON", "city": "DINARD", "convocationLabel": "SALLE DU COSEC", "distance": 0.0, "fullAddress": "29, RUE GOUYON MATIGNON 35800 DINARD", "giveBlood": 1, "givePlasma": 0, "givePlatelet": 0, "regionCode": "016", "groupCode": "F70068", "latitude": 48.62359619, "longitude": -2.06626487, "name": "2 DINARD-COSEC J2 AM J+", "postCode": "35800", "samplingLocationCode": "14", "horaires": null, "infos": null, "metro": null, "bus": null, "tram": null, "parking": null, "debutInfos": null, "finInfos": null, "ville": null, "id": null, "phone": null, "urlBlood": null, "urlPlasma": null, "urlPlatelets": null}
{"address1": null, "address2": "29 RUE GOUYON MATIGNON", "city": "DINARD", "convocationLabel": "SALLE DU COSEC", "distance": 0.0, "fullAddress": "29 RUE GOUYON MATIGNON 35800 DINARD", "giveBlood": 1, "givePlasma": 0, "givePlatelet": 0, "regionCode": "016", "groupCode": "F70068", "latitude": 48.623937, "longitude": -2.06678, "name": "2 DINARD-COSEC DAM J+ 12-16h30", "postCode": "35800", "samplingLocationCode": "15", "horaires": null, "infos": null, "metro": null, "bus": null, "tram": null, "parking": null, "debutInfos": null, "finInfos": null, "ville": null, "id": null, "phone": null, "urlBlood": null, "urlPlasma": null, "urlPlatelets": null}
{"address1": null, "address2": "29, RUE GOUYON MATIGNON", "city": "DINARD", "convocationLabel": "SALLE DU COSEC", "distance": 0.0, "fullAddress": "29, RUE GOUYON MATIGNON 35800 DINARD", "giveBlood": 1, "givePlasma": 0, "givePlatelet": 0, "regionCode": "016", "groupCode": "F70068", "latitude": 48.623626, "longitude": -2.066415, "name": "2 DINARD-COSEC DAM (12-16h30)", "postCode": "35800", "samplingLocationCode": "16", "horaires": null, "infos": null, "metro": null, "bus": null, "tram": null, "parking": null, "debutInfos": null, "finInfos": null, "ville": null, "id": null, "phone": null, "urlBlood": null, "urlPlasma": null, "urlPlatelets": null}
{"address1": null, "address2": "29, RUE GOUYON MATIGNON", "city": null, "convocationLabel": "SALLE DU COSEC", "distance": 0.0, "fullAddress": "29, RUE GOUYON MATIGNON 35800", "giveBlood": 1, "givePlasma": 0, "givePlatelet": 0, "regionCode": "016", "groupCode": "F70068", "latitude": 48.623626, "longitude": -2.066415, "name": "2 DINARD-COSEC MAT J+", "postCode": "35800", "samplingLocationCode": "17", "horaires": null, "infos": null, "metro": null, "bus": null, "tram": null, "parking": null, "debutInfos": null, "finInfos": null, "ville": null, "id": null, "phone": null, "urlBlood": null, "urlPlasma": null, "urlPlatelets": null}
{"address1": null, "address2": "29, RUE GOUYON MATIGNON", "city": "DINARD", "convocationLabel": "SALLE DU COSEC", "distance": 0.0, "fullAddress": "29, RUE GOUYON MATIGNON 35800 DINARD", "giveBlood": 1, "givePlasma": 0, "givePlatelet": 0, "regionCode": "016", "groupCode": "F70068", "latitude": 48.623626, "longitude": -2.066415, "name": "2 DINARD-COSEC JO", "postCode": "35800", "samplingLocationCode": "18", "horaires": null, "infos": null, "metro": null, "bus": null, "tram": null, "parking": null, "debutInfos": null, "finInfos": null, "ville": null, "id": null, "phone": null, "urlBlood": null, "urlPlasma": null, "urlPlatelets": null}
{"address1": null, "address2": "29, rue Gouyon Matignon", "city": "DINARD", "convocationLabel": "SALLE DU COSEC", "distance": 0.0, "fullAddress": "29, rue Gouyon Matignon 35800 DINARD", "giveBlood": 1, "givePlasma": 0, "givePlatelet": 0, "regionCode": "016", "groupCode": "F70068", "latitude": 48.623937, "longitude": -2.06678, "name": "DINARD COSEC SEMAINE", "postCode": "35800", "samplingLocationCode": "2", "horaires": null, "infos": null, "metro": null, "bus": null, "tram": null, "parking": null, "debutInfos": null, "finInfos": null, "ville": null, "id": null, "phone": null, "urlBlood": null, "urlPlasma": null, "urlPlatelets": null}
{"address1": null, "address2": "4 bd du Pr\u00e9sident Wilson", "city": "DINARD", "convocationLabel": "CASINO BARRIERE DINARD", "distance": 0.0, "fullAddress": "4 bd du Pr\u00e9sident Wilson 35800 DINARD", "giveBlood": 1, "givePlasma": 0, "givePlatelet": 0, "regionCode": "016", "groupCode": "F70068", "latitude": 48.635452, "longitude": -2.053423, "name": "DINARD CASINO ETE J2 AM", "postCode": "35800", "samplingLocationCode": "3", "horaires": null, "infos": null, "metro": null, "bus": null, "tram": null, "parking": null, "debutInfos": null, "finInfos": null, "ville": null, "id": null, "phone": null, "urlBlood": null, "urlPlasma": null, "urlPlatelets": null}
{"address1": null, "address2": "4 bd du Pr\u00e9sident Wilson", "city": "DINARD", "convocationLabel": "CASINO BARRIERE DINARD", "distance": 0.0, "fullAddress": "4 bd du Pr\u00e9sident Wilson 35800 DINARD", "giveBlood": 1, "givePlasma": 0, "givePlatelet": 0, "regionCode": "016", "groupCode": "F70068", "latitude": 48.635452, "longitude": -2.053423, "name": "DINARD CASINO J1 SEMAINE AM", "postCode": "35800", "samplingLocationCode": "4", "horaires": null, "infos": null, "metro": null, "bus": null, "tram": null, "parking": null, "debutInfos": null, "finInfos": null, "ville": null, "id": null, "phone": null, "urlBlood": null, "urlPlasma": null, "urlPlatelets": null}
{"address1": null, "address2": "29, rue Gouyon Matignon", "city": "DINARD", "convocationLabel": "SALLE DU COSEC", "distance": 0.0, "fullAddress": "29, rue Gouyon Matignon 35800 DINARD", "giveBlood": 1, "givePlasma": 0, "givePlatelet": 0, "regionCode": "016", "groupCode": "F70068", "latitude": 48.623937, "longitude": -2.06678, "name": "DINARD COSEC SA", "postCode": "35800", "samplingLocationCode": "5", "horaires": null, "infos": null, "metro": null, "bus": null, "tram": null, "parking": null, "debutInfos": null, "finInfos": null, "ville": null, "id": null, "phone": null, "urlBlood": null, "urlPlasma": null, "urlPlatelets": null}
{"address1": null, "address2": "29, rue Gouyon Matignon", "city": "DINARD", "convocationLabel": "SALLE DU COSEC", "distance": 0.0, "fullAddress": "29, rue Gouyon Matignon 35800 DINARD", "giveBlood": 1, "givePlasma": 0, "givePlatelet": 0, "regionCode": "016", "groupCode": "F70068", "latitude": 48.623937, "longitude": -2.06678, "name": "DINARD COSEC SA amidi", "postCode": "35800", "samplingLocationCode": "6", "horaires": null, "infos": null, "metro": null, "bus": null, "tram": null, "parking": null, "debutInfos": null, "finInfos": null, "ville": null, "id": null, "phone": null, "urlBlood": null, "urlPlasma": null, "urlPlatelets": null}
{"address1": null, "address2": "4 bd du Pr\u00e9sident Wilson", "city": "DINARD", "convocationLabel": "CASINO BARRIERE DINARD", "distance": 0.0, "fullAddress": "4 bd du Pr\u00e9sident Wilson 35800 DINARD", "giveBlood": 1, "givePlasma": 0, "givePlatelet": 0, "regionCode": "016", "groupCode": "F70068", "latitude": 48.63549423, "longitude": -2.05369067, "name": "DINARD CASINO J2 SA", "postCode": "35800", "samplingLocationCode": "7", "horaires": null, "infos": null, "metro": null, "bus": null, "tram": null, "parking": null, "debutInfos": null, "finInfos": null, "ville": null, "id": null, "phone": null, "urlBlood": null, "urlPlasma": null, "urlPlatelets": null}
{"address1": null, "address2": "109 RUE DES ECOLES", "city": "SAINT LUNAIRE", "convocationLabel": "SALLE AIME LE FOL - RUE DES ECOLES", "distance": 0.0, "fullAddress": "109 RUE DES ECOLES 35800 SAINT LUNAIRE", "giveBlood": 1, "givePlasma": 0, "givePlatelet": 0, "regionCode": "016", "groupCode": "F70068", "latitude": 48.632547, "longitude": -2.107033, "name": "ST LUNAIRE AIME LE FOLL SA", "postCode": "35800", "samplingLocationCode": "8", "horaires": null, "infos": null, "metro": null, "bus": null, "tram": null, "parking": null, "debutInfos": null, "finInfos": null, "ville": null, "id": null, "phone": null, "urlBlood": null, "urlPlasma": null, "urlPlatelets": null}
{"address1": null, "address2": "4 bd du Pr\u00e9sident Wilson", "city": "DINARD", "convocationLabel": "CASINO BARRIERE DINARD", "distance": 0.0, "fullAddress": "4 bd du Pr\u00e9sident Wilson 35800 DINARD", "giveBlood": 1, "givePlasma": 0, "givePlatelet": 0, "regionCode": "016", "groupCode": "F70068", "latitude": 48.635452, "longitude": -2.053423, "name": "DINARD CASINO ETE J2 MAT", "postCode": "35800", "samplingLocationCode": "81", "horaires": null, "infos": null, "metro": null, "bus": null, "tram": null, "parking": null, "debutInfos": null, "finInfos": null, "ville": null, "id": null, "phone": null, "urlBlood": null, "urlPlasma": null, "urlPlatelets": null}
{"address1": null, "address2": "29, RUE GOUYON MATIGNON", "city": "DINARD", "convocationLabel": "SALLE DU COSEC", "distance": 0.0, "fullAddress": "29, RUE GOUYON MATIGNON 35800 DINARD", "giveBlood": 1, "givePlasma": 0, "givePlatelet": 0, "regionCode": "016", "groupCode": "F70068", "latitude": 48.623937, "longitude": -2.06678, "name": "DINARD COSEC J1 SEMAINE AM", "postCode": "35800", "samplingLocationCode": "9", "horaires": null, "infos": null, "metro": null, "bus": null, "tram": null, "parking": null, "debutInfos": null, "finInfos": null, "ville": null, "id": null, "phone": null, "urlBlood": null, "urlPlasma": null, "urlPlatelets": null}
