{"address1": "SALLE COLUCHE", "address2": "RUE DU LENN", "city": "AMBON", "convocationLabel": "ESPACE DU LENN", "distance": 0.0, "fullAddress": "SALLE COLUCHE RUE DU LENN 56190 AMBON", "giveBlood": 1, "givePlasma": 0, "givePlatelet": 0, "regionCode": "016", "groupCode": "F30328", "latitude": 47.553122, "longitude": -2.551726, "name": "AMBON-ESPACE DU LENN 14h30 19h", "postCode": "56190", "samplingLocationCode": "10", "horaires": null, "infos": null, "metro": null, "bus": null, "tram": null, "parking": null, "debutInfos": null, "finInfos": null, "ville": null, "id": null, "phone": null, "urlBlood": null, "urlPlasma": null, "urlPlatelets": null}
{"address1": "SALLE COLUCHE", "address2": "RUE DU LENN", "city": "AMBON", "convocationLabel": "ESPACE DU LENN ", "distance": 0.0, "fullAddress": "SALLE COLUCHE RUE DU LENN 56190 AMBON", "giveBlood": 1, "givePlasma": 0, "givePlatelet": 0, "regionCode": "016", "groupCode": "F30328", "latitude": 47.553122, "longitude": -2.551726, "name": "AMBON ESPACE DU LENN 15-19h", "postCode": "56190", "samplingLocationCode": "11", "horaires": null, "infos": null, "metro": null, "bus": null, "tram": null, "parking": null, "debutInfos": null, "finInfos": null, "ville": null, "id": null, "phone": null, "urlBlood": null, "urlPlasma": null, "urlPlatelets": null}
{"address1": "SALLE COLUCHE", "address2": "RUE DU LENN", "city": "AMBON", "convocationLabel": "ESPACE DU LENN", "distance": 0.0, "fullAddress": "SALLE COLUCHE RUE DU LENN 56190 AMBON", "giveBlood": 1, "givePlasma": 0, "givePlatelet": 0, "regionCode": "016", "groupCode": "F30328", "latitude": 47.55291748, "longitude": -2.55125499, "name": "AMBON    14 h 30 - 18 h 45", "postCode": "56190", "samplingLocationCode": "12", "horaires": null, "infos": null, "metro": null, "bus": null, "tram": null, "parking": null, "debutInfos": null, "finInfos": null, "ville": null, "id": null, "phone": null, "urlBlood": null, "urlPlasma": null, "urlPlatelets": null}
{"address1": null, "address2": "PLACE DU VIEUX COUVENT", "city": "MUZILLAC", "convocationLabel": "CENTRE D'ANIMATION DU VIEUX COUVENT", "distance": 0.0, "fullAddress": "PLACE DU VIEUX COUVENT 56190 MUZILLAC", "giveBlood": 1, "givePlasma": 0, "givePlatelet": 0, "regionCode": "016", "groupCode": "F30328", "latitude": 47.554087, "longitude": -2.482923, "name": "MUZILLAC AM", "postCode": "56190", "samplingLocationCode": "1503", "horaires": null, "infos": null, "metro": null, "bus": null, "tram": null, "parking": null, "debutInfos": null, "finInfos": null, "ville": null, "id": null, "phone": null, "urlBlood": null, "urlPlasma": null, "urlPlatelets": null}
{"address1": null, "address2": "PLACE DU VIEUX  COUVENT", "city": "MUZILLAC", "convocationLabel": "CENTRE D'ANIMATION DU VIEUX COUVENT", "distance": 0.0, "fullAddress": "PLACE DU VIEUX  COUVENT 56190 MUZILLAC", "giveBlood": 1, "givePlasma": 0, "givePlatelet": 0, "regionCode": "016", "groupCode": "F30328", "latitude": 47.554087, "longitude": -2.482923, "name": "MUZILLAC 15:00/19:00", "postCode": "56190", "samplingLocationCode": "2", "horaires": null, "infos": null, "metro": null, "bus": null, "tram": null, "parking": null, "debutInfos": null, "finInfos": null, "ville": null, "id": null, "phone": null, "urlBlood": null, "urlPlasma": null, "urlPlatelets": null}
{"address1": null, "address2": "PLACE DU VIEUX COUVENT", "city": "MUZILLAC", "convocationLabel": "CENTRE D'ANIMATION DU VIEUX COUVENT", "distance": 0.0, "fullAddress": "PLACE DU VIEUX COUVENT 56190 MUZILLAC", "giveBlood": 1, "givePlasma": 0, "givePlatelet": 0, "regionCode": "016", "groupCode": "F30328", "latitude": 47.554087, "longitude": -2.482923, "name": "MUZILLAC  14:30/19:00", "postCode": "56190", "samplingLocationCode": "3", "horaires": null, "infos": null, "metro": null, "bus": null, "tram": null, "parking": null, "debutInfos": null, "finInfos": null, "ville": null, "id": null, "phone": null, "urlBlood": null, "urlPlasma": null, "urlPlatelets": null}
{"address1": null, "address2": "PLACE DU VIEUX COUVENT", "city": "MUZILLAC", "convocationLabel": "CENTRE D'ANIMATION DU VIEUX COUVENT", "distance": 0.0, "fullAddress": "PLACE DU VIEUX COUVENT 56190 MUZILLAC", "giveBlood": 1, "givePlasma": 0, "givePlatelet": 0, "regionCode": "016", "groupCode": "F30328", "latitude": 47.554087, "longitude": -2.482923, "name": "MUZILLAC 10:30/12:30", "postCode": "56190", "samplingLocationCode": "4", "horaires": null, "infos": null, "metro": null, "bus": null, "tram": null, "parking": null, "debutInfos": null, "finInfos": null, "ville": null, "id": null, "phone": null, "urlBlood": null, "urlPlasma": null, "urlPlatelets": null}
{"address1": null, "address2": "18 RUE DU STADE", "city": "NOYAL MUZILLAC", "convocationLabel": "SALLE DES FETES DE LA MICHOCHENE", "distance": 0.0, "fullAddress": "18 RUE DU STADE 56190 NOYAL MUZILLAC", "giveBlood": 1, "givePlasma": 0, "givePlatelet": 0, "regionCode": "016", "groupCode": "F30328", "latitude": 47.58911514, "longitude": -2.4560895, "name": "NOYAL MUZILLAC-SALLE DES FETES", "postCode": "56190", "samplingLocationCode": "5", "horaires": null, "infos": null, "metro": null, "bus": null, "tram": null, "parking": null, "debutInfos": null, "finInfos": null, "ville": null, "id": null, "phone": null, "urlBlood": null, "urlPlasma": null, "urlPlatelets": null}
{"address1": null, "address2": "PLACE DU VIEUX  COUVENT", "city": "MUZILLAC", "convocationLabel": "CENTRE D'ANIMATION DU VIEUX COUVENT", "distance": 0.0, "fullAddress": "PLACE DU VIEUX  COUVENT 56190 MUZILLAC", "giveBlood": 1, "givePlasma": 0, "givePlatelet": 0, "regionCode": "016", "groupCode": "F30328", "latitude": 47.554087, "longitude": -2.482923, "name": "MUZILLAC 15:00/18:30", "postCode": "56190", "samplingLocationCode": "6", "horaires": null, "infos": null, "metro": null, "bus": null, "tram": null, "parking": null, "debutInfos": null, "finInfos": null, "ville": null, "id": null, "phone": null, "urlBlood": null, "urlPlasma": null, "urlPlatelets": null}
{"address1": null, "address2": "PLACE DU VIEUX COUVENT", "city": "MUZILLAC", "convocationLabel": "CENTRE D'ANIMATION DU VIEUX COUVENT", "distance": 0.0, "fullAddress": "PLACE DU VIEUX COUVENT 56190 MUZILLAC", "giveBlood": 1, "givePlasma": 0, "givePlatelet": 0, "regionCode": "016", "groupCode": "F30328", "latitude": 47.554087, "longitude": -2.482923, "name": "MUZILLAC AM (2 JOURS)", "postCode": "56190", "samplingLocationCode": "7", "horaires": null, "infos": null, "metro": null, "bus": null, "tram": null, "parking": null, "debutInfos": null, "finInfos": null, "ville": null, "id": null, "phone": null, "urlBlood": null, "urlPlasma": null, "urlPlatelets": null}
{"address1": null, "address2": "PLACE DU VIEUX COUVENT", "city": "MUZILLAC", "convocationLabel": "CENTRE D'ANIMATION DU VIEUX COUVENT", "distance": 0.0, "fullAddress": "PLACE DU VIEUX COUVENT 56190 MUZILLAC", "giveBlood": 1, "givePlasma": 0, "givePlatelet": 0, "regionCode": "016", "groupCode": "F30328", "latitude": 47.554087, "longitude": -2.482923, "name": "MUZILLAC S- LORIENT  (2 JOURS)", "postCode": "56190", "samplingLocationCode": "8", "horaires": null, "infos": null, "metro": null, "bus": null, "tram": null, "parking": null, "debutInfos": null, "finInfos": null, "ville": null, "id": null, "phone": null, "urlBlood": null, "urlPlasma": null, "urlPlatelets": null}
{"address1": null, "address2": "PLACE DU VIEUX  COUVENT", "city": "MUZILLAC", "convocationLabel": "CENTRE D'ANIMATION DU VIEUX COUVENT", "distance": 0.0, "fullAddress": "PLACE DU VIEUX  COUVENT 56190 MUZILLAC", "giveBlood": 1, "givePlasma": 0, "givePlatelet": 0, "regionCode": "016", "groupCode": "F30328", "latitude": 47.554087, "longitude": -2.482923, "name": "LORIENT M (2 JOURS)", "postCode": "56190", "samplingLocationCode": "9", "horaires": null, "infos": null, "metro": null, "bus": null, "tram": null, "parking": null, "debutInfos": null, "finInfos": null, "ville": null, "id": null, "phone": null, "urlBlood": null, "urlPlasma": null, "urlPlatelets": null}
