{"address1": null, "address2": "PLACE DE L'EGLISE", "city": "MERLEVENEZ", "convocationLabel": "SALLE PAUL GAUGUIN", "distance": 0.0, "fullAddress": "PLACE DE L'EGLISE 56700 MERLEVENEZ", "giveBlood": 1, "givePlasma": 0, "givePlatelet": 0, "regionCode": "016", "groupCode": "F30323", "latitude": 47.736106, "longitude": -3.2345, "name": "MERLEVENEZ APRES MIDI", "postCode": "56700", "samplingLocationCode": "2", "horaires": null, "infos": null, "metro": null, "bus": null, "tram": null, "parking": null, "debutInfos": null, "finInfos": null, "ville": null, "id": null, "phone": null, "urlBlood": null, "urlPlasma": null, "urlPlatelets": null}
{"address1": null, "address2": "29 RUE DE LA MAIRIE", "city": "MERLEVENEZ", "convocationLabel": "SALLE XAVIER GRALL", "distance": 0.0, "fullAddress": "29 RUE DE LA MAIRIE 56700 MERLEVENEZ", "giveBlood": 1, "givePlasma": 0, "givePlatelet": 0, "regionCode": "016", "groupCode": "F30323", "latitude": 47.737052, "longitude": -3.231871, "name": "MERLEVENEZ MATIN", "postCode": "56700", "samplingLocationCode": "3", "horaires": null, "infos": null, "metro": null, "bus": null, "tram": null, "parking": null, "debutInfos": null, "finInfos": null, "ville": null, "id": null, "phone": null, "urlBlood": null, "urlPlasma": null, "urlPlatelets": null}
{"address1": null, "address2": null, "city": "SAINTE HELENE", "convocationLabel": "SAINTE HELENE -SALLE BEG ER LANN", "distance": 0.0, "fullAddress": "56700 SAINTE HELENE", "giveBlood": 1, "givePlasma": 0, "givePlatelet": 0, "regionCode": "016", "groupCode": "F30323", "latitude": 47.713093, "longitude": -3.186419, "name": "SAINTE HELENE- BEG ER LANN", "postCode": "56700", "samplingLocationCode": "4", "horaires": null, "infos": null, "metro": null, "bus": null, "tram": null, "parking": null, "debutInfos": null, "finInfos": null, "ville": null, "id": null, "phone": null, "urlBlood": null, "urlPlasma": null, "urlPlatelets": null}
{"address1": null, "address2": "PLACE DE L EGLISE", "city": "MERLEVENEZ", "convocationLabel": "SALLE PAUL GAUGUIN", "distance": 0.0, "fullAddress": "PLACE DE L EGLISE 56700 MERLEVENEZ", "giveBlood": 1, "givePlasma": 0, "givePlatelet": 0, "regionCode": "016", "groupCode": "F30323", "latitude": 47.736106, "longitude": -3.2345, "name": "MERLEVENEZ- SALLE PAUL GAUGUIN", "postCode": "56700", "samplingLocationCode": "5", "horaires": null, "infos": null, "metro": null, "bus": null, "tram": null, "parking": null, "debutInfos": null, "finInfos": null, "ville": null, "id": null, "phone": null, "urlBlood": null, "urlPlasma": null, "urlPlatelets": null}
{"address1": null, "address2": "8 RUE DU PLOUHINEC", "city": "SAINTE HELENE", "convocationLabel": "SAINTE  HELENE - MAISON DES ASSOCIATIONS", "distance": 0.0, "fullAddress": "8 RUE DU PLOUHINEC 56700 SAINTE HELENE", "giveBlood": 1, "givePlasma": 0, "givePlatelet": 0, "regionCode": "016", "groupCode": "F30323", "latitude": 47.719192, "longitude": -3.20809, "name": "SAINTE  HELENE - ASSOCIATION", "postCode": "56700", "samplingLocationCode": "932", "horaires": null, "infos": null, "metro": null, "bus": null, "tram": null, "parking": null, "debutInfos": null, "finInfos": null, "ville": null, "id": null, "phone": null, "urlBlood": null, "urlPlasma": null, "urlPlatelets": null}
