{"address1": null, "address2": "RUE JACQUES PREVERT", "city": "TREGUNC", "convocationLabel": "SALLE DU STERENN", "distance": 0.0, "fullAddress": "RUE JACQUES PREVERT 29910 TREGUNC", "giveBlood": 1, "givePlasma": 0, "givePlatelet": 0, "regionCode": "016", "groupCode": "F50266", "latitude": 47.85547638, "longitude": -3.84655786, "name": "TREGUNC AM", "postCode": "29910", "samplingLocationCode": "1094", "horaires": null, "infos": null, "metro": null, "bus": null, "tram": null, "parking": null, "debutInfos": null, "finInfos": null, "ville": null, "id": null, "phone": null, "urlBlood": null, "urlPlasma": null, "urlPlatelets": null}
{"address1": null, "address2": "RUE JACQUES PREVERT", "city": "TREGUNC", "convocationLabel": "SALLE DU STERENN", "distance": 0.0, "fullAddress": "RUE JACQUES PREVERT 29910 TREGUNC", "giveBlood": 1, "givePlasma": 0, "givePlatelet": 0, "regionCode": "016", "groupCode": "F50266", "latitude": 47.85547638, "longitude": -3.84655786, "name": "TREGUNC MATIN", "postCode": "29910", "samplingLocationCode": "2", "horaires": null, "infos": null, "metro": null, "bus": null, "tram": null, "parking": null, "debutInfos": null, "finInfos": null, "ville": null, "id": null, "phone": null, "urlBlood": null, "urlPlasma": null, "urlPlatelets": null}
{"address1": null, "address2": "RUE JACQUES PREVERT", "city": "TREGUNC", "convocationLabel": "HALLE DES SPORTS", "distance": 0.0, "fullAddress": "RUE JACQUES PREVERT 29910 TREGUNC", "giveBlood": 1, "givePlasma": 0, "givePlatelet": 0, "regionCode": "016", "groupCode": "F50266", "latitude": 47.852624, "longitude": -3.84736, "name": "TREGUNC HALLE DES SPORTS", "postCode": "29910", "samplingLocationCode": "3", "horaires": null, "infos": null, "metro": null, "bus": null, "tram": null, "parking": null, "debutInfos": null, "finInfos": null, "ville": null, "id": null, "phone": null, "urlBlood": null, "urlPlasma": null, "urlPlatelets": null}
{"address1": null, "address2": "RUE JACQUES PREVERT", "city": "TREGUNC", "convocationLabel": "SALLE DU STERENN", "distance": 0.0, "fullAddress": "RUE JACQUES PREVERT 29910 TREGUNC", "giveBlood": 1, "givePlasma": 0, "givePlatelet": 0, "regionCode": "016", "groupCode": "F50266", "latitude": 47.85547638, "longitude": -3.84655619, "name": "TREGUNC MATIN", "postCode": "29910", "samplingLocationCode": "4", "horaires": null, "infos": null, "metro": null, "bus": null, "tram": null, "parking": null, "debutInfos": null, "finInfos": null, "ville": null, "id": null, "phone": null, "urlBlood": null, "urlPlasma": null, "urlPlatelets": null}
