{"address1": null, "address2": "14 AVENUE YVES THEPOT", "city": "QUIMPER", "convocationLabel": "ETS SITE DE QUIMPER - CH DE CORNOUAILLE", "distance": 0.0, "fullAddress": "14 AVENUE YVES THEPOT 29000 QUIMPER", "giveBlood": 1, "givePlasma": 0, "givePlatelet": 0, "regionCode": "016", "groupCode": "F00005", "latitude": 47.987738, "longitude": -4.095004, "name": "VENDREDI QUIMPER - MDD", "postCode": "29000", "samplingLocationCode": "10", "horaires": null, "infos": null, "metro": null, "bus": null, "tram": null, "parking": null, "debutInfos": null, "finInfos": null, "ville": null, "id": null, "phone": null, "urlBlood": null, "urlPlasma": null, "urlPlatelets": null}
{"address1": "14 AVENUE YVES THEPOT", "address2": null, "city": "QUIMPER", "convocationLabel": "ETS SITE DE QUIMPER  - CH DE CORNOUAILLE", "distance": 0.0, "fullAddress": "14 AVENUE YVES THEPOT 29000 QUIMPER", "giveBlood": 1, "givePlasma": 0, "givePlatelet": 0, "regionCode": "016", "groupCode": "F00005", "latitude": 47.987738, "longitude": -4.095004, "name": "ETS QUIMPER SEMAI. LuMer", "postCode": "29000", "samplingLocationCode": "1024", "horaires": null, "infos": null, "metro": null, "bus": null, "tram": null, "parking": null, "debutInfos": null, "finInfos": null, "ville": null, "id": null, "phone": null, "urlBlood": null, "urlPlasma": null, "urlPlatelets": null}
{"address1": "14 AVENUE YVES THEPOT", "address2": null, "city": "QUIMPER", "convocationLabel": "ETS SITE DE QUIMPER - CH DE CORNOUAILLE", "distance": 0.0, "fullAddress": "14 AVENUE YVES THEPOT 29000 QUIMPER", "giveBlood": 1, "givePlasma": 0, "givePlatelet": 0, "regionCode": "016", "groupCode": "F00005", "latitude": 47.987738, "longitude": -4.095004, "name": "ETS QUIMPER SAMEDI", "postCode": "29000", "samplingLocationCode": "2", "horaires": null, "infos": null, "metro": null, "bus": null, "tram": null, "parking": null, "debutInfos": null, "finInfos": null, "ville": null, "id": null, "phone": null, "urlBlood": null, "urlPlasma": null, "urlPlatelets": null}
{"address1": "14 AVENUE YVES THEPOT", "address2": null, "city": "QUIMPER", "convocationLabel": "ETS SITE DE QUIMPER - CH DE CORNOUAILLE", "distance": 0.0, "fullAddress": "14 AVENUE YVES THEPOT 29000 QUIMPER", "giveBlood": 1, "givePlasma": 0, "givePlatelet": 0, "regionCode": "016", "groupCode": "F00005", "latitude": 47.987738, "longitude": -4.095004, "name": "ETS QUIMPER MaJeu", "postCode": "29000", "samplingLocationCode": "3", "horaires": null, "infos": null, "metro": null, "bus": null, "tram": null, "parking": null, "debutInfos": null, "finInfos": null, "ville": null, "id": null, "phone": null, "urlBlood": null, "urlPlasma": null, "urlPlatelets": null}
{"address1": "14 AVENUE YVES THEPOT", "address2": null, "city": "QUIMPER", "convocationLabel": "ETS SITE DE QUIMPER - CH DE CORNOUAILLE", "distance": 0.0, "fullAddress": "14 AVENUE YVES THEPOT 29000 QUIMPER", "giveBlood": 1, "givePlasma": 0, "givePlatelet": 0, "regionCode": "016", "groupCode": "F00005", "latitude": 47.987738, "longitude": -4.095004, "name": "ETS QUI  VENDREDI", "postCode": "29000", "samplingLocationCode": "4", "horaires": null, "infos": null, "metro": null, "bus": null, "tram": null, "parking": null, "debutInfos": null, "finInfos": null, "ville": null, "id": null, "phone": null, "urlBlood": null, "urlPlasma": null, "urlPlatelets": null}
{"address1": null, "address2": "14 AVENUE YVES THEPOT", "city": "QUIMPER", "convocationLabel": "ETS SITE DE QUIMPER - CH DE CORNOUAILLE", "distance": 0.0, "fullAddress": "14 AVENUE YVES THEPOT 29000 QUIMPER", "giveBlood": 1, "givePlasma": 0, "givePlatelet": 0, "regionCode": "016", "groupCode": "F00005", "latitude": 47.987738, "longitude": -4.095004, "name": "SAMEDI MDD QUIMPER", "postCode": "29000", "samplingLocationCode": "5", "horaires": null, "infos": null, "metro": null, "bus": null, "tram": null, "parking": null, "debutInfos": null, "finInfos": null, "ville": null, "id": null, "phone": null, "urlBlood": null, "urlPlasma": null, "urlPlatelets": null}
{"address1": null, "address2": "14 AVENUE YVES THEPOT", "city": "QUIMPER", "convocationLabel": "ETS SITE DE QUIMPER - CH DE CORNOUAILLE", "distance": 0.0, "fullAddress": "14 AVENUE YVES THEPOT 29000 QUIMPER", "giveBlood": 1, "givePlasma": 0, "givePlatelet": 0, "regionCode": "016", "groupCode": "F00005", "latitude": 47.987738, "longitude": -4.095004, "name": "LUNDI QUIMPER - MDD", "postCode": "29000", "samplingLocationCode": "6", "horaires": null, "infos": null, "metro": null, "bus": null, "tram": null, "parking": null, "debutInfos": null, "finInfos": null, "ville": null, "id": null, "phone": null, "urlBlood": null, "urlPlasma": null, "urlPlatelets": null}
{"address1": null, "address2": "14 AVENUE YVES THEPOT", "city": "QUIMPER", "convocationLabel": "ETS SITE DE QUIMPER - CH DE CORNOUAILLE", "distance": 0.0, "fullAddress": "14 AVENUE YVES THEPOT 29000 QUIMPER", "giveBlood": 1, "givePlasma": 0, "givePlatelet": 0, "regionCode": "016", "groupCode": "F00005", "latitude": 47.987738, "longitude": -4.095004, "name": "MARDI QUIMPER - MDD", "postCode": "29000", "samplingLocationCode": "7", "horaires": null, "infos": null, "metro": null, "bus": null, "tram": null, "parking": null, "debutInfos": null, "finInfos": null, "ville": null, "id": null, "phone": null, "urlBlood": null, "urlPlasma": null, "urlPlatelets": null}
{"address1": null, "address2": "14 AVENUE YVES THEPOT", "city": "QUIMPER", "convocationLabel": "ETS SITE DE QUIMPER - CH DE CORNOUAILLE", "distance": 0.0, "fullAddress": "14 AVENUE YVES THEPOT 29000 QUIMPER", "giveBlood": 1, "givePlasma": 0, "givePlatelet": 0, "regionCode": "016", "groupCode": "F00005", "latitude": 47.987738, "longitude": -4.095004, "name": "MERCREDI QUIMPER - MDD", "postCode": "29000", "samplingLocationCode": "8", "horaires": null, "infos": null, "metro": null, "bus": null, "tram": null, "parking": null, "debutInfos": null, "finInfos": null, "ville": null, "id": null, "phone": null, "urlBlood": null, "urlPlasma": null, "urlPlatelets": null}
{"address1": null, "address2": "14 AVENUE YVES THEPOT", "city": "QUIMPER", "convocationLabel": "ETS SITE DE QUIMPER  - CH DE CORNOUAILLE", "distance": 0.0, "fullAddress": "14 AVENUE YVES THEPOT 29000 QUIMPER", "giveBlood": 1, "givePlasma": 0, "givePlatelet": 0, "regionCode": "016", "groupCode": "F00005", "latitude": 47.987738, "longitude": -4.095004, "name": "JEUDI QUIMPER - MDD", "postCode": "29000", "samplingLocationCode": "9", "horaires": null, "infos": null, "metro": null, "bus": null, "tram": null, "parking": null, "debutInfos": null, "finInfos": null, "ville": null, "id": null, "phone": null, "urlBlood": null, "urlPlasma": null, "urlPlatelets": null}
