{"address1": null, "address2": "RUE DE LA CONTERIE", "city": "CHARTRES DE BRETAGNE", "convocationLabel": "HALLE DE LA CONTERIE", "distance": 0.0, "fullAddress": "RUE DE LA CONTERIE 35131 CHARTRES DE BRETAGNE", "giveBlood": 1, "givePlasma": 0, "givePlatelet": 0, "regionCode": "016", "groupCode": "F70048", "latitude": 48.04091263, "longitude": -1.69350183, "name": "CHARTRES DE BRETAGNE ", "postCode": "35131", "samplingLocationCode": "2", "horaires": null, "infos": null, "metro": null, "bus": null, "tram": null, "parking": null, "debutInfos": null, "finInfos": null, "ville": null, "id": null, "phone": null, "urlBlood": null, "urlPlasma": null, "urlPlatelets": null}
{"address1": null, "address2": "RUE DE LA CONTERIE", "city": "CHARTRES DE BRETAGNE", "convocationLabel": "HALLE DE LA CONTERIE", "distance": 0.0, "fullAddress": "RUE DE LA CONTERIE 35131 CHARTRES DE BRETAGNE", "giveBlood": 1, "givePlasma": 0, "givePlatelet": 0, "regionCode": "016", "groupCode": "F70048", "latitude": 48.04091263, "longitude": -1.69350183, "name": "CHARTRES DE BRETAGNE (Conterie", "postCode": "35131", "samplingLocationCode": "3", "horaires": null, "infos": null, "metro": null, "bus": null, "tram": null, "parking": null, "debutInfos": null, "finInfos": null, "ville": null, "id": null, "phone": null, "urlBlood": null, "urlPlasma": null, "urlPlatelets": null}
{"address1": null, "address2": "RUE DE LA CONTERIE", "city": "CHARTRES DE BRETAGNE", "convocationLabel": "HALLE DE LA CONTERIE", "distance": 0.0, "fullAddress": "RUE DE LA CONTERIE 35131 CHARTRES DE BRETAGNE", "giveBlood": 1, "givePlasma": 0, "givePlatelet": 0, "regionCode": "016", "groupCode": "F70048", "latitude": 48.041282, "longitude": -1.695735, "name": "CHARTRES DE BRETAGNE HALLE JO", "postCode": "35131", "samplingLocationCode": "4", "horaires": null, "infos": null, "metro": null, "bus": null, "tram": null, "parking": null, "debutInfos": null, "finInfos": null, "ville": null, "id": null, "phone": null, "urlBlood": null, "urlPlasma": null, "urlPlatelets": null}
{"address1": null, "address2": "RUE DE LA CONTERIE", "city": "CHARTRES DE BRETAGNE", "convocationLabel": "HALLE DE LA CONTERIE", "distance": 0.0, "fullAddress": "RUE DE LA CONTERIE 35131 CHARTRES DE BRETAGNE", "giveBlood": 1, "givePlasma": 0, "givePlatelet": 0, "regionCode": "016", "groupCode": "F70048", "latitude": 48.041282, "longitude": -1.695735, "name": "2 CHARTRES-CONTERIE DAM ", "postCode": "35131", "samplingLocationCode": "5", "horaires": null, "infos": null, "metro": null, "bus": null, "tram": null, "parking": null, "debutInfos": null, "finInfos": null, "ville": null, "id": null, "phone": null, "urlBlood": null, "urlPlasma": null, "urlPlatelets": null}
{"address1": null, "address2": "RUE DE LA CONTERIE", "city": "CHARTRES DE BRETAGNE", "convocationLabel": "HALLE DE LA CONTERIE", "distance": 0.0, "fullAddress": "RUE DE LA CONTERIE 35131 CHARTRES DE BRETAGNE", "giveBlood": 1, "givePlasma": 0, "givePlatelet": 0, "regionCode": "016", "groupCode": "F70048", "latitude": 48.04095459, "longitude": -1.69395125, "name": "2 CHARTRES-CONTERIE AM ", "postCode": "35131", "samplingLocationCode": "6", "horaires": null, "infos": null, "metro": null, "bus": null, "tram": null, "parking": null, "debutInfos": null, "finInfos": null, "ville": null, "id": null, "phone": null, "urlBlood": null, "urlPlasma": null, "urlPlatelets": null}
{"address1": null, "address2": "RUE SAINT ANTHEME", "city": "CHARTRES DE BRETAGNE", "convocationLabel": "SALLE VICTOR BASCH", "distance": 0.0, "fullAddress": "RUE SAINT ANTHEME 35131 CHARTRES DE BRETAGNE", "giveBlood": 1, "givePlasma": 0, "givePlatelet": 0, "regionCode": "016", "groupCode": "F70048", "latitude": 48.040766, "longitude": -1.707255, "name": "CHARTRES DE BRETAGNE V. BASCH", "postCode": "35131", "samplingLocationCode": "61", "horaires": null, "infos": null, "metro": null, "bus": null, "tram": null, "parking": null, "debutInfos": null, "finInfos": null, "ville": null, "id": null, "phone": null, "urlBlood": null, "urlPlasma": null, "urlPlatelets": null}
{"address1": null, "address2": "RUE DE LA CONTERIE", "city": "CHARTRES DE BRETAGNE", "convocationLabel": "HALLE DE LA CONTERIE", "distance": 0.0, "fullAddress": "RUE DE LA CONTERIE 35131 CHARTRES DE BRETAGNE", "giveBlood": 1, "givePlasma": 0, "givePlatelet": 0, "regionCode": "016", "groupCode": "F70048", "latitude": 48.041282, "longitude": -1.695735, "name": "2 CHARTRES-CONTERIE JO", "postCode": "35131", "samplingLocationCode": "7", "horaires": null, "infos": null, "metro": null, "bus": null, "tram": null, "parking": null, "debutInfos": null, "finInfos": null, "ville": null, "id": null, "phone": null, "urlBlood": null, "urlPlasma": null, "urlPlatelets": null}
{"address1": null, "address2": "RUE DE LA CONTERIE", "city": "CHARTRES DE BRETAGNE", "convocationLabel": "HALLE DE LA CONTERIE", "distance": 0.0, "fullAddress": "RUE DE LA CONTERIE 35131 CHARTRES DE BRETAGNE", "giveBlood": 1, "givePlasma": 0, "givePlatelet": 0, "regionCode": "016", "groupCode": "F70048", "latitude": 48.041282, "longitude": -1.695735, "name": "2 CHARTRES-CONTERIE 845-1445", "postCode": "35131", "samplingLocationCode": "8", "horaires": null, "infos": null, "metro": null, "bus": null, "tram": null, "parking": null, "debutInfos": null, "finInfos": null, "ville": null, "id": null, "phone": null, "urlBlood": null, "urlPlasma": null, "urlPlatelets": null}
