{"address1": null, "address2": "15 QUAI JEAN MOULIN", "city": "CHATEAULIN", "convocationLabel": "SALLE DES FETES DE LA MAIRIE", "distance": 0.0, "fullAddress": "15 QUAI JEAN MOULIN 29150 CHATEAULIN", "giveBlood": 1, "givePlasma": 0, "givePlatelet": 0, "regionCode": "016", "groupCode": "F50028", "latitude": 48.19548416, "longitude": -4.09422159, "name": "CHATEAULIN J1 M", "postCode": "29150", "samplingLocationCode": "10", "horaires": null, "infos": null, "metro": null, "bus": null, "tram": null, "parking": null, "debutInfos": null, "finInfos": null, "ville": null, "id": null, "phone": null, "urlBlood": null, "urlPlasma": null, "urlPlatelets": null}
{"address1": null, "address2": "15 QUAI JEAN MOULIN", "city": "CHATEAULIN", "convocationLabel": "SALLE DES FETES DE LA MAIRIE", "distance": 0.0, "fullAddress": "15 QUAI JEAN MOULIN 29150 CHATEAULIN", "giveBlood": 1, "givePlasma": 0, "givePlatelet": 0, "regionCode": "016", "groupCode": "F50028", "latitude": 48.19548, "longitude": -4.094238, "name": "J2 AVRIL JUIN", "postCode": "29150", "samplingLocationCode": "3", "horaires": null, "infos": null, "metro": null, "bus": null, "tram": null, "parking": null, "debutInfos": null, "finInfos": null, "ville": null, "id": null, "phone": null, "urlBlood": null, "urlPlasma": null, "urlPlatelets": null}
{"address1": null, "address2": "15 QUAI JEAN MOULIN", "city": "CHATEAULIN", "convocationLabel": "SALLE DES FETES DE LA MAIRIE", "distance": 0.0, "fullAddress": "15 QUAI JEAN MOULIN 29150 CHATEAULIN", "giveBlood": 1, "givePlasma": 0, "givePlatelet": 0, "regionCode": "016", "groupCode": "F50028", "latitude": 48.19548416, "longitude": -4.09422159, "name": "CHATEAULIN J1", "postCode": "29150", "samplingLocationCode": "4", "horaires": null, "infos": null, "metro": null, "bus": null, "tram": null, "parking": null, "debutInfos": null, "finInfos": null, "ville": null, "id": null, "phone": null, "urlBlood": null, "urlPlasma": null, "urlPlatelets": null}
{"address1": null, "address2": "15 QUAI JEAN MOULIN", "city": "CHATEAULIN", "convocationLabel": "SALLE DES FETES DE LA MAIRIE", "distance": 0.0, "fullAddress": "15 QUAI JEAN MOULIN 29150 CHATEAULIN", "giveBlood": 1, "givePlasma": 0, "givePlatelet": 0, "regionCode": "016", "groupCode": "F50028", "latitude": 48.19548416, "longitude": -4.09422159, "name": "CHATEAULIN J2 M", "postCode": "29150", "samplingLocationCode": "5", "horaires": null, "infos": null, "metro": null, "bus": null, "tram": null, "parking": null, "debutInfos": null, "finInfos": null, "ville": null, "id": null, "phone": null, "urlBlood": null, "urlPlasma": null, "urlPlatelets": null}
{"address1": null, "address2": "15 QUAI JEAN MOULIN", "city": "CHATEAULIN", "convocationLabel": "SALLE DES FETES DE LA MAIRIE", "distance": 0.0, "fullAddress": "15 QUAI JEAN MOULIN 29150 CHATEAULIN", "giveBlood": 1, "givePlasma": 0, "givePlatelet": 0, "regionCode": "016", "groupCode": "F50028", "latitude": 48.19548, "longitude": -4.094238, "name": "J1 AVRIL JUIN", "postCode": "29150", "samplingLocationCode": "6", "horaires": null, "infos": null, "metro": null, "bus": null, "tram": null, "parking": null, "debutInfos": null, "finInfos": null, "ville": null, "id": null, "phone": null, "urlBlood": null, "urlPlasma": null, "urlPlatelets": null}
{"address1": null, "address2": "15 QUAI JEAN MOULIN", "city": "CHATEAULIN", "convocationLabel": "SALLE DES FETES DE LA MAIRIE", "distance": 0.0, "fullAddress": "15 QUAI JEAN MOULIN 29150 CHATEAULIN", "giveBlood": 1, "givePlasma": 0, "givePlatelet": 0, "regionCode": "016", "groupCode": "F50028", "latitude": 48.19548, "longitude": -4.094238, "name": "J1 NOVEMBRE", "postCode": "29150", "samplingLocationCode": "7", "horaires": null, "infos": null, "metro": null, "bus": null, "tram": null, "parking": null, "debutInfos": null, "finInfos": null, "ville": null, "id": null, "phone": null, "urlBlood": null, "urlPlasma": null, "urlPlatelets": null}
{"address1": null, "address2": "15 QUAI JEAN MOULIN", "city": "CHATEAULIN", "convocationLabel": "SALLE DES FETES DE LA MAIRIE", "distance": 0.0, "fullAddress": "15 QUAI JEAN MOULIN 29150 CHATEAULIN", "giveBlood": 1, "givePlasma": 0, "givePlatelet": 0, "regionCode": "016", "groupCode": "F50028", "latitude": 48.19548, "longitude": -4.094238, "name": "J1 SEPT", "postCode": "29150", "samplingLocationCode": "711", "horaires": null, "infos": null, "metro": null, "bus": null, "tram": null, "parking": null, "debutInfos": null, "finInfos": null, "ville": null, "id": null, "phone": null, "urlBlood": null, "urlPlasma": null, "urlPlatelets": null}
{"address1": null, "address2": "15 QUAI JEAN MOULIN", "city": "CHATEAULIN", "convocationLabel": "SALLE DES FETES DE LA MAIRIE", "distance": 0.0, "fullAddress": "15 QUAI JEAN MOULIN 29150 CHATEAULIN", "giveBlood": 1, "givePlasma": 0, "givePlatelet": 0, "regionCode": "016", "groupCode": "F50028", "latitude": 48.19548, "longitude": -4.094238, "name": "J2 NOVEMBRE", "postCode": "29150", "samplingLocationCode": "8", "horaires": null, "infos": null, "metro": null, "bus": null, "tram": null, "parking": null, "debutInfos": null, "finInfos": null, "ville": null, "id": null, "phone": null, "urlBlood": null, "urlPlasma": null, "urlPlatelets": null}
{"address1": null, "address2": "15 QUAI JEAN MOULIN", "city": "CHATEAULIN", "convocationLabel": "SALLE DES FETES DE LA MAIRIE", "distance": 0.0, "fullAddress": "15 QUAI JEAN MOULIN 29150 CHATEAULIN", "giveBlood": 1, "givePlasma": 0, "givePlatelet": 0, "regionCode": "016", "groupCode": "F50028", "latitude": 48.19548, "longitude": -4.094238, "name": "J2 SEPT", "postCode": "29150", "samplingLocationCode": "874", "horaires": null, "infos": null, "metro": null, "bus": null, "tram": null, "parking": null, "debutInfos": null, "finInfos": null, "ville": null, "id": null, "phone": null, "urlBlood": null, "urlPlasma": null, "urlPlatelets": null}
{"address1": null, "address2": "15 QUAI JEAN MOULIN", "city": "CHATEAULIN", "convocationLabel": "SALLE DES FETES DE LA MAIRIE", "distance": 0.0, "fullAddress": "15 QUAI JEAN MOULIN 29150 CHATEAULIN", "giveBlood": 1, "givePlasma": 0, "givePlatelet": 0, "regionCode": "016", "groupCode": "F50028", "latitude": 48.19548, "longitude": -4.094238, "name": "CHATEAULIN J2 AM", "postCode": "29150", "samplingLocationCode": "9", "horaires": null, "infos": null, "metro": null, "bus": null, "tram": null, "parking": null, "debutInfos": null, "finInfos": null, "ville": null, "id": null, "phone": null, "urlBlood": null, "urlPlasma": null, "urlPlatelets": null}
