{"address1": null, "address2": null, "city": "RENNES", "convocationLabel": "CHAPITEAU PLACE DU PARLEMENT", "distance": 0.0, "fullAddress": "35000 RENNES", "giveBlood": 1, "givePlasma": 0, "givePlatelet": 0, "regionCode": "016", "groupCode": "F70352", "latitude": 48.110899, "longitude": -1.68365, "name": "RENNES SEMAINE DU DON (sa)", "postCode": "35000", "samplingLocationCode": "1", "horaires": null, "infos": null, "metro": null, "bus": null, "tram": null, "parking": null, "debutInfos": null, "finInfos": null, "ville": null, "id": null, "phone": null, "urlBlood": null, "urlPlasma": null, "urlPlatelets": null}
{"address1": null, "address2": "PLACE DES LICES", "city": "RENNES", "convocationLabel": "HALLE MARTENOT", "distance": 0.0, "fullAddress": "PLACE DES LICES 35000 RENNES", "giveBlood": 1, "givePlasma": 0, "givePlatelet": 0, "regionCode": "016", "groupCode": "F70352", "latitude": 48.11261749, "longitude": -1.68317902, "name": "RENNES_semaine_Martenot J1", "postCode": "35000", "samplingLocationCode": "2", "horaires": null, "infos": null, "metro": null, "bus": null, "tram": null, "parking": null, "debutInfos": null, "finInfos": null, "ville": null, "id": null, "phone": null, "urlBlood": null, "urlPlasma": null, "urlPlatelets": null}
{"address1": null, "address2": "6 COURS DES ALLIES", "city": "RENNES", "convocationLabel": "MAISON DES ASSOCIATIONS", "distance": 0.0, "fullAddress": "6 COURS DES ALLIES 35000 RENNES", "giveBlood": 1, "givePlasma": 0, "givePlatelet": 0, "regionCode": "016", "groupCode": "F70352", "latitude": 48.104922, "longitude": -1.676575, "name": "RENNES SEMAINE DU DON ", "postCode": "35000", "samplingLocationCode": "3", "horaires": null, "infos": null, "metro": null, "bus": null, "tram": null, "parking": null, "debutInfos": null, "finInfos": null, "ville": null, "id": null, "phone": null, "urlBlood": null, "urlPlasma": null, "urlPlatelets": null}
{"address1": null, "address2": null, "city": "RENNES", "convocationLabel": "CHAPITEAU PLACE DU PARLEMENT", "distance": 0.0, "fullAddress": "35000 RENNES", "giveBlood": 1, "givePlasma": 0, "givePlatelet": 0, "regionCode": "016", "groupCode": "F70352", "latitude": 48.110899, "longitude": -1.68365, "name": "RENNES SEMAINE DU DON Mau Jeud", "postCode": "35000", "samplingLocationCode": "4", "horaires": null, "infos": null, "metro": null, "bus": null, "tram": null, "parking": null, "debutInfos": null, "finInfos": null, "ville": null, "id": null, "phone": null, "urlBlood": null, "urlPlasma": null, "urlPlatelets": null}
{"address1": null, "address2": "PLACE DES LICES", "city": "RENNES", "convocationLabel": "HALLE MARTENOT", "distance": 0.0, "fullAddress": "PLACE DES LICES 35000 RENNES", "giveBlood": 1, "givePlasma": 0, "givePlatelet": 0, "regionCode": "016", "groupCode": "F70352", "latitude": 48.11261749, "longitude": -1.68317902, "name": "RENNES_semaine_Martenot J2", "postCode": "35000", "samplingLocationCode": "5", "horaires": null, "infos": null, "metro": null, "bus": null, "tram": null, "parking": null, "debutInfos": null, "finInfos": null, "ville": null, "id": null, "phone": null, "urlBlood": null, "urlPlasma": null, "urlPlatelets": null}
{"address1": null, "address2": "PLACE DES LICES", "city": "RENNES", "convocationLabel": "HALLE MARTENOT", "distance": 0.0, "fullAddress": "PLACE DES LICES 35000 RENNES", "giveBlood": 1, "givePlasma": 0, "givePlatelet": 0, "regionCode": "016", "groupCode": "F70352", "latitude": 48.11261749, "longitude": -1.68317902, "name": "RENNES_semaine_Martenot J3", "postCode": "35000", "samplingLocationCode": "6", "horaires": null, "infos": null, "metro": null, "bus": null, "tram": null, "parking": null, "debutInfos": null, "finInfos": null, "ville": null, "id": null, "phone": null, "urlBlood": null, "urlPlasma": null, "urlPlatelets": null}
