{"address1": null, "address2": "Rue Hyacinthe Cheval", "city": "GUINGAMP", "convocationLabel": "CENTRE SOCIAL SALLE CAMELIA", "distance": 0.0, "fullAddress": "Rue Hyacinthe Cheval 22200 GUINGAMP", "giveBlood": 1, "givePlasma": 0, "givePlatelet": 0, "regionCode": "016", "groupCode": "F10115", "latitude": 48.5639942, "longitude": -3.1622049, "name": "GUINGAMP CSocial AM1", "postCode": "22200", "samplingLocationCode": "1262", "horaires": null, "infos": null, "metro": null, "bus": null, "tram": null, "parking": null, "debutInfos": null, "finInfos": null, "ville": null, "id": null, "phone": null, "urlBlood": null, "urlPlasma": null, "urlPlatelets": null}
{"address1": null, "address2": "Rue Hyacinthe Cheval", "city": "GUINGAMP", "convocationLabel": "CENTRE SOCIAL SALLE CAMELIA", "distance": 0.0, "fullAddress": "Rue Hyacinthe Cheval 22200 GUINGAMP", "giveBlood": 1, "givePlasma": 0, "givePlatelet": 0, "regionCode": "016", "groupCode": "F10115", "latitude": 48.5639942, "longitude": -3.1622049, "name": "GUINGAMP CSocial AM2", "postCode": "22200", "samplingLocationCode": "2", "horaires": null, "infos": null, "metro": null, "bus": null, "tram": null, "parking": null, "debutInfos": null, "finInfos": null, "ville": null, "id": null, "phone": null, "urlBlood": null, "urlPlasma": null, "urlPlatelets": null}
{"address1": null, "address2": "Rue du Manoir", "city": "GUINGAMP", "convocationLabel": "STADE DU ROUDOUROU", "distance": 0.0, "fullAddress": "Rue du Manoir 22200 GUINGAMP", "giveBlood": 1, "givePlasma": 0, "givePlatelet": 0, "regionCode": "016", "groupCode": "F10115", "latitude": 48.566165373107566, "longitude": -3.1644889712333675, "name": "GUINGAMP EAG AM1", "postCode": "22200", "samplingLocationCode": "3", "horaires": null, "infos": null, "metro": null, "bus": null, "tram": null, "parking": null, "debutInfos": null, "finInfos": null, "ville": null, "id": null, "phone": null, "urlBlood": null, "urlPlasma": null, "urlPlatelets": null}
{"address1": null, "address2": "Rue du Manoir", "city": "GUINGAMP", "convocationLabel": "STADE DU ROUDOUROU", "distance": 0.0, "fullAddress": "Rue du Manoir 22200 GUINGAMP", "giveBlood": 1, "givePlasma": 0, "givePlatelet": 0, "regionCode": "016", "groupCode": "F10115", "latitude": 48.56627292474522, "longitude": -3.164454102516174, "name": "GUINGAMP EAG AM2", "postCode": "22200", "samplingLocationCode": "4", "horaires": null, "infos": null, "metro": null, "bus": null, "tram": null, "parking": null, "debutInfos": null, "finInfos": null, "ville": null, "id": null, "phone": null, "urlBlood": null, "urlPlasma": null, "urlPlatelets": null}
{"address1": null, "address2": "Rue du Manoir", "city": "GUINGAMP", "convocationLabel": "STADE DU ROUDOUROU", "distance": 0.0, "fullAddress": "Rue du Manoir 22200 GUINGAMP", "giveBlood": 1, "givePlasma": 0, "givePlatelet": 0, "regionCode": "016", "groupCode": "F10115", "latitude": 48.566360230548014, "longitude": -3.164438009262085, "name": "GUINGAMP EAG DAM3", "postCode": "22200", "samplingLocationCode": "5", "horaires": null, "infos": null, "metro": null, "bus": null, "tram": null, "parking": null, "debutInfos": null, "finInfos": null, "ville": null, "id": null, "phone": null, "urlBlood": null, "urlPlasma": null, "urlPlatelets": null}
{"address1": null, "address2": "Rue Hyacinthe Cheval", "city": "GUINGAMP", "convocationLabel": "CENTRE SOCIAL SALLE CAMELIA", "distance": 0.0, "fullAddress": "Rue Hyacinthe Cheval 22200 GUINGAMP", "giveBlood": 1, "givePlasma": 0, "givePlatelet": 0, "regionCode": "016", "groupCode": "F10115", "latitude": 48.5639942, "longitude": -3.1622049, "name": "GUINGAMP CSocial DAM3", "postCode": "22200", "samplingLocationCode": "6", "horaires": null, "infos": null, "metro": null, "bus": null, "tram": null, "parking": null, "debutInfos": null, "finInfos": null, "ville": null, "id": null, "phone": null, "urlBlood": null, "urlPlasma": null, "urlPlatelets": null}
{"address1": null, "address2": "Rue Faven", "city": "GUINGAMP", "convocationLabel": "ESPACE DE LA MADELEINE", "distance": 0.0, "fullAddress": "Rue Faven 22200 GUINGAMP", "giveBlood": 1, "givePlasma": 0, "givePlatelet": 0, "regionCode": "016", "groupCode": "F10115", "latitude": 48.558253, "longitude": -3.161468, "name": "GUINGAMP Madeleine AM1", "postCode": "22200", "samplingLocationCode": "7", "horaires": null, "infos": null, "metro": null, "bus": null, "tram": null, "parking": null, "debutInfos": null, "finInfos": null, "ville": null, "id": null, "phone": null, "urlBlood": null, "urlPlasma": null, "urlPlatelets": null}
{"address1": null, "address2": "Rue Faven", "city": "GUINGAMP", "convocationLabel": "ESPACE DE LA MADELEINE", "distance": 0.0, "fullAddress": "Rue Faven 22200 GUINGAMP", "giveBlood": 1, "givePlasma": 0, "givePlatelet": 0, "regionCode": "016", "groupCode": "F10115", "latitude": 48.558253, "longitude": -3.161468, "name": "GUINGAMP Madeleine AM2", "postCode": "22200", "samplingLocationCode": "8", "horaires": null, "infos": null, "metro": null, "bus": null, "tram": null, "parking": null, "debutInfos": null, "finInfos": null, "ville": null, "id": null, "phone": null, "urlBlood": null, "urlPlasma": null, "urlPlatelets": null}
{"address1": null, "address2": "Rue Faven", "city": "GUINGAMP", "convocationLabel": "ESPACE DE LA MADELEINE", "distance": 0.0, "fullAddress": "Rue Faven 22200 GUINGAMP", "giveBlood": 1, "givePlasma": 0, "givePlatelet": 0, "regionCode": "016", "groupCode": "F10115", "latitude": 48.558253, "longitude": -3.161468, "name": "GUINGAMP Madeleine DAM3", "postCode": "22200", "samplingLocationCode": "9", "horaires": null, "infos": null, "metro": null, "bus": null, "tram": null, "parking": null, "debutInfos": null, "finInfos": null, "ville": null, "id": null, "phone": null, "urlBlood": null, "urlPlasma": null, "urlPlatelets": null}
