{"address1": "HOTEL DE VILLE", "address2": "PLACE DE LA MAIRIE", "city": "RENNES", "convocationLabel": "HOTEL DE VILLE RENNES", "distance": 0.0, "fullAddress": "HOTEL DE VILLE PLACE DE LA MAIRIE 35000 RENNES", "giveBlood": 1, "givePlasma": 0, "givePlatelet": 0, "regionCode": "016", "groupCode": "F70410", "latitude": 48.1113205, "longitude": -1.68008614, "name": "HOTEL DE VILLE RENNES SA", "postCode": "35000", "samplingLocationCode": "2", "horaires": null, "infos": null, "metro": null, "bus": null, "tram": null, "parking": null, "debutInfos": null, "finInfos": null, "ville": null, "id": null, "phone": null, "urlBlood": null, "urlPlasma": null, "urlPlatelets": null}
{"address1": null, "address2": "PLACE DE LA MAIRIE", "city": "RENNES", "convocationLabel": "HOTEL DE VILLE RENNES", "distance": 0.0, "fullAddress": "PLACE DE LA MAIRIE 35000 RENNES", "giveBlood": 1, "givePlasma": 0, "givePlatelet": 0, "regionCode": "016", "groupCode": "F70410", "latitude": 48.110964, "longitude": -1.679255, "name": "2 RENNES-HOTEL DE VILLE VE", "postCode": "35000", "samplingLocationCode": "3", "horaires": null, "infos": null, "metro": null, "bus": null, "tram": null, "parking": null, "debutInfos": null, "finInfos": null, "ville": null, "id": null, "phone": null, "urlBlood": null, "urlPlasma": null, "urlPlatelets": null}
{"address1": null, "address2": "PLACE DE LA MAIRIE", "city": "RENNES", "convocationLabel": "HOTEL DE VILLE RENNES", "distance": 0.0, "fullAddress": "PLACE DE LA MAIRIE 35000 RENNES", "giveBlood": 1, "givePlasma": 0, "givePlatelet": 0, "regionCode": "016", "groupCode": "F70410", "latitude": 48.110964, "longitude": -1.679255, "name": "2 RENNES-HOTEL DE VILLE SA J+", "postCode": "35000", "samplingLocationCode": "4", "horaires": null, "infos": null, "metro": null, "bus": null, "tram": null, "parking": null, "debutInfos": null, "finInfos": null, "ville": null, "id": null, "phone": null, "urlBlood": null, "urlPlasma": null, "urlPlatelets": null}
{"address1": "HOTEL DE VILLE", "address2": "PLACE DE LA MAIRIE", "city": "RENNES", "convocationLabel": "HOTEL DE VILLE RENNES", "distance": 0.0, "fullAddress": "HOTEL DE VILLE PLACE DE LA MAIRIE 35000 RENNES", "giveBlood": 1, "givePlasma": 0, "givePlatelet": 0, "regionCode": "016", "groupCode": "F70410", "latitude": 48.11132812, "longitude": -1.68008614, "name": "HOTEL DE VILLE VE", "postCode": "35000", "samplingLocationCode": "433", "horaires": null, "infos": null, "metro": null, "bus": null, "tram": null, "parking": null, "debutInfos": null, "finInfos": null, "ville": null, "id": null, "phone": null, "urlBlood": null, "urlPlasma": null, "urlPlatelets": null}
{"address1": null, "address2": "PLACE DE LA MAIRIE", "city": "RENNES", "convocationLabel": "HOTEL DE VILLE RENNES", "distance": 0.0, "fullAddress": "PLACE DE LA MAIRIE 35000 RENNES", "giveBlood": 1, "givePlasma": 0, "givePlatelet": 0, "regionCode": "016", "groupCode": "F70410", "latitude": 48.110964, "longitude": -1.679255, "name": "2 RENNES-HDV SA J+ EQ. MATIN", "postCode": "35000", "samplingLocationCode": "5", "horaires": null, "infos": null, "metro": null, "bus": null, "tram": null, "parking": null, "debutInfos": null, "finInfos": null, "ville": null, "id": null, "phone": null, "urlBlood": null, "urlPlasma": null, "urlPlatelets": null}
{"address1": null, "address2": "PLACE DE LA MAIRIE", "city": "RENNES", "convocationLabel": "HOTEL DE VILLE RENNES", "distance": 0.0, "fullAddress": "PLACE DE LA MAIRIE 35000 RENNES", "giveBlood": 1, "givePlasma": 0, "givePlatelet": 0, "regionCode": "016", "groupCode": "F70410", "latitude": 48.110964, "longitude": -1.679255, "name": "2 RENNES-HDV SA J+ EQ. AM", "postCode": "35000", "samplingLocationCode": "6", "horaires": null, "infos": null, "metro": null, "bus": null, "tram": null, "parking": null, "debutInfos": null, "finInfos": null, "ville": null, "id": null, "phone": null, "urlBlood": null, "urlPlasma": null, "urlPlatelets": null}
