{"address1": null, "address2": "Bd DU STADE", "city": "GRAND CHAMP", "convocationLabel": "SALLE MULTIFONCTIONNELLE", "distance": 0.0, "fullAddress": "Bd DU STADE 56390 GRAND CHAMP", "giveBlood": 1, "givePlasma": 0, "givePlatelet": 0, "regionCode": "016", "groupCode": "F30193", "latitude": 47.758963, "longitude": -2.859545, "name": "GRAND CHAMP SALLE MULTIF (S)", "postCode": "56390", "samplingLocationCode": "3", "horaires": null, "infos": null, "metro": null, "bus": null, "tram": null, "parking": null, "debutInfos": null, "finInfos": null, "ville": null, "id": null, "phone": null, "urlBlood": null, "urlPlasma": null, "urlPlatelets": null}
{"address1": null, "address2": "ROUTE DE PLUMERGAT", "city": "GRAND CHAMP", "convocationLabel": "ESPACE 2000", "distance": 0.0, "fullAddress": "ROUTE DE PLUMERGAT 56390 GRAND CHAMP", "giveBlood": 1, "givePlasma": 0, "givePlatelet": 0, "regionCode": "016", "groupCode": "F30193", "latitude": 47.755506, "longitude": -2.847972, "name": "GRAND CHAMP ESPACE 2000 (AM)", "postCode": "56390", "samplingLocationCode": "4", "horaires": null, "infos": null, "metro": null, "bus": null, "tram": null, "parking": null, "debutInfos": null, "finInfos": null, "ville": null, "id": null, "phone": null, "urlBlood": null, "urlPlasma": null, "urlPlatelets": null}
{"address1": null, "address2": "ROUTE DE PLUMERGAT", "city": "GRAND CHAMP", "convocationLabel": "ESPACE 2000", "distance": 0.0, "fullAddress": "ROUTE DE PLUMERGAT 56390 GRAND CHAMP", "giveBlood": 1, "givePlasma": 0, "givePlatelet": 0, "regionCode": "016", "groupCode": "F30193", "latitude": 47.755506, "longitude": -2.847972, "name": "GRAND CHAMP ESPACE 2000 S", "postCode": "56390", "samplingLocationCode": "5", "horaires": null, "infos": null, "metro": null, "bus": null, "tram": null, "parking": null, "debutInfos": null, "finInfos": null, "ville": null, "id": null, "phone": null, "urlBlood": null, "urlPlasma": null, "urlPlatelets": null}
{"address1": null, "address2": "ROUTE DE PLUMERGAT", "city": "GRAND CHAMP", "convocationLabel": "ESPACE 2000", "distance": 0.0, "fullAddress": "ROUTE DE PLUMERGAT 56390 GRAND CHAMP", "giveBlood": 1, "givePlasma": 0, "givePlatelet": 0, "regionCode": "016", "groupCode": "F30193", "latitude": 47.755506, "longitude": -2.847972, "name": "GRAND CHAMP (Lorient)", "postCode": "56390", "samplingLocationCode": "6", "horaires": null, "infos": null, "metro": null, "bus": null, "tram": null, "parking": null, "debutInfos": null, "finInfos": null, "ville": null, "id": null, "phone": null, "urlBlood": null, "urlPlasma": null, "urlPlatelets": null}
{"address1": "SALLE MULTISPORTS 2", "address2": "RUE LANN GUINET", "city": "GRAND CHAMP", "convocationLabel": "COMPLEXE SPORTIF LE QG", "distance": 0.0, "fullAddress": "SALLE MULTISPORTS 2 RUE LANN GUINET 56390 GRAND CHAMP", "giveBlood": 1, "givePlasma": 0, "givePlatelet": 0, "regionCode": "016", "groupCode": "F30193", "latitude": 47.75812149, "longitude": -2.84338188, "name": "GRAND CHAMP- 14 h 30 - 19 h", "postCode": "56390", "samplingLocationCode": "7", "horaires": null, "infos": null, "metro": null, "bus": null, "tram": null, "parking": null, "debutInfos": null, "finInfos": null, "ville": null, "id": null, "phone": null, "urlBlood": null, "urlPlasma": null, "urlPlatelets": null}
{"address1": "SALLE MULTISPORTS 2", "address2": "RUE LANN GUINET", "city": "GRAND CHAMP", "convocationLabel": "COMPLEXE SPORTIF LE QG", "distance": 0.0, "fullAddress": "SALLE MULTISPORTS 2 RUE LANN GUINET 56390 GRAND CHAMP", "giveBlood": 1, "givePlasma": 0, "givePlatelet": 0, "regionCode": "016", "groupCode": "F30193", "latitude": 47.756348, "longitude": -2.837622, "name": "GRAND CHAMP - 12 H - 16 H 30", "postCode": "56390", "samplingLocationCode": "8", "horaires": null, "infos": null, "metro": null, "bus": null, "tram": null, "parking": null, "debutInfos": null, "finInfos": null, "ville": null, "id": null, "phone": null, "urlBlood": null, "urlPlasma": null, "urlPlatelets": null}
