{"address1": "AMPHITHEATRE", "address2": "117 BOULEVARD LEON BLUM", "city": "LORIENT", "convocationLabel": "LYCEE COLBERT", "distance": 0.0, "fullAddress": "AMPHITHEATRE 117 BOULEVARD LEON BLUM 56100 LORIENT", "giveBlood": 1, "givePlasma": 0, "givePlatelet": 0, "regionCode": "016", "groupCode": "F30286", "latitude": 47.75101, "longitude": -3.358733, "name": "LT -Lyc\u00e9e Colbert 08h30-12h30", "postCode": "56100", "samplingLocationCode": "2", "horaires": null, "infos": null, "metro": null, "bus": null, "tram": null, "parking": null, "debutInfos": null, "finInfos": null, "ville": null, "id": null, "phone": null, "urlBlood": null, "urlPlasma": null, "urlPlatelets": null}
{"address1": "LYCEE COLBERT", "address2": "INSCRIVEZ-VOUS A LA VIE SCOLAIRE", "city": "LORIENT", "convocationLabel": "AMPHITHEATRE", "distance": 0.0, "fullAddress": "LYCEE COLBERT INSCRIVEZ-VOUS A LA VIE SCOLAIRE 56100 LORIENT", "giveBlood": 1, "givePlasma": 0, "givePlatelet": 0, "regionCode": "016", "groupCode": "F30286", "latitude": 47.75101, "longitude": -3.358733, "name": "LYCEE COLBERT 10 H 15", "postCode": "56100", "samplingLocationCode": "3", "horaires": null, "infos": null, "metro": null, "bus": null, "tram": null, "parking": null, "debutInfos": null, "finInfos": null, "ville": null, "id": null, "phone": null, "urlBlood": null, "urlPlasma": null, "urlPlatelets": null}
{"address1": "AMPHITHEATRE", "address2": "117 BOULEVARD LEON BLUM", "city": "LORIENT", "convocationLabel": "LYCEE COLBERT", "distance": 0.0, "fullAddress": "AMPHITHEATRE 117 BOULEVARD LEON BLUM 56100 LORIENT", "giveBlood": 1, "givePlasma": 0, "givePlatelet": 0, "regionCode": "016", "groupCode": "F30286", "latitude": 47.74541473, "longitude": -3.38243079, "name": "LORIENT Lyc\u00e9e Colbert 12 - 16 ", "postCode": "56100", "samplingLocationCode": "4", "horaires": null, "infos": null, "metro": null, "bus": null, "tram": null, "parking": null, "debutInfos": null, "finInfos": null, "ville": null, "id": null, "phone": null, "urlBlood": null, "urlPlasma": null, "urlPlatelets": null}
{"address1": "AMPHITHEATRE", "address2": "117 BOULEVARD LEON BLUM", "city": "LORIENT", "convocationLabel": "LYCEE COLBERT", "distance": 0.0, "fullAddress": "AMPHITHEATRE 117 BOULEVARD LEON BLUM 56100 LORIENT", "giveBlood": 1, "givePlasma": 0, "givePlatelet": 0, "regionCode": "016", "groupCode": "F30286", "latitude": 47.75101, "longitude": -3.358733, "name": "LORIENT Lyc\u00e9e Colbert 9 H 13 H", "postCode": "56100", "samplingLocationCode": "5", "horaires": null, "infos": null, "metro": null, "bus": null, "tram": null, "parking": null, "debutInfos": null, "finInfos": null, "ville": null, "id": null, "phone": null, "urlBlood": null, "urlPlasma": null, "urlPlatelets": null}
{"address1": "LYCEE COLBERT", "address2": "INSCRIVEZ-VOUS A LA VIE SCOLAIRE", "city": "LORIENT", "convocationLabel": "AMPHITHE\u00c2TRE", "distance": 0.0, "fullAddress": "LYCEE COLBERT INSCRIVEZ-VOUS A LA VIE SCOLAIRE 56100 LORIENT", "giveBlood": 1, "givePlasma": 0, "givePlatelet": 0, "regionCode": "016", "groupCode": "F30286", "latitude": 47.75101, "longitude": -3.358733, "name": "LORIENT-Lyc\u00e9e Colbert", "postCode": "56100", "samplingLocationCode": "906", "horaires": null, "infos": null, "metro": null, "bus": null, "tram": null, "parking": null, "debutInfos": null, "finInfos": null, "ville": null, "id": null, "phone": null, "urlBlood": null, "urlPlasma": null, "urlPlatelets": null}
