{"address1": null, "address2": "Place des Patriotes", "city": "LANNION", "convocationLabel": "SALLE DES URSULINES", "distance": 0.0, "fullAddress": "Place des Patriotes 22300 LANNION", "giveBlood": 1, "givePlasma": 0, "givePlatelet": 0, "regionCode": "016", "groupCode": "F10120", "latitude": 48.73208237, "longitude": -3.45914412, "name": "LANNION Ursulines AM1", "postCode": "22300", "samplingLocationCode": "1267", "horaires": null, "infos": null, "metro": null, "bus": null, "tram": null, "parking": null, "debutInfos": null, "finInfos": null, "ville": null, "id": null, "phone": null, "urlBlood": null, "urlPlasma": null, "urlPlatelets": null}
{"address1": null, "address2": "Place des Patriotes", "city": "LANNION", "convocationLabel": "SALLE DES URSULINES", "distance": 0.0, "fullAddress": "Place des Patriotes 22300 LANNION", "giveBlood": 1, "givePlasma": 0, "givePlatelet": 0, "regionCode": "016", "groupCode": "F10120", "latitude": 48.73208237, "longitude": -3.45914412, "name": "LANNION Ursulines AM2", "postCode": "22300", "samplingLocationCode": "2", "horaires": null, "infos": null, "metro": null, "bus": null, "tram": null, "parking": null, "debutInfos": null, "finInfos": null, "ville": null, "id": null, "phone": null, "urlBlood": null, "urlPlasma": null, "urlPlatelets": null}
{"address1": null, "address2": "Place des Patriotes", "city": "LANNION", "convocationLabel": "SALLE DES URSULINES", "distance": 0.0, "fullAddress": "Place des Patriotes 22300 LANNION", "giveBlood": 1, "givePlasma": 0, "givePlatelet": 0, "regionCode": "016", "groupCode": "F10120", "latitude": 48.73208237, "longitude": -3.45914412, "name": "LANNION Ursulines DAM3", "postCode": "22300", "samplingLocationCode": "3", "horaires": null, "infos": null, "metro": null, "bus": null, "tram": null, "parking": null, "debutInfos": null, "finInfos": null, "ville": null, "id": null, "phone": null, "urlBlood": null, "urlPlasma": null, "urlPlatelets": null}
{"address1": null, "address2": "Place des Patriotes", "city": "LANNION", "convocationLabel": "SALLE DES URSULINES", "distance": 0.0, "fullAddress": "Place des Patriotes 22300 LANNION", "giveBlood": 1, "givePlasma": 0, "givePlatelet": 0, "regionCode": "016", "groupCode": "F10120", "latitude": 48.731134, "longitude": -3.454973, "name": "LANNION Ursulines VEN", "postCode": "22300", "samplingLocationCode": "4", "horaires": null, "infos": null, "metro": null, "bus": null, "tram": null, "parking": null, "debutInfos": null, "finInfos": null, "ville": null, "id": null, "phone": null, "urlBlood": null, "urlPlasma": null, "urlPlatelets": null}
{"address1": null, "address2": "Rue \u00c9douard Branly", "city": "LANNION", "convocationLabel": "GYMNASE DE L'IUT", "distance": 0.0, "fullAddress": "Rue \u00c9douard Branly 22300 LANNION", "giveBlood": 1, "givePlasma": 0, "givePlatelet": 0, "regionCode": "016", "groupCode": "F10120", "latitude": 48.75792, "longitude": -3.449761, "name": "LANNION Gymnase IUT AM1", "postCode": "22300", "samplingLocationCode": "5", "horaires": null, "infos": null, "metro": null, "bus": null, "tram": null, "parking": null, "debutInfos": null, "finInfos": null, "ville": null, "id": null, "phone": null, "urlBlood": null, "urlPlasma": null, "urlPlatelets": null}
{"address1": null, "address2": "Rue \u00c9douard Branly", "city": "LANNION", "convocationLabel": "GYMNASE DE L'IUT", "distance": 0.0, "fullAddress": "Rue \u00c9douard Branly 22300 LANNION", "giveBlood": 1, "givePlasma": 0, "givePlatelet": 0, "regionCode": "016", "groupCode": "F10120", "latitude": 48.75792, "longitude": -3.449761, "name": "LANNION Gymnase IUT DAM2", "postCode": "22300", "samplingLocationCode": "6", "horaires": null, "infos": null, "metro": null, "bus": null, "tram": null, "parking": null, "debutInfos": null, "finInfos": null, "ville": null, "id": null, "phone": null, "urlBlood": null, "urlPlasma": null, "urlPlatelets": null}
