{"address1": null, "address2": "2 BOULEVARD DU COMMANDANT COUSTEAU", "city": "LAILLE", "convocationLabel": "L'ARCHIPEL", "distance": 0.0, "fullAddress": "2 BOULEVARD DU COMMANDANT COUSTEAU 35890 LAILLE", "giveBlood": 1, "givePlasma": 0, "givePlatelet": 0, "regionCode": "016", "groupCode": "F70108", "latitude": 47.982491, "longitude": -1.718152, "name": "2 LAILLE-ARCHIPEL VE AM", "postCode": "35890", "samplingLocationCode": "10", "horaires": null, "infos": null, "metro": null, "bus": null, "tram": null, "parking": null, "debutInfos": null, "finInfos": null, "ville": null, "id": null, "phone": null, "urlBlood": null, "urlPlasma": null, "urlPlatelets": null}
{"address1": null, "address2": "2 RUE DU COMMANDANT COUSTEAU", "city": "LAILLE", "convocationLabel": "L'ARCHIPEL", "distance": 0.0, "fullAddress": "2 RUE DU COMMANDANT COUSTEAU 35890 LAILLE", "giveBlood": 1, "givePlasma": 0, "givePlatelet": 0, "regionCode": "016", "groupCode": "F70108", "latitude": 47.982491, "longitude": -1.718152, "name": "LAILLE", "postCode": "35890", "samplingLocationCode": "121", "horaires": null, "infos": null, "metro": null, "bus": null, "tram": null, "parking": null, "debutInfos": null, "finInfos": null, "ville": null, "id": null, "phone": null, "urlBlood": null, "urlPlasma": null, "urlPlatelets": null}
{"address1": null, "address2": "2 BOULEVARD DU COMMANDANT COUSTEAU", "city": "LAILLE", "convocationLabel": "L'ARCHIPEL", "distance": 0.0, "fullAddress": "2 BOULEVARD DU COMMANDANT COUSTEAU 35890 LAILLE", "giveBlood": 1, "givePlasma": 0, "givePlatelet": 0, "regionCode": "016", "groupCode": "F70108", "latitude": 47.98221588, "longitude": -1.71793222, "name": "LAILLE ARCHIPEL MAT", "postCode": "35890", "samplingLocationCode": "2", "horaires": null, "infos": null, "metro": null, "bus": null, "tram": null, "parking": null, "debutInfos": null, "finInfos": null, "ville": null, "id": null, "phone": null, "urlBlood": null, "urlPlasma": null, "urlPlatelets": null}
{"address1": null, "address2": "2 BOULEVARD DU COMMANDANT COUSTEAU", "city": "LAILLE", "convocationLabel": "L'ARCHIPEL", "distance": 0.0, "fullAddress": "2 BOULEVARD DU COMMANDANT COUSTEAU 35890 LAILLE", "giveBlood": 1, "givePlasma": 0, "givePlatelet": 0, "regionCode": "016", "groupCode": "F70108", "latitude": 47.98221588, "longitude": -1.71793222, "name": "LAILLE ARCHIPEL AM", "postCode": "35890", "samplingLocationCode": "3", "horaires": null, "infos": null, "metro": null, "bus": null, "tram": null, "parking": null, "debutInfos": null, "finInfos": null, "ville": null, "id": null, "phone": null, "urlBlood": null, "urlPlasma": null, "urlPlatelets": null}
{"address1": null, "address2": "21 RUE DU POINT DU JOUR", "city": "LAILLE", "convocationLabel": "LE POINT 21", "distance": 0.0, "fullAddress": "21 RUE DU POINT DU JOUR 35890 LAILLE", "giveBlood": 1, "givePlasma": 0, "givePlatelet": 0, "regionCode": "016", "groupCode": "F70108", "latitude": 47.978323, "longitude": -1.716819, "name": "LAILLE Point 21 MAT", "postCode": "35890", "samplingLocationCode": "4", "horaires": null, "infos": null, "metro": null, "bus": null, "tram": null, "parking": null, "debutInfos": null, "finInfos": null, "ville": null, "id": null, "phone": null, "urlBlood": null, "urlPlasma": null, "urlPlatelets": null}
{"address1": null, "address2": "21 RUE DU POINT DU JOUR", "city": "LAILLE", "convocationLabel": "LE POINT 21", "distance": 0.0, "fullAddress": "21 RUE DU POINT DU JOUR 35890 LAILLE", "giveBlood": 1, "givePlasma": 0, "givePlatelet": 0, "regionCode": "016", "groupCode": "F70108", "latitude": 47.978323, "longitude": -1.716819, "name": "LAILLE Point 21 AM", "postCode": "35890", "samplingLocationCode": "5", "horaires": null, "infos": null, "metro": null, "bus": null, "tram": null, "parking": null, "debutInfos": null, "finInfos": null, "ville": null, "id": null, "phone": null, "urlBlood": null, "urlPlasma": null, "urlPlatelets": null}
{"address1": null, "address2": "RUE DE LA BUTERNE", "city": "LAILLE", "convocationLabel": "COLLEGE PIERRE MARIE CURIE", "distance": 0.0, "fullAddress": "RUE DE LA BUTERNE 35890 LAILLE", "giveBlood": 1, "givePlasma": 0, "givePlatelet": 0, "regionCode": "016", "groupCode": "F70108", "latitude": 47.981713, "longitude": -1.714944, "name": "LAILLE Coll\u00e8ge MAT", "postCode": "35890", "samplingLocationCode": "6", "horaires": null, "infos": null, "metro": null, "bus": null, "tram": null, "parking": null, "debutInfos": null, "finInfos": null, "ville": null, "id": null, "phone": null, "urlBlood": null, "urlPlasma": null, "urlPlatelets": null}
{"address1": null, "address2": "RUE DE LA BUTERNE", "city": "LAILLE", "convocationLabel": "COLLEGE MARIE CURIE", "distance": 0.0, "fullAddress": "RUE DE LA BUTERNE 35890 LAILLE", "giveBlood": 1, "givePlasma": 0, "givePlatelet": 0, "regionCode": "016", "groupCode": "F70108", "latitude": 47.981713, "longitude": -1.714944, "name": "LAILLE Coll\u00e8ge AM", "postCode": "35890", "samplingLocationCode": "7", "horaires": null, "infos": null, "metro": null, "bus": null, "tram": null, "parking": null, "debutInfos": null, "finInfos": null, "ville": null, "id": null, "phone": null, "urlBlood": null, "urlPlasma": null, "urlPlatelets": null}
{"address1": null, "address2": "2 BOULEVARD DU COMMANDANT COUSTEAU", "city": "LAILLE", "convocationLabel": "L'ARCHIPEL", "distance": 0.0, "fullAddress": "2 BOULEVARD DU COMMANDANT COUSTEAU 35890 LAILLE", "giveBlood": 1, "givePlasma": 0, "givePlatelet": 0, "regionCode": "016", "groupCode": "F70108", "latitude": 47.98221588, "longitude": -1.71793222, "name": "2 LAILLE-ARCHIPEL AM ", "postCode": "35890", "samplingLocationCode": "8", "horaires": null, "infos": null, "metro": null, "bus": null, "tram": null, "parking": null, "debutInfos": null, "finInfos": null, "ville": null, "id": null, "phone": null, "urlBlood": null, "urlPlasma": null, "urlPlatelets": null}
{"address1": null, "address2": "2 BOULEVARD DU COMMANDANT COUSTEAU", "city": "LAILLE", "convocationLabel": "L'ARCHIPEL", "distance": 0.0, "fullAddress": "2 BOULEVARD DU COMMANDANT COUSTEAU 35890 LAILLE", "giveBlood": 1, "givePlasma": 0, "givePlatelet": 0, "regionCode": "016", "groupCode": "F70108", "latitude": 47.982491, "longitude": -1.718152, "name": "2 LAILLE-ARCHIPEL J+ DAM", "postCode": "35890", "samplingLocationCode": "9", "horaires": null, "infos": null, "metro": null, "bus": null, "tram": null, "parking": null, "debutInfos": null, "finInfos": null, "ville": null, "id": null, "phone": null, "urlBlood": null, "urlPlasma": null, "urlPlatelets": null}
