{"address1": null, "address2": "UNIVERSITE DE BRETAGNE SUD", "city": "VANNES", "convocationLabel": "Batiment D.S.E.G. CAMPUS TOHANNIC", "distance": 0.0, "fullAddress": "UNIVERSITE DE BRETAGNE SUD 56000 VANNES", "giveBlood": 1, "givePlasma": 0, "givePlatelet": 0, "regionCode": "016", "groupCode": "F30404", "latitude": 47.661201, "longitude": -2.776772, "name": "U.B.S.", "postCode": "56000", "samplingLocationCode": "1454", "horaires": null, "infos": null, "metro": null, "bus": null, "tram": null, "parking": null, "debutInfos": null, "finInfos": null, "ville": null, "id": null, "phone": null, "urlBlood": null, "urlPlasma": null, "urlPlatelets": null}
{"address1": "VANNES-LIONS SPS CAMPUS", "address2": "UNIVERSITE BRETAGNE SUD", "city": "VANNES", "convocationLabel": "Batiment D.S.E.G. CAMPUS TOHANNIC", "distance": 0.0, "fullAddress": "VANNES-LIONS SPS CAMPUS UNIVERSITE BRETAGNE SUD 56000 VANNES", "giveBlood": 1, "givePlasma": 0, "givePlatelet": 0, "regionCode": "016", "groupCode": "F30404", "latitude": 47.660026, "longitude": -2.75162, "name": "VANNES-LIONS SPS CAMPUS", "postCode": "56000", "samplingLocationCode": "2", "horaires": null, "infos": null, "metro": null, "bus": null, "tram": null, "parking": null, "debutInfos": null, "finInfos": null, "ville": null, "id": null, "phone": null, "urlBlood": null, "urlPlasma": null, "urlPlatelets": null}
{"address1": "BATIMENT FAC DE SCIENCES", "address2": "UNIVERSITE BRETAGNE SUD", "city": "VANNES", "convocationLabel": "D.S.E.G. CAMPUS TOHANNIC", "distance": 0.0, "fullAddress": "BATIMENT FAC DE SCIENCES UNIVERSITE BRETAGNE SUD 56000 VANNES", "giveBlood": 1, "givePlasma": 0, "givePlatelet": 0, "regionCode": "016", "groupCode": "F30404", "latitude": 47.651037, "longitude": -2.773383, "name": "VANNES-U.B.S SPS 12 h 16 h 30", "postCode": "56000", "samplingLocationCode": "3", "horaires": null, "infos": null, "metro": null, "bus": null, "tram": null, "parking": null, "debutInfos": null, "finInfos": null, "ville": null, "id": null, "phone": null, "urlBlood": null, "urlPlasma": null, "urlPlatelets": null}
{"address1": "VANNES-LIONS SPS CAMPUS", "address2": "UNIVERSITE BRETAGNE SUD", "city": "VANNES", "convocationLabel": "B\u00e2timent Fac de Sciences", "distance": 0.0, "fullAddress": "VANNES-LIONS SPS CAMPUS UNIVERSITE BRETAGNE SUD 56000 VANNES", "giveBlood": 1, "givePlasma": 0, "givePlatelet": 0, "regionCode": "016", "groupCode": "F30404", "latitude": 47.660026, "longitude": -2.75162, "name": "VANNES- SPS CAMPUS ", "postCode": "56000", "samplingLocationCode": "4", "horaires": null, "infos": null, "metro": null, "bus": null, "tram": null, "parking": null, "debutInfos": null, "finInfos": null, "ville": null, "id": null, "phone": null, "urlBlood": null, "urlPlasma": null, "urlPlatelets": null}
{"address1": "VANNES LIONS SPS CAMPUS", "address2": "UNIVERSITE BRETAGNE SUD", "city": "VANNES", "convocationLabel": "BATIMENT FAC DE SCIENCES D077 - D079", "distance": 0.0, "fullAddress": "VANNES LIONS SPS CAMPUS UNIVERSITE BRETAGNE SUD 56000 VANNES", "giveBlood": 1, "givePlasma": 0, "givePlatelet": 0, "regionCode": "016", "groupCode": "F30404", "latitude": 47.660026, "longitude": -2.75162, "name": "UBS TOHANNIC SI 10 H 15 - 16 H", "postCode": "56000", "samplingLocationCode": "6", "horaires": null, "infos": null, "metro": null, "bus": null, "tram": null, "parking": null, "debutInfos": null, "finInfos": null, "ville": null, "id": null, "phone": null, "urlBlood": null, "urlPlasma": null, "urlPlatelets": null}
{"address1": "VANNES-LIONS SPS CAMPUS", "address2": "UNIVERSITE BRETAGNE SUD", "city": "VANNES", "convocationLabel": "BATIMENT FAC DE SCIENCES", "distance": 0.0, "fullAddress": "VANNES-LIONS SPS CAMPUS UNIVERSITE BRETAGNE SUD 56000 VANNES", "giveBlood": 1, "givePlasma": 0, "givePlatelet": 0, "regionCode": "016", "groupCode": "F30404", "latitude": 47.660026, "longitude": -2.75162, "name": "VANNES-SPS CAMPUS 12 - 16 H", "postCode": "56000", "samplingLocationCode": "7", "horaires": null, "infos": null, "metro": null, "bus": null, "tram": null, "parking": null, "debutInfos": null, "finInfos": null, "ville": null, "id": null, "phone": null, "urlBlood": null, "urlPlasma": null, "urlPlatelets": null}
{"address1": "BATIMENT D S E G CAMPUS TOHANNIC", "address2": "UNIVERSITE DE BRETAGNE SUD", "city": "VANNES", "convocationLabel": "VANNES CAMPUS TOHANNIC", "distance": 0.0, "fullAddress": "BATIMENT D S E G CAMPUS TOHANNIC UNIVERSITE DE BRETAGNE SUD 56000 VANNES", "giveBlood": 1, "givePlasma": 0, "givePlatelet": 0, "regionCode": "016", "groupCode": "F30404", "latitude": 47.661201, "longitude": -2.776772, "name": "VANNES-U.B.S.12h -16 h", "postCode": "56000", "samplingLocationCode": "8", "horaires": null, "infos": null, "metro": null, "bus": null, "tram": null, "parking": null, "debutInfos": null, "finInfos": null, "ville": null, "id": null, "phone": null, "urlBlood": null, "urlPlasma": null, "urlPlatelets": null}
{"address1": "BATIMENT FAC DE SCIENCES", "address2": "UNIVERSITE BRETAGNE SUD", "city": "VANNES", "convocationLabel": "D.S.E.G. CAMPUS TOHANNIC", "distance": 0.0, "fullAddress": "BATIMENT FAC DE SCIENCES UNIVERSITE BRETAGNE SUD 56000 VANNES", "giveBlood": 1, "givePlasma": 0, "givePlatelet": 0, "regionCode": "016", "groupCode": "F30404", "latitude": 48.666755, "longitude": 6.159878, "name": "VANNES-U.B.S.SPS 8h30-13h00", "postCode": "56000", "samplingLocationCode": "9", "horaires": null, "infos": null, "metro": null, "bus": null, "tram": null, "parking": null, "debutInfos": null, "finInfos": null, "ville": null, "id": null, "phone": null, "urlBlood": null, "urlPlasma": null, "urlPlatelets": null}
