{"address1": null, "address2": "Rue des Buis", "city": "PLANCOET", "convocationLabel": "SALLE KREUZAU", "distance": 0.0, "fullAddress": "Rue des Buis 22130 PLANCOET", "giveBlood": 1, "givePlasma": 0, "givePlatelet": 0, "regionCode": "016", "groupCode": "F10133", "latitude": 48.521153, "longitude": -2.242707, "name": "PLANCOET Salle Kreuzau AM", "postCode": "22130", "samplingLocationCode": "1280", "horaires": null, "infos": null, "metro": null, "bus": null, "tram": null, "parking": null, "debutInfos": null, "finInfos": null, "ville": null, "id": null, "phone": null, "urlBlood": null, "urlPlasma": null, "urlPlatelets": null}
{"address1": null, "address2": "Rue des Buis", "city": "PLANCO\u00cbT", "convocationLabel": "SALLE KREUZAU", "distance": 0.0, "fullAddress": "Rue des Buis 22130 PLANCO\u00cbT", "giveBlood": 1, "givePlasma": 0, "givePlatelet": 0, "regionCode": "016", "groupCode": "F10133", "latitude": 48.521153, "longitude": -2.242707, "name": "PLANCOET Salle Kreuzau VEN", "postCode": "22130", "samplingLocationCode": "2", "horaires": null, "infos": null, "metro": null, "bus": null, "tram": null, "parking": null, "debutInfos": null, "finInfos": null, "ville": null, "id": null, "phone": null, "urlBlood": null, "urlPlasma": null, "urlPlatelets": null}
{"address1": null, "address2": "Rue du Stade", "city": "PLUDUNO", "convocationLabel": "SALLE POLYVALENTE", "distance": 0.0, "fullAddress": "Rue du Stade 22130 PLUDUNO", "giveBlood": 1, "givePlasma": 0, "givePlatelet": 0, "regionCode": "016", "groupCode": "F10133", "latitude": 48.53102112, "longitude": -2.26248789, "name": "PLUDUNO Salle Poly AM", "postCode": "22130", "samplingLocationCode": "3", "horaires": null, "infos": null, "metro": null, "bus": null, "tram": null, "parking": null, "debutInfos": null, "finInfos": null, "ville": null, "id": null, "phone": null, "urlBlood": null, "urlPlasma": null, "urlPlatelets": null}
{"address1": null, "address2": "Rue du Stade", "city": "PLUDUNO", "convocationLabel": "SALLE POLYVALENTE", "distance": 0.0, "fullAddress": "Rue du Stade 22130 PLUDUNO", "giveBlood": 1, "givePlasma": 0, "givePlatelet": 0, "regionCode": "016", "groupCode": "F10133", "latitude": 48.530406, "longitude": -2.262562, "name": "PLUDUNO Salle Poly VEN", "postCode": "22130", "samplingLocationCode": "4", "horaires": null, "infos": null, "metro": null, "bus": null, "tram": null, "parking": null, "debutInfos": null, "finInfos": null, "ville": null, "id": null, "phone": null, "urlBlood": null, "urlPlasma": null, "urlPlatelets": null}
{"address1": null, "address2": "Rue du Stade", "city": "PLUDUNO", "convocationLabel": "SALLE POLYVALENTE", "distance": 0.0, "fullAddress": "Rue du Stade 22130 PLUDUNO", "giveBlood": 1, "givePlasma": 0, "givePlatelet": 0, "regionCode": "016", "groupCode": "F10133", "latitude": 48.53102112, "longitude": -2.26248789, "name": "PLUDUNO Salle Poly MAT", "postCode": "22130", "samplingLocationCode": "5", "horaires": null, "infos": null, "metro": null, "bus": null, "tram": null, "parking": null, "debutInfos": null, "finInfos": null, "ville": null, "id": null, "phone": null, "urlBlood": null, "urlPlasma": null, "urlPlatelets": null}
