{"address1": null, "address2": null, "city": "LORIENT", "convocationLabel": "MDD LORIENT MERCREDI", "distance": 0.0, "fullAddress": "56100 LORIENT", "giveBlood": 1, "givePlasma": 0, "givePlatelet": 0, "regionCode": "016", "groupCode": "F00002", "latitude": 47.750424, "longitude": -3.377626, "name": "MDD LORIENT MERCREDI", "postCode": "56100", "samplingLocationCode": "10", "horaires": null, "infos": null, "metro": null, "bus": null, "tram": null, "parking": null, "debutInfos": null, "finInfos": null, "ville": null, "id": null, "phone": null, "urlBlood": null, "urlPlasma": null, "urlPlatelets": null}
{"address1": null, "address2": null, "city": "LORIENT", "convocationLabel": "MDD LORIENT Jeudi", "distance": 0.0, "fullAddress": "56100 LORIENT", "giveBlood": 1, "givePlasma": 0, "givePlatelet": 0, "regionCode": "016", "groupCode": "F00002", "latitude": 47.750424, "longitude": -3.377626, "name": "MDD LORIENT Jeudi", "postCode": "56100", "samplingLocationCode": "11", "horaires": null, "infos": null, "metro": null, "bus": null, "tram": null, "parking": null, "debutInfos": null, "finInfos": null, "ville": null, "id": null, "phone": null, "urlBlood": null, "urlPlasma": null, "urlPlatelets": null}
{"address1": null, "address2": null, "city": null, "convocationLabel": null, "distance": 0.0, "fullAddress": "56100", "giveBlood": 1, "givePlasma": 0, "givePlatelet": 0, "regionCode": "016", "groupCode": "F00002", "latitude": 0.0, "longitude": 0.0, "name": "JOUR BLOQUE RH", "postCode": "56100", "samplingLocationCode": "12", "horaires": null, "infos": null, "metro": null, "bus": null, "tram": null, "parking": null, "debutInfos": null, "finInfos": null, "ville": null, "id": null, "phone": null, "urlBlood": null, "urlPlasma": null, "urlPlatelets": null}
{"address1": "112 RUE COLONEL JEAN MULLER", "address2": "ZONE DE KERYADO", "city": "LORIENT", "convocationLabel": "MDD LORIENT EVENEMENTIEL", "distance": 0.0, "fullAddress": "112 RUE COLONEL JEAN MULLER ZONE DE KERYADO 56100 LORIENT", "giveBlood": 1, "givePlasma": 0, "givePlatelet": 0, "regionCode": "016", "groupCode": "F00002", "latitude": 47.750424, "longitude": -3.377626, "name": "MDD ACTION OU  EVENEMENTIEL", "postCode": "56100", "samplingLocationCode": "13", "horaires": null, "infos": null, "metro": null, "bus": null, "tram": null, "parking": null, "debutInfos": null, "finInfos": null, "ville": null, "id": null, "phone": null, "urlBlood": null, "urlPlasma": null, "urlPlatelets": null}
{"address1": "112 RUE COLONEL JEAN MULLER", "address2": "ZONE DE KERYADO", "city": "LORIENT", "convocationLabel": "LORIENT MDD LUNDI", "distance": 0.0, "fullAddress": "112 RUE COLONEL JEAN MULLER ZONE DE KERYADO 56100 LORIENT", "giveBlood": 1, "givePlasma": 0, "givePlatelet": 0, "regionCode": "016", "groupCode": "F00002", "latitude": 47.765134, "longitude": -3.398942, "name": "LORIENT MDD LUNDI K", "postCode": "56100", "samplingLocationCode": "14", "horaires": null, "infos": null, "metro": null, "bus": null, "tram": null, "parking": null, "debutInfos": null, "finInfos": null, "ville": null, "id": null, "phone": null, "urlBlood": null, "urlPlasma": null, "urlPlatelets": null}
{"address1": "112 RUE COLONEL MULLER", "address2": "ZONE DE KERYADO", "city": "LORIENT", "convocationLabel": "LORIENT MDD MARDI ", "distance": 0.0, "fullAddress": "112 RUE COLONEL MULLER ZONE DE KERYADO 56100 LORIENT", "giveBlood": 1, "givePlasma": 0, "givePlatelet": 0, "regionCode": "016", "groupCode": "F00002", "latitude": 47.765134, "longitude": -3.398942, "name": "LORIENT MDD MARDI K", "postCode": "56100", "samplingLocationCode": "15", "horaires": null, "infos": null, "metro": null, "bus": null, "tram": null, "parking": null, "debutInfos": null, "finInfos": null, "ville": null, "id": null, "phone": null, "urlBlood": null, "urlPlasma": null, "urlPlatelets": null}
{"address1": "112 RUE COLONEL JEAN MULLER", "address2": "ZONE DE KERYADO", "city": "LORIENT", "convocationLabel": "LORIENT MDD MERCREDI", "distance": 0.0, "fullAddress": "112 RUE COLONEL JEAN MULLER ZONE DE KERYADO 56100 LORIENT", "giveBlood": 1, "givePlasma": 0, "givePlatelet": 0, "regionCode": "016", "groupCode": "F00002", "latitude": 47.765134, "longitude": -3.398942, "name": "LORIENT MDD MERCREDI K", "postCode": "56100", "samplingLocationCode": "16", "horaires": null, "infos": null, "metro": null, "bus": null, "tram": null, "parking": null, "debutInfos": null, "finInfos": null, "ville": null, "id": null, "phone": null, "urlBlood": null, "urlPlasma": null, "urlPlatelets": null}
{"address1": "112 RUE COLONEL JEAN MULLER", "address2": "ZONE DE KERYADO", "city": "LORIENT", "convocationLabel": "LORIENT MDD JEUDI", "distance": 0.0, "fullAddress": "112 RUE COLONEL JEAN MULLER ZONE DE KERYADO 56100 LORIENT", "giveBlood": 1, "givePlasma": 0, "givePlatelet": 0, "regionCode": "016", "groupCode": "F00002", "latitude": 47.765134, "longitude": -3.398942, "name": "LORIENT MDD JEUDI K", "postCode": "56100", "samplingLocationCode": "17", "horaires": null, "infos": null, "metro": null, "bus": null, "tram": null, "parking": null, "debutInfos": null, "finInfos": null, "ville": null, "id": null, "phone": null, "urlBlood": null, "urlPlasma": null, "urlPlatelets": null}
{"address1": "112 RUE COLONEL JEAN MULLER", "address2": "ZONE DE KERYADO", "city": "LORIENT", "convocationLabel": "LORIENT MDD VENDREDI", "distance": 0.0, "fullAddress": "112 RUE COLONEL JEAN MULLER ZONE DE KERYADO 56100 LORIENT", "giveBlood": 1, "givePlasma": 0, "givePlatelet": 0, "regionCode": "016", "groupCode": "F00002", "latitude": 47.765134, "longitude": -3.398942, "name": "LORIENT MDD VENDREDI K", "postCode": "56100", "samplingLocationCode": "18", "horaires": null, "infos": null, "metro": null, "bus": null, "tram": null, "parking": null, "debutInfos": null, "finInfos": null, "ville": null, "id": null, "phone": null, "urlBlood": null, "urlPlasma": null, "urlPlatelets": null}
{"address1": "112 RUE COLONEL JEAN MULLER", "address2": "ZONE DE KERYADO", "city": "LORIENT", "convocationLabel": "LORIENT MDD SAMEDI", "distance": 0.0, "fullAddress": "112 RUE COLONEL JEAN MULLER ZONE DE KERYADO 56100 LORIENT", "giveBlood": 1, "givePlasma": 0, "givePlatelet": 0, "regionCode": "016", "groupCode": "F00002", "latitude": 47.765134, "longitude": -3.398942, "name": "LORIENT MDD SAMEDI K", "postCode": "56100", "samplingLocationCode": "19", "horaires": null, "infos": null, "metro": null, "bus": null, "tram": null, "parking": null, "debutInfos": null, "finInfos": null, "ville": null, "id": null, "phone": null, "urlBlood": null, "urlPlasma": null, "urlPlatelets": null}
{"address1": null, "address2": null, "city": "LORIENT", "convocationLabel": null, "distance": 0.0, "fullAddress": "56100 LORIENT", "giveBlood": 1, "givePlasma": 0, "givePlatelet": 0, "regionCode": "016", "groupCode": "F00002", "latitude": 47.750424, "longitude": -3.377626, "name": "MDD SCORFF Lyc\u00e9es/ Entreprises", "postCode": "56100", "samplingLocationCode": "2", "horaires": null, "infos": null, "metro": null, "bus": null, "tram": null, "parking": null, "debutInfos": null, "finInfos": null, "ville": null, "id": null, "phone": null, "urlBlood": null, "urlPlasma": null, "urlPlatelets": null}
{"address1": null, "address2": null, "city": "LORIENT", "convocationLabel": "MDD LORIENT SAMEDI", "distance": 0.0, "fullAddress": "56100 LORIENT", "giveBlood": 1, "givePlasma": 0, "givePlatelet": 0, "regionCode": "016", "groupCode": "F00002", "latitude": 47.750424, "longitude": -3.377626, "name": "MDD LORIENT SAMEDI", "postCode": "56100", "samplingLocationCode": "3", "horaires": null, "infos": null, "metro": null, "bus": null, "tram": null, "parking": null, "debutInfos": null, "finInfos": null, "ville": null, "id": null, "phone": null, "urlBlood": null, "urlPlasma": null, "urlPlatelets": null}
{"address1": null, "address2": null, "city": "LORIENT", "convocationLabel": "MDD LORIENT LUNDI", "distance": 0.0, "fullAddress": "56100 LORIENT", "giveBlood": 1, "givePlasma": 0, "givePlatelet": 0, "regionCode": "016", "groupCode": "F00002", "latitude": 47.750424, "longitude": -3.377626, "name": "MDD LORIENT LUNDI", "postCode": "56100", "samplingLocationCode": "4", "horaires": null, "infos": null, "metro": null, "bus": null, "tram": null, "parking": null, "debutInfos": null, "finInfos": null, "ville": null, "id": null, "phone": null, "urlBlood": null, "urlPlasma": null, "urlPlatelets": null}
{"address1": null, "address2": null, "city": "LORIENT", "convocationLabel": "MDD LORIENT MARDI", "distance": 0.0, "fullAddress": "56100 LORIENT", "giveBlood": 1, "givePlasma": 0, "givePlatelet": 0, "regionCode": "016", "groupCode": "F00002", "latitude": 47.750424, "longitude": -3.377626, "name": "MDD LORIENT MARDI", "postCode": "56100", "samplingLocationCode": "5", "horaires": null, "infos": null, "metro": null, "bus": null, "tram": null, "parking": null, "debutInfos": null, "finInfos": null, "ville": null, "id": null, "phone": null, "urlBlood": null, "urlPlasma": null, "urlPlatelets": null}
{"address1": null, "address2": null, "city": "LORIENT", "convocationLabel": "CABINE DE LORIENT", "distance": 0.0, "fullAddress": "56100 LORIENT", "giveBlood": 1, "givePlasma": 0, "givePlatelet": 0, "regionCode": "016", "groupCode": "F00002", "latitude": 47.750424, "longitude": -3.377626, "name": "CABINE DE LORIENT- JPO", "postCode": "56100", "samplingLocationCode": "892", "horaires": null, "infos": null, "metro": null, "bus": null, "tram": null, "parking": null, "debutInfos": null, "finInfos": null, "ville": null, "id": null, "phone": null, "urlBlood": null, "urlPlasma": null, "urlPlatelets": null}
{"address1": null, "address2": null, "city": "LORIENT", "convocationLabel": "MDD LORIENT VENDREDI", "distance": 0.0, "fullAddress": "56100 LORIENT", "giveBlood": 1, "givePlasma": 0, "givePlatelet": 0, "regionCode": "016", "groupCode": "F00002", "latitude": 47.750424, "longitude": -3.377626, "name": "MDD LORIENT VENDREDI", "postCode": "56100", "samplingLocationCode": "9", "horaires": null, "infos": null, "metro": null, "bus": null, "tram": null, "parking": null, "debutInfos": null, "finInfos": null, "ville": null, "id": null, "phone": null, "urlBlood": null, "urlPlasma": null, "urlPlatelets": null}
