{"address1": null, "address2": null, "city": "LARMOR PLAGE", "convocationLabel": "SALLE DES ALGUES", "distance": 0.0, "fullAddress": "56260 LARMOR PLAGE", "giveBlood": 1, "givePlasma": 0, "givePlatelet": 0, "regionCode": "016", "groupCode": "F30256", "latitude": 47.70479584, "longitude": -3.38384986, "name": "LARMOR PLAGE SALLE DES ALGUES", "postCode": "56260", "samplingLocationCode": "2", "horaires": null, "infos": null, "metro": null, "bus": null, "tram": null, "parking": null, "debutInfos": null, "finInfos": null, "ville": null, "id": null, "phone": null, "urlBlood": null, "urlPlasma": null, "urlPlatelets": null}
{"address1": null, "address2": "PARKING DES ALGUES", "city": "LARMOR PLAGE", "convocationLabel": "SALLE DES ALGUES", "distance": 0.0, "fullAddress": "PARKING DES ALGUES 56260 LARMOR PLAGE", "giveBlood": 1, "givePlasma": 0, "givePlatelet": 0, "regionCode": "016", "groupCode": "F30256", "latitude": 47.70495224, "longitude": -3.38551927, "name": "LARMOR PLAGE MATIN", "postCode": "56260", "samplingLocationCode": "4", "horaires": null, "infos": null, "metro": null, "bus": null, "tram": null, "parking": null, "debutInfos": null, "finInfos": null, "ville": null, "id": null, "phone": null, "urlBlood": null, "urlPlasma": null, "urlPlatelets": null}
{"address1": null, "address2": "PARKING DES ALGUES", "city": "LARMOR PLAGE", "convocationLabel": "SALLE DES ALGUES", "distance": 0.0, "fullAddress": "PARKING DES ALGUES 56260 LARMOR PLAGE", "giveBlood": 1, "givePlasma": 0, "givePlatelet": 0, "regionCode": "016", "groupCode": "F30256", "latitude": 47.70484924, "longitude": -3.384552, "name": "LARMOR PM", "postCode": "56260", "samplingLocationCode": "5", "horaires": null, "infos": null, "metro": null, "bus": null, "tram": null, "parking": null, "debutInfos": null, "finInfos": null, "ville": null, "id": null, "phone": null, "urlBlood": null, "urlPlasma": null, "urlPlatelets": null}
{"address1": null, "address2": "PARKING DES ALGUES", "city": "LARMOR PLAGE", "convocationLabel": "SALLE DES ALGUES", "distance": 0.0, "fullAddress": "PARKING DES ALGUES 56260 LARMOR PLAGE", "giveBlood": 1, "givePlasma": 0, "givePlatelet": 0, "regionCode": "016", "groupCode": "F30256", "latitude": 47.705675, "longitude": -3.383735, "name": "LARMOR PLAGE 12 h - 16 h 30", "postCode": "56260", "samplingLocationCode": "7", "horaires": null, "infos": null, "metro": null, "bus": null, "tram": null, "parking": null, "debutInfos": null, "finInfos": null, "ville": null, "id": null, "phone": null, "urlBlood": null, "urlPlasma": null, "urlPlatelets": null}
{"address1": null, "address2": "PARKING DES ALGUES", "city": "LARMOR PLAGE", "convocationLabel": "SALLE DES ALGUES", "distance": 0.0, "fullAddress": "PARKING DES ALGUES 56260 LARMOR PLAGE", "giveBlood": 1, "givePlasma": 0, "givePlatelet": 0, "regionCode": "016", "groupCode": "F30256", "latitude": 47.71858978, "longitude": -3.39527774, "name": "LARMOR PLAGE 14H30 - 19H", "postCode": "56260", "samplingLocationCode": "8", "horaires": null, "infos": null, "metro": null, "bus": null, "tram": null, "parking": null, "debutInfos": null, "finInfos": null, "ville": null, "id": null, "phone": null, "urlBlood": null, "urlPlasma": null, "urlPlatelets": null}
{"address1": null, "address2": "PARKING DES ALGUES", "city": "LARMOR PLAGE", "convocationLabel": "SALLE DES ALGUES", "distance": 0.0, "fullAddress": "PARKING DES ALGUES 56260 LARMOR PLAGE", "giveBlood": 1, "givePlasma": 0, "givePlatelet": 0, "regionCode": "016", "groupCode": "F30256", "latitude": 47.71858978, "longitude": -3.39527774, "name": "LARMOR PLAGE 8 h 30  13 h", "postCode": "56260", "samplingLocationCode": "9", "horaires": null, "infos": null, "metro": null, "bus": null, "tram": null, "parking": null, "debutInfos": null, "finInfos": null, "ville": null, "id": null, "phone": null, "urlBlood": null, "urlPlasma": null, "urlPlatelets": null}
