{"address1": "I.E.P.", "address2": "104 BD DE LA DUCHESSE ANNE", "city": "RENNES", "convocationLabel": "GYMNASE", "distance": 0.0, "fullAddress": "I.E.P. 104 BD DE LA DUCHESSE ANNE 35000 RENNES", "giveBlood": 1, "givePlasma": 0, "givePlatelet": 0, "regionCode": "016", "groupCode": "F70562", "latitude": 48.12116, "longitude": -1.668486, "name": "I.E.P. amidi", "postCode": "35000", "samplingLocationCode": "2", "horaires": null, "infos": null, "metro": null, "bus": null, "tram": null, "parking": null, "debutInfos": null, "finInfos": null, "ville": null, "id": null, "phone": null, "urlBlood": null, "urlPlasma": null, "urlPlatelets": null}
{"address1": null, "address2": "104 BD DE LA DUCHESSE ANNE", "city": "RENNES", "convocationLabel": "GYMNASE", "distance": 0.0, "fullAddress": "104 BD DE LA DUCHESSE ANNE 35000 RENNES", "giveBlood": 1, "givePlasma": 0, "givePlatelet": 0, "regionCode": "016", "groupCode": "F70562", "latitude": 48.12116, "longitude": -1.668486, "name": "RENNES-I.E.P.", "postCode": "35000", "samplingLocationCode": "3", "horaires": null, "infos": null, "metro": null, "bus": null, "tram": null, "parking": null, "debutInfos": null, "finInfos": null, "ville": null, "id": null, "phone": null, "urlBlood": null, "urlPlasma": null, "urlPlatelets": null}
{"address1": "GYMNASE", "address2": "104 BD DE LA DUCHESSE ANNE", "city": "RENNES", "convocationLabel": "I.E.P.", "distance": 0.0, "fullAddress": "GYMNASE 104 BD DE LA DUCHESSE ANNE 35000 RENNES", "giveBlood": 1, "givePlasma": 0, "givePlatelet": 0, "regionCode": "016", "groupCode": "F70562", "latitude": 48.12116, "longitude": -1.668486, "name": "2 RENNES-I.E.P.-GYMNASE DAM ", "postCode": "35000", "samplingLocationCode": "4", "horaires": null, "infos": null, "metro": null, "bus": null, "tram": null, "parking": null, "debutInfos": null, "finInfos": null, "ville": null, "id": null, "phone": null, "urlBlood": null, "urlPlasma": null, "urlPlatelets": null}
{"address1": "GYMNASE", "address2": "104 BD DE LA DUCHESSE ANNE", "city": "RENNES", "convocationLabel": "I.E.P.", "distance": 0.0, "fullAddress": "GYMNASE 104 BD DE LA DUCHESSE ANNE 35000 RENNES", "giveBlood": 1, "givePlasma": 0, "givePlatelet": 0, "regionCode": "016", "groupCode": "F70562", "latitude": 48.12116, "longitude": -1.668486, "name": "2 RENNES-I.E.P.-GYMNAS 1030-16", "postCode": "35000", "samplingLocationCode": "5", "horaires": null, "infos": null, "metro": null, "bus": null, "tram": null, "parking": null, "debutInfos": null, "finInfos": null, "ville": null, "id": null, "phone": null, "urlBlood": null, "urlPlasma": null, "urlPlatelets": null}
{"address1": "I.E.P.", "address2": "104 BD DE LA DUCHESSE ANNE", "city": "RENNES", "convocationLabel": "GYMNASE", "distance": 0.0, "fullAddress": "I.E.P. 104 BD DE LA DUCHESSE ANNE 35000 RENNES", "giveBlood": 1, "givePlasma": 0, "givePlatelet": 0, "regionCode": "016", "groupCode": "F70562", "latitude": 48.12116, "longitude": -1.668486, "name": "I.E.P. matin", "postCode": "35000", "samplingLocationCode": "596", "horaires": null, "infos": null, "metro": null, "bus": null, "tram": null, "parking": null, "debutInfos": null, "finInfos": null, "ville": null, "id": null, "phone": null, "urlBlood": null, "urlPlasma": null, "urlPlatelets": null}
