{"address1": null, "address2": "Rue de la Croix", "city": "PLERIN", "convocationLabel": "ESPACE PART'AGES CENTRE SOCIAL", "distance": 0.0, "fullAddress": "Rue de la Croix 22190 PLERIN", "giveBlood": 1, "givePlasma": 0, "givePlatelet": 0, "regionCode": "016", "groupCode": "F10137", "latitude": 48.532008, "longitude": -2.765433, "name": "PLERIN Centre Social", "postCode": "22190", "samplingLocationCode": "1284", "horaires": null, "infos": null, "metro": null, "bus": null, "tram": null, "parking": null, "debutInfos": null, "finInfos": null, "ville": null, "id": null, "phone": null, "urlBlood": null, "urlPlasma": null, "urlPlatelets": null}
{"address1": "SALLES CORNOUAILLE & MENE", "address2": "4 avenue du Chalutier Sans Piti\u00e9", "city": "PLERIN", "convocationLabel": "MAISON DE L'AGRICULTURE", "distance": 0.0, "fullAddress": "SALLES CORNOUAILLE & MENE 4 avenue du Chalutier Sans Piti\u00e9 22190 PLERIN", "giveBlood": 1, "givePlasma": 0, "givePlatelet": 0, "regionCode": "016", "groupCode": "F10137", "latitude": 48.52778625, "longitude": -2.76190639, "name": "PLERIN Maison Agri VEN", "postCode": "22190", "samplingLocationCode": "2", "horaires": null, "infos": null, "metro": null, "bus": null, "tram": null, "parking": null, "debutInfos": null, "finInfos": null, "ville": null, "id": null, "phone": null, "urlBlood": null, "urlPlasma": null, "urlPlatelets": null}
{"address1": null, "address2": "Rue de la Croix", "city": "PLERIN", "convocationLabel": "ESPACE PART'AGES CENTRE SOCIAL", "distance": 0.0, "fullAddress": "Rue de la Croix 22190 PLERIN", "giveBlood": 1, "givePlasma": 0, "givePlatelet": 0, "regionCode": "016", "groupCode": "F10137", "latitude": 48.53232193, "longitude": -2.76715112, "name": "PLERIN Centre Social MAT1", "postCode": "22190", "samplingLocationCode": "3", "horaires": null, "infos": null, "metro": null, "bus": null, "tram": null, "parking": null, "debutInfos": null, "finInfos": null, "ville": null, "id": null, "phone": null, "urlBlood": null, "urlPlasma": null, "urlPlatelets": null}
{"address1": null, "address2": "13 rue du Stade", "city": "PLERIN", "convocationLabel": "ESPACE ROGER OLLIVIER", "distance": 0.0, "fullAddress": "13 rue du Stade 22190 PLERIN", "giveBlood": 1, "givePlasma": 0, "givePlatelet": 0, "regionCode": "016", "groupCode": "F10137", "latitude": 48.539491, "longitude": -2.7551074, "name": "PLERIN sdf AM1", "postCode": "22190", "samplingLocationCode": "4", "horaires": null, "infos": null, "metro": null, "bus": null, "tram": null, "parking": null, "debutInfos": null, "finInfos": null, "ville": null, "id": null, "phone": null, "urlBlood": null, "urlPlasma": null, "urlPlatelets": null}
{"address1": null, "address2": "13 rue du Stade", "city": "PLERIN", "convocationLabel": "ESPACE ROGER OLLIVIER", "distance": 0.0, "fullAddress": "13 rue du Stade 22190 PLERIN", "giveBlood": 1, "givePlasma": 0, "givePlatelet": 0, "regionCode": "016", "groupCode": "F10137", "latitude": 48.539491, "longitude": -2.7551074, "name": "PLERIN sdf VEN", "postCode": "22190", "samplingLocationCode": "5", "horaires": null, "infos": null, "metro": null, "bus": null, "tram": null, "parking": null, "debutInfos": null, "finInfos": null, "ville": null, "id": null, "phone": null, "urlBlood": null, "urlPlasma": null, "urlPlatelets": null}
