{"address1": null, "address2": "ROUTE DE SAINT MEEN", "city": "MONTFORT/MEU", "convocationLabel": "ESPACE CULTUREL LE CONFLUENT", "distance": 0.0, "fullAddress": "ROUTE DE SAINT MEEN 35160 MONTFORT/MEU", "giveBlood": 1, "givePlasma": 0, "givePlatelet": 0, "regionCode": "016", "groupCode": "F70143", "latitude": 48.138482, "longitude": -1.96602, "name": "MONTFORT/MEU", "postCode": "35160", "samplingLocationCode": "156", "horaires": null, "infos": null, "metro": null, "bus": null, "tram": null, "parking": null, "debutInfos": null, "finInfos": null, "ville": null, "id": null, "phone": null, "urlBlood": null, "urlPlasma": null, "urlPlatelets": null}
{"address1": null, "address2": "ROUTE DE SAINT MEEN", "city": "MONTFORT/MEU", "convocationLabel": "ESPACE CULTUREL LE CONFLUENT", "distance": 0.0, "fullAddress": "ROUTE DE SAINT MEEN 35160 MONTFORT/MEU", "giveBlood": 1, "givePlasma": 0, "givePlatelet": 0, "regionCode": "016", "groupCode": "F70143", "latitude": 48.13846588, "longitude": -1.9661237, "name": "MONTFORT/MEU MAT", "postCode": "35160", "samplingLocationCode": "2", "horaires": null, "infos": null, "metro": null, "bus": null, "tram": null, "parking": null, "debutInfos": null, "finInfos": null, "ville": null, "id": null, "phone": null, "urlBlood": null, "urlPlasma": null, "urlPlatelets": null}
{"address1": null, "address2": "ROUTE DE SAINT MEEN", "city": "MONTFORT/MEU", "convocationLabel": "ESPACE CULTUREL LE CONFLUENT", "distance": 0.0, "fullAddress": "ROUTE DE SAINT MEEN 35160 MONTFORT/MEU", "giveBlood": 1, "givePlasma": 0, "givePlatelet": 0, "regionCode": "016", "groupCode": "F70143", "latitude": 48.13846588, "longitude": -1.9661237, "name": "MONTFORT/MEU AM", "postCode": "35160", "samplingLocationCode": "3", "horaires": null, "infos": null, "metro": null, "bus": null, "tram": null, "parking": null, "debutInfos": null, "finInfos": null, "ville": null, "id": null, "phone": null, "urlBlood": null, "urlPlasma": null, "urlPlatelets": null}
{"address1": null, "address2": "ROUTE DE SAINT MEEN", "city": "MONTFORT/MEU", "convocationLabel": "ESPACE CULTUREL LE CONFLUENT", "distance": 0.0, "fullAddress": "ROUTE DE SAINT MEEN 35160 MONTFORT/MEU", "giveBlood": 1, "givePlasma": 0, "givePlatelet": 0, "regionCode": "016", "groupCode": "F70143", "latitude": 48.138482, "longitude": -1.96602, "name": "MONTFORT/MEU SA", "postCode": "35160", "samplingLocationCode": "4", "horaires": null, "infos": null, "metro": null, "bus": null, "tram": null, "parking": null, "debutInfos": null, "finInfos": null, "ville": null, "id": null, "phone": null, "urlBlood": null, "urlPlasma": null, "urlPlatelets": null}
{"address1": null, "address2": "ROUTE DE SAINT MEEN", "city": "MONTFORT/MEU", "convocationLabel": "ESPACE CULTUREL LE CONFLUENT", "distance": 0.0, "fullAddress": "ROUTE DE SAINT MEEN 35160 MONTFORT/MEU", "giveBlood": 1, "givePlasma": 0, "givePlatelet": 0, "regionCode": "016", "groupCode": "F70143", "latitude": 48.138482, "longitude": -1.96602, "name": "MONTFORT/MEU SEM AM", "postCode": "35160", "samplingLocationCode": "5", "horaires": null, "infos": null, "metro": null, "bus": null, "tram": null, "parking": null, "debutInfos": null, "finInfos": null, "ville": null, "id": null, "phone": null, "urlBlood": null, "urlPlasma": null, "urlPlatelets": null}
{"address1": null, "address2": "ROUTE DE ST MEEN", "city": "MONTFORT/MEU", "convocationLabel": "ESPACE CULTUREL LE CONFLUENT", "distance": 0.0, "fullAddress": "ROUTE DE ST MEEN 35160 MONTFORT/MEU", "giveBlood": 1, "givePlasma": 0, "givePlatelet": 0, "regionCode": "016", "groupCode": "F70143", "latitude": 48.138482, "longitude": -1.96602, "name": "2 MONTFORT-LE CONFLUENT MAT ", "postCode": "35160", "samplingLocationCode": "6", "horaires": null, "infos": null, "metro": null, "bus": null, "tram": null, "parking": null, "debutInfos": null, "finInfos": null, "ville": null, "id": null, "phone": null, "urlBlood": null, "urlPlasma": null, "urlPlatelets": null}
{"address1": null, "address2": "ROUTE DE ST MEEN", "city": "MONTFORT/MEU", "convocationLabel": "ESPACE CULTUREL LE CONFLUENT", "distance": 0.0, "fullAddress": "ROUTE DE ST MEEN 35160 MONTFORT/MEU", "giveBlood": 1, "givePlasma": 0, "givePlatelet": 0, "regionCode": "016", "groupCode": "F70143", "latitude": 48.14266586, "longitude": -1.95332408, "name": "2 MONTFORT-LE CONFLUENT AM ", "postCode": "35160", "samplingLocationCode": "7", "horaires": null, "infos": null, "metro": null, "bus": null, "tram": null, "parking": null, "debutInfos": null, "finInfos": null, "ville": null, "id": null, "phone": null, "urlBlood": null, "urlPlasma": null, "urlPlatelets": null}
{"address1": null, "address2": "ROUTE DE ST MEEN", "city": "MONTFORT/MEU", "convocationLabel": "ESPACE CULTUREL LE CONFLUENT", "distance": 0.0, "fullAddress": "ROUTE DE ST MEEN 35160 MONTFORT/MEU", "giveBlood": 1, "givePlasma": 0, "givePlatelet": 0, "regionCode": "016", "groupCode": "F70143", "latitude": 48.138482, "longitude": -1.96602, "name": "2 MONTFORT-LE CONFLUENT AM J+", "postCode": "35160", "samplingLocationCode": "8", "horaires": null, "infos": null, "metro": null, "bus": null, "tram": null, "parking": null, "debutInfos": null, "finInfos": null, "ville": null, "id": null, "phone": null, "urlBlood": null, "urlPlasma": null, "urlPlatelets": null}
