{"address1": null, "address2": "RUE GEORGES COUDRAY", "city": "ST MALO", "convocationLabel": "SALLE DES FETES DE LA MAIRIE", "distance": 0.0, "fullAddress": "RUE GEORGES COUDRAY 35400 ST MALO", "giveBlood": 1, "givePlasma": 0, "givePlatelet": 0, "regionCode": "016", "groupCode": "F70291", "latitude": 48.657706, "longitude": -1.982963, "name": "ST MALO PARAME 9H30-13H", "postCode": "35400", "samplingLocationCode": "10", "horaires": null, "infos": null, "metro": null, "bus": null, "tram": null, "parking": null, "debutInfos": null, "finInfos": null, "ville": null, "id": null, "phone": null, "urlBlood": null, "urlPlasma": null, "urlPlatelets": null}
{"address1": null, "address2": "ALLEE DE LA GOELETTE", "city": "ST MALO", "convocationLabel": "SALLE THEOPHILE BRIANT", "distance": 0.0, "fullAddress": "ALLEE DE LA GOELETTE 35400 ST MALO", "giveBlood": 1, "givePlasma": 0, "givePlatelet": 0, "regionCode": "016", "groupCode": "F70291", "latitude": 48.664797, "longitude": -1.981438, "name": "ST MALO PARAME Matin Th\u00e9ophile", "postCode": "35400", "samplingLocationCode": "11", "horaires": null, "infos": null, "metro": null, "bus": null, "tram": null, "parking": null, "debutInfos": null, "finInfos": null, "ville": null, "id": null, "phone": null, "urlBlood": null, "urlPlasma": null, "urlPlatelets": null}
{"address1": null, "address2": "ALLEE DE LA GOELETTE", "city": "ST MALO", "convocationLabel": "SALLE THEOPHILE BRIANT", "distance": 0.0, "fullAddress": "ALLEE DE LA GOELETTE 35400 ST MALO", "giveBlood": 1, "givePlasma": 0, "givePlatelet": 0, "regionCode": "016", "groupCode": "F70291", "latitude": 48.664797, "longitude": -1.981438, "name": "ST MALO PARAME AM Th\u00e9ophile", "postCode": "35400", "samplingLocationCode": "12", "horaires": null, "infos": null, "metro": null, "bus": null, "tram": null, "parking": null, "debutInfos": null, "finInfos": null, "ville": null, "id": null, "phone": null, "urlBlood": null, "urlPlasma": null, "urlPlatelets": null}
{"address1": null, "address2": "7 RUE JULES FERRY", "city": "ST MALO", "convocationLabel": "MAISON DE QUARTIER DE ROCABEY", "distance": 0.0, "fullAddress": "7 RUE JULES FERRY 35400 ST MALO", "giveBlood": 1, "givePlasma": 0, "givePlatelet": 0, "regionCode": "016", "groupCode": "F70291", "latitude": 48.65120697, "longitude": -2.0042634, "name": "ST MALO ROCABEY MAT", "postCode": "35400", "samplingLocationCode": "13", "horaires": null, "infos": null, "metro": null, "bus": null, "tram": null, "parking": null, "debutInfos": null, "finInfos": null, "ville": null, "id": null, "phone": null, "urlBlood": null, "urlPlasma": null, "urlPlatelets": null}
{"address1": null, "address2": "7 RUE JULES FERRY", "city": "ST MALO", "convocationLabel": "MAISON DE QUARTIER DE ROCABEY", "distance": 0.0, "fullAddress": "7 RUE JULES FERRY 35400 ST MALO", "giveBlood": 1, "givePlasma": 0, "givePlatelet": 0, "regionCode": "016", "groupCode": "F70291", "latitude": 48.65120697, "longitude": -2.0042634, "name": "ST MALO ROCABEY AM", "postCode": "35400", "samplingLocationCode": "14", "horaires": null, "infos": null, "metro": null, "bus": null, "tram": null, "parking": null, "debutInfos": null, "finInfos": null, "ville": null, "id": null, "phone": null, "urlBlood": null, "urlPlasma": null, "urlPlatelets": null}
{"address1": null, "address2": "7 RUE JULES FERRY", "city": "ST MALO", "convocationLabel": "MAISON DE QUARTIER DE ROCABEY", "distance": 0.0, "fullAddress": "7 RUE JULES FERRY 35400 ST MALO", "giveBlood": 1, "givePlasma": 0, "givePlatelet": 0, "regionCode": "016", "groupCode": "F70291", "latitude": 48.65120697, "longitude": -2.0042634, "name": "ST MALO PARAME Mat2 ROCABEY", "postCode": "35400", "samplingLocationCode": "15", "horaires": null, "infos": null, "metro": null, "bus": null, "tram": null, "parking": null, "debutInfos": null, "finInfos": null, "ville": null, "id": null, "phone": null, "urlBlood": null, "urlPlasma": null, "urlPlatelets": null}
{"address1": null, "address2": "7 RUE JULES FERRY", "city": "ST MALO", "convocationLabel": "MAISON DE QUARTIER DE ROCABEY", "distance": 0.0, "fullAddress": "7 RUE JULES FERRY 35400 ST MALO", "giveBlood": 1, "givePlasma": 0, "givePlatelet": 0, "regionCode": "016", "groupCode": "F70291", "latitude": 48.65120697, "longitude": -2.0042634, "name": "ST MALO PARAME AM2 ROCABEY", "postCode": "35400", "samplingLocationCode": "16", "horaires": null, "infos": null, "metro": null, "bus": null, "tram": null, "parking": null, "debutInfos": null, "finInfos": null, "ville": null, "id": null, "phone": null, "urlBlood": null, "urlPlasma": null, "urlPlatelets": null}
{"address1": null, "address2": "PLACE GEORGES COUDRAY", "city": "ST MALO", "convocationLabel": "SALLE DES FETES DE LA MAIRIE", "distance": 0.0, "fullAddress": "PLACE GEORGES COUDRAY 35400 ST MALO", "giveBlood": 1, "givePlasma": 0, "givePlatelet": 0, "regionCode": "016", "groupCode": "F70291", "latitude": 48.657706, "longitude": -1.982963, "name": "ST MALO PARAME SAM", "postCode": "35400", "samplingLocationCode": "17", "horaires": null, "infos": null, "metro": null, "bus": null, "tram": null, "parking": null, "debutInfos": null, "finInfos": null, "ville": null, "id": null, "phone": null, "urlBlood": null, "urlPlasma": null, "urlPlatelets": null}
{"address1": null, "address2": "PLACE GEORGES COUDRAY", "city": "ST MALO", "convocationLabel": "SALLE DES FETES DE LA MAIRIE", "distance": 0.0, "fullAddress": "PLACE GEORGES COUDRAY 35400 ST MALO", "giveBlood": 1, "givePlasma": 0, "givePlatelet": 0, "regionCode": "016", "groupCode": "F70291", "latitude": 48.657706, "longitude": -1.982963, "name": "2 ST MALO PARAME-MAIRIE AM ", "postCode": "35400", "samplingLocationCode": "18", "horaires": null, "infos": null, "metro": null, "bus": null, "tram": null, "parking": null, "debutInfos": null, "finInfos": null, "ville": null, "id": null, "phone": null, "urlBlood": null, "urlPlasma": null, "urlPlatelets": null}
{"address1": null, "address2": "PLACE GEORGES COUDRAY", "city": "ST MALO", "convocationLabel": "SALLE DES FETES DE LA MAIRIE", "distance": 0.0, "fullAddress": "PLACE GEORGES COUDRAY 35400 ST MALO", "giveBlood": 1, "givePlasma": 0, "givePlatelet": 0, "regionCode": "016", "groupCode": "F70291", "latitude": 48.65774155, "longitude": -1.98266208, "name": "2 ST MALO PARAME-MAIRIE AM J+", "postCode": "35400", "samplingLocationCode": "19", "horaires": null, "infos": null, "metro": null, "bus": null, "tram": null, "parking": null, "debutInfos": null, "finInfos": null, "ville": null, "id": null, "phone": null, "urlBlood": null, "urlPlasma": null, "urlPlatelets": null}
{"address1": "PARAME", "address2": "RUE GEORGES COUDRAIX", "city": "SAINT MALO", "convocationLabel": "SALLE DES FETES DE LA MAIRIE", "distance": 0.0, "fullAddress": "PARAME RUE GEORGES COUDRAIX 35400 SAINT MALO", "giveBlood": 1, "givePlasma": 0, "givePlatelet": 0, "regionCode": "016", "groupCode": "F70291", "latitude": 48.650227, "longitude": -1.976844, "name": "PARAME ETE", "postCode": "35400", "samplingLocationCode": "2", "horaires": null, "infos": null, "metro": null, "bus": null, "tram": null, "parking": null, "debutInfos": null, "finInfos": null, "ville": null, "id": null, "phone": null, "urlBlood": null, "urlPlasma": null, "urlPlatelets": null}
{"address1": null, "address2": "PLACE GEORGES COUDRAY", "city": "ST MALO", "convocationLabel": "SALLE DES FETES DE LA MAIRIE", "distance": 0.0, "fullAddress": "PLACE GEORGES COUDRAY 35400 ST MALO", "giveBlood": 1, "givePlasma": 0, "givePlatelet": 0, "regionCode": "016", "groupCode": "F70291", "latitude": 48.65774155, "longitude": -1.98266208, "name": "2 ST MALO PARAME-MAIRIE DAM J+", "postCode": "35400", "samplingLocationCode": "20", "horaires": null, "infos": null, "metro": null, "bus": null, "tram": null, "parking": null, "debutInfos": null, "finInfos": null, "ville": null, "id": null, "phone": null, "urlBlood": null, "urlPlasma": null, "urlPlatelets": null}
{"address1": null, "address2": "PLACE GEORGES COUDRAY", "city": "ST MALO", "convocationLabel": "SALLE DES FETES DE LA MAIRIE", "distance": 0.0, "fullAddress": "PLACE GEORGES COUDRAY 35400 ST MALO", "giveBlood": 1, "givePlasma": 0, "givePlatelet": 0, "regionCode": "016", "groupCode": "F70291", "latitude": 48.65774155, "longitude": -1.98266208, "name": "2 ST MALO PARAME-MAIRIE MAT", "postCode": "35400", "samplingLocationCode": "21", "horaires": null, "infos": null, "metro": null, "bus": null, "tram": null, "parking": null, "debutInfos": null, "finInfos": null, "ville": null, "id": null, "phone": null, "urlBlood": null, "urlPlasma": null, "urlPlatelets": null}
{"address1": null, "address2": "7 RUE JULES FERRY", "city": "ST MALO", "convocationLabel": "MAISON DE QUARTIER DE ROCABEY", "distance": 0.0, "fullAddress": "7 RUE JULES FERRY 35400 ST MALO", "giveBlood": 1, "givePlasma": 0, "givePlatelet": 0, "regionCode": "016", "groupCode": "F70291", "latitude": 48.65076, "longitude": -2.004413, "name": "2 ST MALO ROCABEY MAT", "postCode": "35400", "samplingLocationCode": "22", "horaires": null, "infos": null, "metro": null, "bus": null, "tram": null, "parking": null, "debutInfos": null, "finInfos": null, "ville": null, "id": null, "phone": null, "urlBlood": null, "urlPlasma": null, "urlPlatelets": null}
{"address1": null, "address2": "7 RUE JULES FERRY", "city": "ST MALO", "convocationLabel": "MAISON DE QUARTIER DE ROCABEY", "distance": 0.0, "fullAddress": "7 RUE JULES FERRY 35400 ST MALO", "giveBlood": 1, "givePlasma": 0, "givePlatelet": 0, "regionCode": "016", "groupCode": "F70291", "latitude": 48.65076, "longitude": -2.004413, "name": "2 ST MALO ROCABEY AM J+", "postCode": "35400", "samplingLocationCode": "23", "horaires": null, "infos": null, "metro": null, "bus": null, "tram": null, "parking": null, "debutInfos": null, "finInfos": null, "ville": null, "id": null, "phone": null, "urlBlood": null, "urlPlasma": null, "urlPlatelets": null}
{"address1": null, "address2": "7 RUE JULES FERRY", "city": "ST MALO", "convocationLabel": "MAISON DE QUARTIER DE ROCABEY", "distance": 0.0, "fullAddress": "7 RUE JULES FERRY 35400 ST MALO", "giveBlood": 1, "givePlasma": 0, "givePlatelet": 0, "regionCode": "016", "groupCode": "F70291", "latitude": 48.65076, "longitude": -2.004413, "name": "2 ST MALO ROCABEY DAM J+", "postCode": "35400", "samplingLocationCode": "24", "horaires": null, "infos": null, "metro": null, "bus": null, "tram": null, "parking": null, "debutInfos": null, "finInfos": null, "ville": null, "id": null, "phone": null, "urlBlood": null, "urlPlasma": null, "urlPlatelets": null}
{"address1": null, "address2": "PLACE GEORGES COUDRAY", "city": "ST MALO", "convocationLabel": "SALLE DES FETES DE LA MAIRIE", "distance": 0.0, "fullAddress": "PLACE GEORGES COUDRAY 35400 ST MALO", "giveBlood": 1, "givePlasma": 0, "givePlatelet": 0, "regionCode": "016", "groupCode": "F70291", "latitude": 48.657706, "longitude": -1.982963, "name": "2 ST MALO PARAME-MAIRIE MAT J+", "postCode": "35400", "samplingLocationCode": "25", "horaires": null, "infos": null, "metro": null, "bus": null, "tram": null, "parking": null, "debutInfos": null, "finInfos": null, "ville": null, "id": null, "phone": null, "urlBlood": null, "urlPlasma": null, "urlPlatelets": null}
{"address1": null, "address2": "PLACE GEORGES COUDRAY", "city": "ST MALO", "convocationLabel": "SALLE DES FETES DE LA MAIRIE", "distance": 0.0, "fullAddress": "PLACE GEORGES COUDRAY 35400 ST MALO", "giveBlood": 1, "givePlasma": 0, "givePlatelet": 0, "regionCode": "016", "groupCode": "F70291", "latitude": 48.657706, "longitude": -1.982963, "name": "2 ST MALO PARAME-MAIRIE JO", "postCode": "35400", "samplingLocationCode": "26", "horaires": null, "infos": null, "metro": null, "bus": null, "tram": null, "parking": null, "debutInfos": null, "finInfos": null, "ville": null, "id": null, "phone": null, "urlBlood": null, "urlPlasma": null, "urlPlatelets": null}
{"address1": "PARAME", "address2": "RUE DE BONNEVILLE", "city": "ST MALO", "convocationLabel": "MAISON DU PANIER FLEURI", "distance": 0.0, "fullAddress": "PARAME RUE DE BONNEVILLE 35400 ST MALO", "giveBlood": 1, "givePlasma": 0, "givePlatelet": 0, "regionCode": "016", "groupCode": "F70291", "latitude": 48.658865, "longitude": -1.978092, "name": "PARAME ETE", "postCode": "35400", "samplingLocationCode": "3", "horaires": null, "infos": null, "metro": null, "bus": null, "tram": null, "parking": null, "debutInfos": null, "finInfos": null, "ville": null, "id": null, "phone": null, "urlBlood": null, "urlPlasma": null, "urlPlatelets": null}
{"address1": null, "address2": "RUE GEORGES COUDRAY", "city": "ST MALO", "convocationLabel": "SALLE DES FETES DE LA MAIRIE", "distance": 0.0, "fullAddress": "RUE GEORGES COUDRAY 35400 ST MALO", "giveBlood": 1, "givePlasma": 0, "givePlatelet": 0, "regionCode": "016", "groupCode": "F70291", "latitude": 48.657706, "longitude": -1.982963, "name": "PARAME", "postCode": "35400", "samplingLocationCode": "303", "horaires": null, "infos": null, "metro": null, "bus": null, "tram": null, "parking": null, "debutInfos": null, "finInfos": null, "ville": null, "id": null, "phone": null, "urlBlood": null, "urlPlasma": null, "urlPlatelets": null}
{"address1": "PARAME", "address2": "RUE DE BONNEVILLE", "city": "ST MALO", "convocationLabel": "MAISON DU PANIER FLEURI", "distance": 0.0, "fullAddress": "PARAME RUE DE BONNEVILLE 35400 ST MALO", "giveBlood": 1, "givePlasma": 0, "givePlatelet": 0, "regionCode": "016", "groupCode": "F70291", "latitude": 48.658865, "longitude": -1.978092, "name": "PARAME AOUT 1ER J", "postCode": "35400", "samplingLocationCode": "4", "horaires": null, "infos": null, "metro": null, "bus": null, "tram": null, "parking": null, "debutInfos": null, "finInfos": null, "ville": null, "id": null, "phone": null, "urlBlood": null, "urlPlasma": null, "urlPlatelets": null}
{"address1": null, "address2": "PLACE GEORGES COUDRAY", "city": "ST MALO", "convocationLabel": "SALLE DES FETES DE LA MAIRIE", "distance": 0.0, "fullAddress": "PLACE GEORGES COUDRAY 35400 ST MALO", "giveBlood": 1, "givePlasma": 0, "givePlatelet": 0, "regionCode": "016", "groupCode": "F70291", "latitude": 48.657706, "longitude": -1.982963, "name": "ST MALO PARAME MAT", "postCode": "35400", "samplingLocationCode": "5", "horaires": null, "infos": null, "metro": null, "bus": null, "tram": null, "parking": null, "debutInfos": null, "finInfos": null, "ville": null, "id": null, "phone": null, "urlBlood": null, "urlPlasma": null, "urlPlatelets": null}
{"address1": null, "address2": "PLACE GEORGES COUDRAY", "city": "ST MALO", "convocationLabel": "SALLE DES FETES DE LA MAIRIE", "distance": 0.0, "fullAddress": "PLACE GEORGES COUDRAY 35400 ST MALO", "giveBlood": 1, "givePlasma": 0, "givePlatelet": 0, "regionCode": "016", "groupCode": "F70291", "latitude": 48.657706, "longitude": -1.982963, "name": "ST MALO PARAME AM", "postCode": "35400", "samplingLocationCode": "6", "horaires": null, "infos": null, "metro": null, "bus": null, "tram": null, "parking": null, "debutInfos": null, "finInfos": null, "ville": null, "id": null, "phone": null, "urlBlood": null, "urlPlasma": null, "urlPlatelets": null}
{"address1": "PARAME", "address2": "RUE DE BONNEVILLE", "city": "ST MALO", "convocationLabel": "MAISON DU PANIER FLEURI", "distance": 0.0, "fullAddress": "PARAME RUE DE BONNEVILLE 35400 ST MALO", "giveBlood": 1, "givePlasma": 0, "givePlatelet": 0, "regionCode": "016", "groupCode": "F70291", "latitude": 48.658865, "longitude": -1.978092, "name": "PARAME MATIN ETE", "postCode": "35400", "samplingLocationCode": "7", "horaires": null, "infos": null, "metro": null, "bus": null, "tram": null, "parking": null, "debutInfos": null, "finInfos": null, "ville": null, "id": null, "phone": null, "urlBlood": null, "urlPlasma": null, "urlPlatelets": null}
{"address1": "PARAME", "address2": "RUE DE BONNEVILLE", "city": "ST MALO", "convocationLabel": "MAISON DU PANIER FLEURI", "distance": 0.0, "fullAddress": "PARAME RUE DE BONNEVILLE 35400 ST MALO", "giveBlood": 1, "givePlasma": 0, "givePlatelet": 0, "regionCode": "016", "groupCode": "F70291", "latitude": 48.658865, "longitude": -1.978092, "name": "PARAME AMIDI ETE", "postCode": "35400", "samplingLocationCode": "8", "horaires": null, "infos": null, "metro": null, "bus": null, "tram": null, "parking": null, "debutInfos": null, "finInfos": null, "ville": null, "id": null, "phone": null, "urlBlood": null, "urlPlasma": null, "urlPlatelets": null}
{"address1": null, "address2": "RUE GEORGES COUDRAY", "city": "ST MALO", "convocationLabel": "SALLE DES FETES DE LA MAIRIE", "distance": 0.0, "fullAddress": "RUE GEORGES COUDRAY 35400 ST MALO", "giveBlood": 1, "givePlasma": 0, "givePlatelet": 0, "regionCode": "016", "groupCode": "F70291", "latitude": 48.657706, "longitude": -1.982963, "name": "ST MALO PARAME 14H30 19H", "postCode": "35400", "samplingLocationCode": "9", "horaires": null, "infos": null, "metro": null, "bus": null, "tram": null, "parking": null, "debutInfos": null, "finInfos": null, "ville": null, "id": null, "phone": null, "urlBlood": null, "urlPlasma": null, "urlPlatelets": null}
