{"address1": null, "address2": "AVENUE ALPHONSE LEGAULT", "city": "BRUZ", "convocationLabel": "ESPACE VAU GAILLARD", "distance": 0.0, "fullAddress": "AVENUE ALPHONSE LEGAULT 35170 BRUZ", "giveBlood": 1, "givePlasma": 0, "givePlatelet": 0, "regionCode": "016", "groupCode": "F70035", "latitude": 48.0265595209911, "longitude": -1.7450934648513794, "name": "2 BRUZ-GAILLARD AM J+", "postCode": "35170", "samplingLocationCode": "10", "horaires": null, "infos": null, "metro": null, "bus": null, "tram": null, "parking": null, "debutInfos": null, "finInfos": null, "ville": null, "id": null, "phone": null, "urlBlood": null, "urlPlasma": null, "urlPlatelets": null}
{"address1": null, "address2": "AVENUE ALPHONSE LEGAULT", "city": "BRUZ", "convocationLabel": "ESPACE VAU GAILLARD", "distance": 0.0, "fullAddress": "AVENUE ALPHONSE LEGAULT 35170 BRUZ", "giveBlood": 1, "givePlasma": 0, "givePlatelet": 0, "regionCode": "016", "groupCode": "F70035", "latitude": 48.0265595209911, "longitude": -1.7450934648513794, "name": "2 BRUZ-GAILLARD AM (2/3)", "postCode": "35170", "samplingLocationCode": "11", "horaires": null, "infos": null, "metro": null, "bus": null, "tram": null, "parking": null, "debutInfos": null, "finInfos": null, "ville": null, "id": null, "phone": null, "urlBlood": null, "urlPlasma": null, "urlPlatelets": null}
{"address1": null, "address2": "AVENUE ALPHONSE LEGAULT", "city": "BRUZ", "convocationLabel": "ESPACE VAU GAILLARD", "distance": 0.0, "fullAddress": "AVENUE ALPHONSE LEGAULT 35170 BRUZ", "giveBlood": 1, "givePlasma": 0, "givePlatelet": 0, "regionCode": "016", "groupCode": "F70035", "latitude": 48.0265595209911, "longitude": -1.7450934648513794, "name": "2 BRUZ-GAILLARD MAT", "postCode": "35170", "samplingLocationCode": "12", "horaires": null, "infos": null, "metro": null, "bus": null, "tram": null, "parking": null, "debutInfos": null, "finInfos": null, "ville": null, "id": null, "phone": null, "urlBlood": null, "urlPlasma": null, "urlPlatelets": null}
{"address1": null, "address2": "AVENUE ALPHONSE LEGAULT", "city": "BRUZ", "convocationLabel": "ESPACE VAU GAILLARD", "distance": 0.0, "fullAddress": "AVENUE ALPHONSE LEGAULT 35170 BRUZ", "giveBlood": 1, "givePlasma": 0, "givePlatelet": 0, "regionCode": "016", "groupCode": "F70035", "latitude": 48.02652364449921, "longitude": -1.74507200717926, "name": "2 BRUZ-GAILLARD DAM J+", "postCode": "35170", "samplingLocationCode": "13", "horaires": null, "infos": null, "metro": null, "bus": null, "tram": null, "parking": null, "debutInfos": null, "finInfos": null, "ville": null, "id": null, "phone": null, "urlBlood": null, "urlPlasma": null, "urlPlatelets": null}
{"address1": null, "address2": "RUE DES PEUPLIERS", "city": "BRUZ", "convocationLabel": "ESPACE VAU GAILLARD", "distance": 0.0, "fullAddress": "RUE DES PEUPLIERS 35170 BRUZ", "giveBlood": 1, "givePlasma": 0, "givePlatelet": 0, "regionCode": "016", "groupCode": "F70035", "latitude": 48.026506, "longitude": -1.743887, "name": "BRUZ GAILLARD AM J1 J2", "postCode": "35170", "samplingLocationCode": "2", "horaires": null, "infos": null, "metro": null, "bus": null, "tram": null, "parking": null, "debutInfos": null, "finInfos": null, "ville": null, "id": null, "phone": null, "urlBlood": null, "urlPlasma": null, "urlPlatelets": null}
{"address1": null, "address2": "RUE DES PEUPLIERS", "city": "BRUZ", "convocationLabel": "ESPACE VAU GAILLARD", "distance": 0.0, "fullAddress": "RUE DES PEUPLIERS 35170 BRUZ", "giveBlood": 1, "givePlasma": 0, "givePlatelet": 0, "regionCode": "016", "groupCode": "F70035", "latitude": 48.02749634, "longitude": -1.74169314, "name": "BRUZ GAILLARD MAT", "postCode": "35170", "samplingLocationCode": "3", "horaires": null, "infos": null, "metro": null, "bus": null, "tram": null, "parking": null, "debutInfos": null, "finInfos": null, "ville": null, "id": null, "phone": null, "urlBlood": null, "urlPlasma": null, "urlPlatelets": null}
{"address1": null, "address2": "RUE DES PEUPLIERS", "city": "BRUZ", "convocationLabel": "ESPACE VAU GAILLARD", "distance": 0.0, "fullAddress": "RUE DES PEUPLIERS 35170 BRUZ", "giveBlood": 1, "givePlasma": 0, "givePlatelet": 0, "regionCode": "016", "groupCode": "F70035", "latitude": 48.02749634, "longitude": -1.74169314, "name": "BRUZ GAILLARD AM", "postCode": "35170", "samplingLocationCode": "4", "horaires": null, "infos": null, "metro": null, "bus": null, "tram": null, "parking": null, "debutInfos": null, "finInfos": null, "ville": null, "id": null, "phone": null, "urlBlood": null, "urlPlasma": null, "urlPlatelets": null}
{"address1": null, "address2": "ALLEE DU  VAU GAILLARD", "city": "BRUZ", "convocationLabel": "ESPACE VAU GAILLARD", "distance": 0.0, "fullAddress": "ALLEE DU  VAU GAILLARD 35170 BRUZ", "giveBlood": 1, "givePlasma": 0, "givePlatelet": 0, "regionCode": "016", "groupCode": "F70035", "latitude": 48.026386, "longitude": -1.741314, "name": "BRUZ", "postCode": "35170", "samplingLocationCode": "48", "horaires": null, "infos": null, "metro": null, "bus": null, "tram": null, "parking": null, "debutInfos": null, "finInfos": null, "ville": null, "id": null, "phone": null, "urlBlood": null, "urlPlasma": null, "urlPlatelets": null}
{"address1": null, "address2": "RUE DES PEUPLIERS", "city": "BRUZ", "convocationLabel": "ESPACE VAU GAILLARD", "distance": 0.0, "fullAddress": "RUE DES PEUPLIERS 35170 BRUZ", "giveBlood": 1, "givePlasma": 0, "givePlatelet": 0, "regionCode": "016", "groupCode": "F70035", "latitude": 48.026506, "longitude": -1.743887, "name": "BRUZ GAILLARD MAT J1 J2", "postCode": "35170", "samplingLocationCode": "5", "horaires": null, "infos": null, "metro": null, "bus": null, "tram": null, "parking": null, "debutInfos": null, "finInfos": null, "ville": null, "id": null, "phone": null, "urlBlood": null, "urlPlasma": null, "urlPlatelets": null}
{"address1": null, "address2": "9 PLACE MARCEL PAGNOL", "city": "BRUZ", "convocationLabel": "HALLE PAGNOL", "distance": 0.0, "fullAddress": "9 PLACE MARCEL PAGNOL 35170 BRUZ", "giveBlood": 1, "givePlasma": 0, "givePlatelet": 0, "regionCode": "016", "groupCode": "F70035", "latitude": 48.024575, "longitude": -1.745197, "name": "BRUZ PAGNOL MAT J1J2", "postCode": "35170", "samplingLocationCode": "6", "horaires": null, "infos": null, "metro": null, "bus": null, "tram": null, "parking": null, "debutInfos": null, "finInfos": null, "ville": null, "id": null, "phone": null, "urlBlood": null, "urlPlasma": null, "urlPlatelets": null}
{"address1": null, "address2": "9 PLACE MARCEL PAGNOL", "city": "BRUZ", "convocationLabel": "HALLE PAGNOL", "distance": 0.0, "fullAddress": "9 PLACE MARCEL PAGNOL 35170 BRUZ", "giveBlood": 1, "givePlasma": 0, "givePlatelet": 0, "regionCode": "016", "groupCode": "F70035", "latitude": 48.024575, "longitude": -1.745197, "name": "BRUZ PAGNOL AM J1J2", "postCode": "35170", "samplingLocationCode": "7", "horaires": null, "infos": null, "metro": null, "bus": null, "tram": null, "parking": null, "debutInfos": null, "finInfos": null, "ville": null, "id": null, "phone": null, "urlBlood": null, "urlPlasma": null, "urlPlatelets": null}
{"address1": null, "address2": "AVENUE ALPHONSE LEGAULT", "city": "BRUZ", "convocationLabel": "ESPACE VAU GAILLARD", "distance": 0.0, "fullAddress": "AVENUE ALPHONSE LEGAULT 35170 BRUZ", "giveBlood": 1, "givePlasma": 0, "givePlatelet": 0, "regionCode": "016", "groupCode": "F70035", "latitude": 48.02647593993771, "longitude": -1.74507200717926, "name": "2 BRUZ-GAILLARD AM ", "postCode": "35170", "samplingLocationCode": "8", "horaires": null, "infos": null, "metro": null, "bus": null, "tram": null, "parking": null, "debutInfos": null, "finInfos": null, "ville": null, "id": null, "phone": null, "urlBlood": null, "urlPlasma": null, "urlPlatelets": null}
{"address1": null, "address2": "AVENUE ALPHONSE LEGAULT", "city": "BRUZ", "convocationLabel": "ESPACE VAU GAILLARD", "distance": 0.0, "fullAddress": "AVENUE ALPHONSE LEGAULT 35170 BRUZ", "giveBlood": 1, "givePlasma": 0, "givePlatelet": 0, "regionCode": "016", "groupCode": "F70035", "latitude": 48.026560007720946, "longitude": -1.744913803043492, "name": "2 BRUZ-GAILLARD AM J+ (2/3)", "postCode": "35170", "samplingLocationCode": "9", "horaires": null, "infos": null, "metro": null, "bus": null, "tram": null, "parking": null, "debutInfos": null, "finInfos": null, "ville": null, "id": null, "phone": null, "urlBlood": null, "urlPlasma": null, "urlPlatelets": null}
