{"address1": null, "address2": "10 RUE DE VERN", "city": "NOYAL CHATILLON SUR SEICHE", "convocationLabel": "SALLE LOUIS TEXIER", "distance": 0.0, "fullAddress": "10 RUE DE VERN 35230 NOYAL CHATILLON SUR SEICHE", "giveBlood": 1, "givePlasma": 0, "givePlatelet": 0, "regionCode": "016", "groupCode": "F70054", "latitude": 48.043766, "longitude": -1.66108, "name": "NOYAL-CHATILLON/ SEICHE SA", "postCode": "35230", "samplingLocationCode": "2", "horaires": null, "infos": null, "metro": null, "bus": null, "tram": null, "parking": null, "debutInfos": null, "finInfos": null, "ville": null, "id": null, "phone": null, "urlBlood": null, "urlPlasma": null, "urlPlatelets": null}
{"address1": null, "address2": null, "city": "NOYAL CHATILLON SUR SEICHE", "convocationLabel": "SALLE POLYVALENTE", "distance": 0.0, "fullAddress": "35230 NOYAL CHATILLON SUR SEICHE", "giveBlood": 1, "givePlasma": 0, "givePlatelet": 0, "regionCode": "016", "groupCode": "F70054", "latitude": 48.055643, "longitude": -1.659994, "name": "NOYAL CHATILLON SUR SEICHE MAT", "postCode": "35230", "samplingLocationCode": "3", "horaires": null, "infos": null, "metro": null, "bus": null, "tram": null, "parking": null, "debutInfos": null, "finInfos": null, "ville": null, "id": null, "phone": null, "urlBlood": null, "urlPlasma": null, "urlPlatelets": null}
{"address1": "10 RUE DE VERN", "address2": "NOYAL CHATILLON SUR SEICHE", "city": null, "convocationLabel": "SALLE POLYVALENTE", "distance": 0.0, "fullAddress": "10 RUE DE VERN NOYAL CHATILLON SUR SEICHE 35230", "giveBlood": 1, "givePlasma": 0, "givePlatelet": 0, "regionCode": "016", "groupCode": "F70054", "latitude": 48.043766, "longitude": -1.66108, "name": "NOYAL CHATILLON/SEICHE sa am", "postCode": "35230", "samplingLocationCode": "4", "horaires": null, "infos": null, "metro": null, "bus": null, "tram": null, "parking": null, "debutInfos": null, "finInfos": null, "ville": null, "id": null, "phone": null, "urlBlood": null, "urlPlasma": null, "urlPlatelets": null}
{"address1": null, "address2": "10 RUE DE VERN", "city": "NOYAL CHATILLON SUR SEICHE", "convocationLabel": "SALLE LOUIS TEXIER", "distance": 0.0, "fullAddress": "10 RUE DE VERN 35230 NOYAL CHATILLON SUR SEICHE", "giveBlood": 1, "givePlasma": 0, "givePlatelet": 0, "regionCode": "016", "groupCode": "F70054", "latitude": 48.043766, "longitude": -1.66108, "name": "2 NOYAL CHATILLON-TEXIER MAT", "postCode": "35230", "samplingLocationCode": "5", "horaires": null, "infos": null, "metro": null, "bus": null, "tram": null, "parking": null, "debutInfos": null, "finInfos": null, "ville": null, "id": null, "phone": null, "urlBlood": null, "urlPlasma": null, "urlPlatelets": null}
{"address1": null, "address2": "10 RUE DE VERN", "city": "NOYAL CHATILLON SUR SEICHE", "convocationLabel": "SALLE LOUIS TEXIER", "distance": 0.0, "fullAddress": "10 RUE DE VERN 35230 NOYAL CHATILLON SUR SEICHE", "giveBlood": 1, "givePlasma": 0, "givePlatelet": 0, "regionCode": "016", "groupCode": "F70054", "latitude": 48.043766, "longitude": -1.66108, "name": "2 NOYAL CHATILLON-TEXIER AM ", "postCode": "35230", "samplingLocationCode": "6", "horaires": null, "infos": null, "metro": null, "bus": null, "tram": null, "parking": null, "debutInfos": null, "finInfos": null, "ville": null, "id": null, "phone": null, "urlBlood": null, "urlPlasma": null, "urlPlatelets": null}
{"address1": null, "address2": "10 RUE DE VERN", "city": "NOYAL CHATILLON SUR SEICHE", "convocationLabel": "SALLE LOUIS TEXIER", "distance": 0.0, "fullAddress": "10 RUE DE VERN 35230 NOYAL CHATILLON SUR SEICHE", "giveBlood": 1, "givePlasma": 0, "givePlatelet": 0, "regionCode": "016", "groupCode": "F70054", "latitude": 48.04390335, "longitude": -1.66165745, "name": "NOYAL CHATILLON/SEICHE SEM", "postCode": "35230", "samplingLocationCode": "67", "horaires": null, "infos": null, "metro": null, "bus": null, "tram": null, "parking": null, "debutInfos": null, "finInfos": null, "ville": null, "id": null, "phone": null, "urlBlood": null, "urlPlasma": null, "urlPlatelets": null}
{"address1": null, "address2": "10 RUE DE VERN", "city": "NOYAL CHATILLON SUR SEICHE", "convocationLabel": "SALLE LOUIS TEXIER", "distance": 0.0, "fullAddress": "10 RUE DE VERN 35230 NOYAL CHATILLON SUR SEICHE", "giveBlood": 1, "givePlasma": 0, "givePlatelet": 0, "regionCode": "016", "groupCode": "F70054", "latitude": 48.043766, "longitude": -1.66108, "name": "2 NOYAL CHATILLON-TEXIER DAM ", "postCode": "35230", "samplingLocationCode": "7", "horaires": null, "infos": null, "metro": null, "bus": null, "tram": null, "parking": null, "debutInfos": null, "finInfos": null, "ville": null, "id": null, "phone": null, "urlBlood": null, "urlPlasma": null, "urlPlatelets": null}
{"address1": null, "address2": "10 RUE DE VERN", "city": "NOYAL CHATILLON SUR SEICHE", "convocationLabel": "SALLE LOUIS TEXIER", "distance": 0.0, "fullAddress": "10 RUE DE VERN 35230 NOYAL CHATILLON SUR SEICHE", "giveBlood": 1, "givePlasma": 0, "givePlatelet": 0, "regionCode": "016", "groupCode": "F70054", "latitude": 48.04410553, "longitude": -1.66043472, "name": "2 NOYAL CHATILLON-TEXIER VE AM", "postCode": "35230", "samplingLocationCode": "8", "horaires": null, "infos": null, "metro": null, "bus": null, "tram": null, "parking": null, "debutInfos": null, "finInfos": null, "ville": null, "id": null, "phone": null, "urlBlood": null, "urlPlasma": null, "urlPlatelets": null}
