{"address1": "ST SERVAN", "address2": "PLACE BOUVET", "city": "ST MALO", "convocationLabel": "ESPACE BOUVET", "distance": 0.0, "fullAddress": "ST SERVAN PLACE BOUVET 35400 ST MALO", "giveBlood": 1, "givePlasma": 0, "givePlatelet": 0, "regionCode": "016", "groupCode": "F70292", "latitude": 48.637314, "longitude": -2.016841, "name": "ST SERVAN ETE AM", "postCode": "35400", "samplingLocationCode": "10", "horaires": null, "infos": null, "metro": null, "bus": null, "tram": null, "parking": null, "debutInfos": null, "finInfos": null, "ville": null, "id": null, "phone": null, "urlBlood": null, "urlPlasma": null, "urlPlatelets": null}
{"address1": "ST SERVAN", "address2": "PLACE BOUVET", "city": "ST MALO", "convocationLabel": "ESPACE BOUVET", "distance": 0.0, "fullAddress": "ST SERVAN PLACE BOUVET 35400 ST MALO", "giveBlood": 1, "givePlasma": 0, "givePlatelet": 0, "regionCode": "016", "groupCode": "F70292", "latitude": 48.637314, "longitude": -2.016841, "name": "ST SERVAN ETE MATIN", "postCode": "35400", "samplingLocationCode": "11", "horaires": null, "infos": null, "metro": null, "bus": null, "tram": null, "parking": null, "debutInfos": null, "finInfos": null, "ville": null, "id": null, "phone": null, "urlBlood": null, "urlPlasma": null, "urlPlatelets": null}
{"address1": "ST SERVAN", "address2": "PLACE BOUVET", "city": "ST MALO", "convocationLabel": "THEATRE PLACE BOUVET", "distance": 0.0, "fullAddress": "ST SERVAN PLACE BOUVET 35400 ST MALO", "giveBlood": 1, "givePlasma": 0, "givePlatelet": 0, "regionCode": "016", "groupCode": "F70292", "latitude": 48.637314, "longitude": -2.016841, "name": "ST SERVAN ETE", "postCode": "35400", "samplingLocationCode": "2", "horaires": null, "infos": null, "metro": null, "bus": null, "tram": null, "parking": null, "debutInfos": null, "finInfos": null, "ville": null, "id": null, "phone": null, "urlBlood": null, "urlPlasma": null, "urlPlatelets": null}
{"address1": null, "address2": "ST SERVAN", "city": "ST MALO", "convocationLabel": "BILAN MOELLE", "distance": 0.0, "fullAddress": "ST SERVAN 35400 ST MALO", "giveBlood": 1, "givePlasma": 0, "givePlatelet": 0, "regionCode": "016", "groupCode": "F70292", "latitude": 48.649733, "longitude": -2.005329, "name": "BILAN MOELLE ST SERVAN", "postCode": "35400", "samplingLocationCode": "3", "horaires": null, "infos": null, "metro": null, "bus": null, "tram": null, "parking": null, "debutInfos": null, "finInfos": null, "ville": null, "id": null, "phone": null, "urlBlood": null, "urlPlasma": null, "urlPlatelets": null}
{"address1": null, "address2": "PLACE BOUVET", "city": "ST MALO", "convocationLabel": "THEATRE-PLACE BOUVET", "distance": 0.0, "fullAddress": "PLACE BOUVET 35400 ST MALO", "giveBlood": 1, "givePlasma": 0, "givePlatelet": 0, "regionCode": "016", "groupCode": "F70292", "latitude": 48.637314, "longitude": -2.016841, "name": "ST SERVAN SAM amidi", "postCode": "35400", "samplingLocationCode": "304", "horaires": null, "infos": null, "metro": null, "bus": null, "tram": null, "parking": null, "debutInfos": null, "finInfos": null, "ville": null, "id": null, "phone": null, "urlBlood": null, "urlPlasma": null, "urlPlatelets": null}
{"address1": "ST SERVAN", "address2": "PLACE BOUVET", "city": "ST MALO", "convocationLabel": "ESPACE BOUVET", "distance": 0.0, "fullAddress": "ST SERVAN PLACE BOUVET 35400 ST MALO", "giveBlood": 1, "givePlasma": 0, "givePlatelet": 0, "regionCode": "016", "groupCode": "F70292", "latitude": 48.637314, "longitude": -2.016841, "name": "ST SERVAN  1ER J", "postCode": "35400", "samplingLocationCode": "4", "horaires": null, "infos": null, "metro": null, "bus": null, "tram": null, "parking": null, "debutInfos": null, "finInfos": null, "ville": null, "id": null, "phone": null, "urlBlood": null, "urlPlasma": null, "urlPlatelets": null}
{"address1": null, "address2": "PLACE BOUVET", "city": "ST MALO", "convocationLabel": "ESPACE BOUVET", "distance": 0.0, "fullAddress": "PLACE BOUVET 35400 ST MALO", "giveBlood": 1, "givePlasma": 0, "givePlatelet": 0, "regionCode": "016", "groupCode": "F70292", "latitude": 48.63746262, "longitude": -2.01691532, "name": "ST SERVAN SEM matin", "postCode": "35400", "samplingLocationCode": "5", "horaires": null, "infos": null, "metro": null, "bus": null, "tram": null, "parking": null, "debutInfos": null, "finInfos": null, "ville": null, "id": null, "phone": null, "urlBlood": null, "urlPlasma": null, "urlPlatelets": null}
{"address1": null, "address2": "PLACE BOUVET", "city": "ST MALO", "convocationLabel": "ESPACE BOUVET", "distance": 0.0, "fullAddress": "PLACE BOUVET 35400 ST MALO", "giveBlood": 1, "givePlasma": 0, "givePlatelet": 0, "regionCode": "016", "groupCode": "F70292", "latitude": 48.63746262, "longitude": -2.01691532, "name": "ST SERVAN SEM amidi", "postCode": "35400", "samplingLocationCode": "6", "horaires": null, "infos": null, "metro": null, "bus": null, "tram": null, "parking": null, "debutInfos": null, "finInfos": null, "ville": null, "id": null, "phone": null, "urlBlood": null, "urlPlasma": null, "urlPlatelets": null}
{"address1": "SAINT SERVAN", "address2": "PLACE BOUVET", "city": "ST MALO", "convocationLabel": "ESPACE BOUVET", "distance": 0.0, "fullAddress": "SAINT SERVAN PLACE BOUVET 35400 ST MALO", "giveBlood": 1, "givePlasma": 0, "givePlatelet": 0, "regionCode": "016", "groupCode": "F70292", "latitude": 48.637314, "longitude": -2.016841, "name": "ST SERVAN SAM", "postCode": "35400", "samplingLocationCode": "7", "horaires": null, "infos": null, "metro": null, "bus": null, "tram": null, "parking": null, "debutInfos": null, "finInfos": null, "ville": null, "id": null, "phone": null, "urlBlood": null, "urlPlasma": null, "urlPlatelets": null}
{"address1": "ST SERVAN", "address2": "7 RUE JULES FERRY", "city": "ST MALO", "convocationLabel": "MAISON DE QUARTIER DE ROCABEY", "distance": 0.0, "fullAddress": "ST SERVAN 7 RUE JULES FERRY 35400 ST MALO", "giveBlood": 1, "givePlasma": 0, "givePlatelet": 0, "regionCode": "016", "groupCode": "F70292", "latitude": 48.65076, "longitude": -2.004413, "name": "ST SERVAN Mat Roc", "postCode": "35400", "samplingLocationCode": "8", "horaires": null, "infos": null, "metro": null, "bus": null, "tram": null, "parking": null, "debutInfos": null, "finInfos": null, "ville": null, "id": null, "phone": null, "urlBlood": null, "urlPlasma": null, "urlPlatelets": null}
{"address1": "ST SERVAN", "address2": "7 RUE JULES FERRY", "city": "ST MALO", "convocationLabel": "MAISON DE QUARTIER DE ROCABEY", "distance": 0.0, "fullAddress": "ST SERVAN 7 RUE JULES FERRY 35400 ST MALO", "giveBlood": 1, "givePlasma": 0, "givePlatelet": 0, "regionCode": "016", "groupCode": "F70292", "latitude": 48.65076, "longitude": -2.004413, "name": "ST SERVAN AM ROC", "postCode": "35400", "samplingLocationCode": "9", "horaires": null, "infos": null, "metro": null, "bus": null, "tram": null, "parking": null, "debutInfos": null, "finInfos": null, "ville": null, "id": null, "phone": null, "urlBlood": null, "urlPlasma": null, "urlPlatelets": null}
