{"address1": "BIBLIOTHEQUE LA PEROUSE", "address2": "15 RUE DUMONT D URVILLE", "city": "PLOUZANE", "convocationLabel": "IFREMER", "distance": 0.0, "fullAddress": "BIBLIOTHEQUE LA PEROUSE 15 RUE DUMONT D URVILLE 29280 PLOUZANE", "giveBlood": 1, "givePlasma": 0, "givePlatelet": 0, "regionCode": "016", "groupCode": "F50098", "latitude": 48.359368, "longitude": -4.563014, "name": "BIBLIOTHEQUE LA PEROUSE 1J", "postCode": "29280", "samplingLocationCode": "3", "horaires": null, "infos": null, "metro": null, "bus": null, "tram": null, "parking": null, "debutInfos": null, "finInfos": null, "ville": null, "id": null, "phone": null, "urlBlood": null, "urlPlasma": null, "urlPlatelets": null}
{"address1": "BIBLIOTHEQUE LA PEROUSE", "address2": "15 RUE DUMONT D URVILLE", "city": "PLOUZANE", "convocationLabel": "IFREMER", "distance": 0.0, "fullAddress": "BIBLIOTHEQUE LA PEROUSE 15 RUE DUMONT D URVILLE 29280 PLOUZANE", "giveBlood": 1, "givePlasma": 0, "givePlatelet": 0, "regionCode": "016", "groupCode": "F50098", "latitude": 48.359368, "longitude": -4.563014, "name": "BIBLIOTHEQUE LA PEROUSE J1", "postCode": "29280", "samplingLocationCode": "4", "horaires": null, "infos": null, "metro": null, "bus": null, "tram": null, "parking": null, "debutInfos": null, "finInfos": null, "ville": null, "id": null, "phone": null, "urlBlood": null, "urlPlasma": null, "urlPlatelets": null}
{"address1": "BIBLIOTHEQUE LA PEROUSE", "address2": "15 RUE DUMONT D URVILLE", "city": "PLOUZANE", "convocationLabel": "IFREMER", "distance": 0.0, "fullAddress": "BIBLIOTHEQUE LA PEROUSE 15 RUE DUMONT D URVILLE 29280 PLOUZANE", "giveBlood": 1, "givePlasma": 0, "givePlatelet": 0, "regionCode": "016", "groupCode": "F50098", "latitude": 48.359368, "longitude": -4.563014, "name": "BIBLIOTHEQUE LA PEROUSE J2", "postCode": "29280", "samplingLocationCode": "5", "horaires": null, "infos": null, "metro": null, "bus": null, "tram": null, "parking": null, "debutInfos": null, "finInfos": null, "ville": null, "id": null, "phone": null, "urlBlood": null, "urlPlasma": null, "urlPlatelets": null}
{"address1": "IFREMER", "address2": "POINTE DU DIABLE", "city": "PLOUZANE", "convocationLabel": "HALL DU BATIMENT DE DIRECTION", "distance": 0.0, "fullAddress": "IFREMER POINTE DU DIABLE 29280 PLOUZANE", "giveBlood": 1, "givePlasma": 0, "givePlatelet": 0, "regionCode": "016", "groupCode": "F50098", "latitude": 48.371873, "longitude": -4.590113, "name": "IFREMER", "postCode": "29280", "samplingLocationCode": "684", "horaires": null, "infos": null, "metro": null, "bus": null, "tram": null, "parking": null, "debutInfos": null, "finInfos": null, "ville": null, "id": null, "phone": null, "urlBlood": null, "urlPlasma": null, "urlPlatelets": null}
{"address1": "IFREMER", "address2": "POINTE DU DIABLE", "city": "PLOUZANE", "convocationLabel": null, "distance": 0.0, "fullAddress": "IFREMER POINTE DU DIABLE 29280 PLOUZANE", "giveBlood": 1, "givePlasma": 0, "givePlatelet": 0, "regionCode": "016", "groupCode": "F50098", "latitude": 48.371873, "longitude": -4.590113, "name": "IFREMER DEC", "postCode": "29280", "samplingLocationCode": "826", "horaires": null, "infos": null, "metro": null, "bus": null, "tram": null, "parking": null, "debutInfos": null, "finInfos": null, "ville": null, "id": null, "phone": null, "urlBlood": null, "urlPlasma": null, "urlPlatelets": null}
