{"address1": null, "address2": "9 RUE DES FRERES DEVERIA", "city": "FOUGERES", "convocationLabel": "LES ATELIERS", "distance": 0.0, "fullAddress": "9 RUE DES FRERES DEVERIA 35300 FOUGERES", "giveBlood": 1, "givePlasma": 0, "givePlatelet": 0, "regionCode": "016", "groupCode": "F70086", "latitude": 48.3483696, "longitude": -1.19010961, "name": "FOUGERES ATELIERS AM RDV", "postCode": "35300", "samplingLocationCode": "10", "horaires": null, "infos": null, "metro": null, "bus": null, "tram": null, "parking": null, "debutInfos": null, "finInfos": null, "ville": null, "id": null, "phone": null, "urlBlood": null, "urlPlasma": null, "urlPlatelets": null}
{"address1": null, "address2": "RUE DU GUE MAHEU", "city": "FOUGERES", "convocationLabel": "GYMNASE COSEC DE LA CHATIERE", "distance": 0.0, "fullAddress": "RUE DU GUE MAHEU 35300 FOUGERES", "giveBlood": 1, "givePlasma": 0, "givePlatelet": 0, "regionCode": "016", "groupCode": "F70086", "latitude": 48.34381, "longitude": -1.194656, "name": "FOUGERES COSEC MAT", "postCode": "35300", "samplingLocationCode": "11", "horaires": null, "infos": null, "metro": null, "bus": null, "tram": null, "parking": null, "debutInfos": null, "finInfos": null, "ville": null, "id": null, "phone": null, "urlBlood": null, "urlPlasma": null, "urlPlatelets": null}
{"address1": null, "address2": "RUE DU GUE MAHEU", "city": "FOUGERES", "convocationLabel": "GYMNASE COSEC DE LA CHATIERE", "distance": 0.0, "fullAddress": "RUE DU GUE MAHEU 35300 FOUGERES", "giveBlood": 1, "givePlasma": 0, "givePlatelet": 0, "regionCode": "016", "groupCode": "F70086", "latitude": 48.34381, "longitude": -1.194656, "name": "FOUGERES COSEC AM", "postCode": "35300", "samplingLocationCode": "12", "horaires": null, "infos": null, "metro": null, "bus": null, "tram": null, "parking": null, "debutInfos": null, "finInfos": null, "ville": null, "id": null, "phone": null, "urlBlood": null, "urlPlasma": null, "urlPlatelets": null}
{"address1": null, "address2": "RUE DU GUE MAHEU", "city": "FOUGERES", "convocationLabel": "GYMNASE COSEC DE LA CHATIERE", "distance": 0.0, "fullAddress": "RUE DU GUE MAHEU 35300 FOUGERES", "giveBlood": 1, "givePlasma": 0, "givePlatelet": 0, "regionCode": "016", "groupCode": "F70086", "latitude": 48.34381, "longitude": -1.194656, "name": "FOUGERES COSEC SA", "postCode": "35300", "samplingLocationCode": "13", "horaires": null, "infos": null, "metro": null, "bus": null, "tram": null, "parking": null, "debutInfos": null, "finInfos": null, "ville": null, "id": null, "phone": null, "urlBlood": null, "urlPlasma": null, "urlPlatelets": null}
{"address1": null, "address2": "RUE DE VIRE", "city": "FOUGERES", "convocationLabel": "GYMNASE DES COTTERETS", "distance": 0.0, "fullAddress": "RUE DE VIRE 35300 FOUGERES", "giveBlood": 1, "givePlasma": 0, "givePlatelet": 0, "regionCode": "016", "groupCode": "F70086", "latitude": 48.367808, "longitude": -1.182749, "name": "FOUGERES COTTERETS MAT", "postCode": "35300", "samplingLocationCode": "14", "horaires": null, "infos": null, "metro": null, "bus": null, "tram": null, "parking": null, "debutInfos": null, "finInfos": null, "ville": null, "id": null, "phone": null, "urlBlood": null, "urlPlasma": null, "urlPlatelets": null}
{"address1": null, "address2": "ZA DE L'AUMAILLERIE", "city": "FOUGERES", "convocationLabel": "ESPACE AUMAILLERIE", "distance": 0.0, "fullAddress": "ZA DE L'AUMAILLERIE 35300 FOUGERES", "giveBlood": 1, "givePlasma": 0, "givePlatelet": 0, "regionCode": "016", "groupCode": "F70086", "latitude": 48.33714294, "longitude": -1.17375672, "name": "2 FOUGERES-AUMAILLERIE AM J1", "postCode": "35300", "samplingLocationCode": "16", "horaires": null, "infos": null, "metro": null, "bus": null, "tram": null, "parking": null, "debutInfos": null, "finInfos": null, "ville": null, "id": null, "phone": null, "urlBlood": null, "urlPlasma": null, "urlPlatelets": null}
{"address1": null, "address2": "ZA DE L'AUMAILLERIE", "city": "FOUGERES", "convocationLabel": "ESPACE AUMAILLERIE", "distance": 0.0, "fullAddress": "ZA DE L'AUMAILLERIE 35300 FOUGERES", "giveBlood": 1, "givePlasma": 0, "givePlatelet": 0, "regionCode": "016", "groupCode": "F70086", "latitude": 48.33714294, "longitude": -1.17354214, "name": "2 FOUGERES-AUMAILLERIE JO", "postCode": "35300", "samplingLocationCode": "17", "horaires": null, "infos": null, "metro": null, "bus": null, "tram": null, "parking": null, "debutInfos": null, "finInfos": null, "ville": null, "id": null, "phone": null, "urlBlood": null, "urlPlasma": null, "urlPlatelets": null}
{"address1": null, "address2": "ZA DE L'AUMAILLERIE", "city": "FOUGERES", "convocationLabel": "ESPACE AUMAILLERIE", "distance": 0.0, "fullAddress": "ZA DE L'AUMAILLERIE 35300 FOUGERES", "giveBlood": 1, "givePlasma": 0, "givePlatelet": 0, "regionCode": "016", "groupCode": "F70086", "latitude": 48.33714294, "longitude": -1.17375672, "name": "2 FOUGERES-AUMAILLERIE AM J2", "postCode": "35300", "samplingLocationCode": "18", "horaires": null, "infos": null, "metro": null, "bus": null, "tram": null, "parking": null, "debutInfos": null, "finInfos": null, "ville": null, "id": null, "phone": null, "urlBlood": null, "urlPlasma": null, "urlPlatelets": null}
{"address1": null, "address2": "25 RUE DE LA CASERNE", "city": "FOUGERES", "convocationLabel": "COUVENT DES URBANISTES", "distance": 0.0, "fullAddress": "25 RUE DE LA CASERNE 35300 FOUGERES", "giveBlood": 1, "givePlasma": 0, "givePlatelet": 0, "regionCode": "016", "groupCode": "F70086", "latitude": 48.357408, "longitude": -1.198843, "name": "2 FOUGERES AM COUVENT", "postCode": "35300", "samplingLocationCode": "19", "horaires": null, "infos": null, "metro": null, "bus": null, "tram": null, "parking": null, "debutInfos": null, "finInfos": null, "ville": null, "id": null, "phone": null, "urlBlood": null, "urlPlasma": null, "urlPlatelets": null}
{"address1": null, "address2": "9 RUE DES FRERES DEVERIA", "city": "FOUGERES", "convocationLabel": "LES ATELIERS 9 RUE DES FRERES DEVERIA", "distance": 0.0, "fullAddress": "9 RUE DES FRERES DEVERIA 35300 FOUGERES", "giveBlood": 1, "givePlasma": 0, "givePlatelet": 0, "regionCode": "016", "groupCode": "F70086", "latitude": 48.347795, "longitude": -1.190266, "name": "FOUGERES 3\u00e8me jour", "postCode": "35300", "samplingLocationCode": "2", "horaires": null, "infos": null, "metro": null, "bus": null, "tram": null, "parking": null, "debutInfos": null, "finInfos": null, "ville": null, "id": null, "phone": null, "urlBlood": null, "urlPlasma": null, "urlPlatelets": null}
{"address1": null, "address2": "25 RUE DE LA CASERNE", "city": "FOUGERES", "convocationLabel": "COUVENT DES URBANISTES", "distance": 0.0, "fullAddress": "25 RUE DE LA CASERNE 35300 FOUGERES", "giveBlood": 1, "givePlasma": 0, "givePlatelet": 0, "regionCode": "016", "groupCode": "F70086", "latitude": 48.357408, "longitude": -1.198843, "name": "2 FOUGERES AM J+ COUVENT", "postCode": "35300", "samplingLocationCode": "20", "horaires": null, "infos": null, "metro": null, "bus": null, "tram": null, "parking": null, "debutInfos": null, "finInfos": null, "ville": null, "id": null, "phone": null, "urlBlood": null, "urlPlasma": null, "urlPlatelets": null}
{"address1": null, "address2": "ZA DE L'AUMAILLERIE", "city": "FOUGERES", "convocationLabel": "ESPACE AUMAILLERIE", "distance": 0.0, "fullAddress": "ZA DE L'AUMAILLERIE 35300 FOUGERES", "giveBlood": 1, "givePlasma": 0, "givePlatelet": 0, "regionCode": "016", "groupCode": "F70086", "latitude": 48.33714294, "longitude": -1.17375672, "name": "2 FOUGERES-AUMAILLERIE DAM J3", "postCode": "35300", "samplingLocationCode": "21", "horaires": null, "infos": null, "metro": null, "bus": null, "tram": null, "parking": null, "debutInfos": null, "finInfos": null, "ville": null, "id": null, "phone": null, "urlBlood": null, "urlPlasma": null, "urlPlatelets": null}
{"address1": null, "address2": "ZA DE L'AUMAILLERIE", "city": "FOUGERES", "convocationLabel": "ESPACE AUMAILLERIE", "distance": 0.0, "fullAddress": "ZA DE L'AUMAILLERIE 35300 FOUGERES", "giveBlood": 1, "givePlasma": 0, "givePlatelet": 0, "regionCode": "016", "groupCode": "F70086", "latitude": 48.33714294, "longitude": -1.17375672, "name": "2 FOUGERES-AUMAILLERIE MAT J4", "postCode": "35300", "samplingLocationCode": "22", "horaires": null, "infos": null, "metro": null, "bus": null, "tram": null, "parking": null, "debutInfos": null, "finInfos": null, "ville": null, "id": null, "phone": null, "urlBlood": null, "urlPlasma": null, "urlPlatelets": null}
{"address1": null, "address2": "9 RUE DES FRERES DEVERIA", "city": "FOUGERES", "convocationLabel": "LES ATELIERS", "distance": 0.0, "fullAddress": "9 RUE DES FRERES DEVERIA 35300 FOUGERES", "giveBlood": 1, "givePlasma": 0, "givePlatelet": 0, "regionCode": "016", "groupCode": "F70086", "latitude": 48.347795, "longitude": -1.190266, "name": "FOUGERES  SAMEDI matin", "postCode": "35300", "samplingLocationCode": "3", "horaires": null, "infos": null, "metro": null, "bus": null, "tram": null, "parking": null, "debutInfos": null, "finInfos": null, "ville": null, "id": null, "phone": null, "urlBlood": null, "urlPlasma": null, "urlPlatelets": null}
{"address1": null, "address2": "9 RUE DES FRERES DEVERIA", "city": "FOUGERES", "convocationLabel": "LES ATELIERS", "distance": 0.0, "fullAddress": "9 RUE DES FRERES DEVERIA 35300 FOUGERES", "giveBlood": 1, "givePlasma": 0, "givePlatelet": 0, "regionCode": "016", "groupCode": "F70086", "latitude": 48.347795, "longitude": -1.190266, "name": "FOUGERES MAT 9H 13H", "postCode": "35300", "samplingLocationCode": "5", "horaires": null, "infos": null, "metro": null, "bus": null, "tram": null, "parking": null, "debutInfos": null, "finInfos": null, "ville": null, "id": null, "phone": null, "urlBlood": null, "urlPlasma": null, "urlPlatelets": null}
{"address1": null, "address2": "9 RUE DES FRERES DEVERIA", "city": "FOUGERES", "convocationLabel": "LES ATELIERS", "distance": 0.0, "fullAddress": "9 RUE DES FRERES DEVERIA 35300 FOUGERES", "giveBlood": 1, "givePlasma": 0, "givePlatelet": 0, "regionCode": "016", "groupCode": "F70086", "latitude": 48.34799576, "longitude": -1.19033039, "name": "FOUGERES ATELIERS MAT", "postCode": "35300", "samplingLocationCode": "6", "horaires": null, "infos": null, "metro": null, "bus": null, "tram": null, "parking": null, "debutInfos": null, "finInfos": null, "ville": null, "id": null, "phone": null, "urlBlood": null, "urlPlasma": null, "urlPlatelets": null}
{"address1": null, "address2": "9 RUE DES FRERES DEVERIA", "city": "FOUGERES", "convocationLabel": "LES ATELIERS", "distance": 0.0, "fullAddress": "9 RUE DES FRERES DEVERIA 35300 FOUGERES", "giveBlood": 1, "givePlasma": 0, "givePlatelet": 0, "regionCode": "016", "groupCode": "F70086", "latitude": 48.34799576, "longitude": -1.19033039, "name": "FOUGERES ATELIERS AM", "postCode": "35300", "samplingLocationCode": "7", "horaires": null, "infos": null, "metro": null, "bus": null, "tram": null, "parking": null, "debutInfos": null, "finInfos": null, "ville": null, "id": null, "phone": null, "urlBlood": null, "urlPlasma": null, "urlPlatelets": null}
{"address1": null, "address2": "9 RUE DES FRERES DEVERIA", "city": "FOUGERES", "convocationLabel": "LES ATELIERS", "distance": 0.0, "fullAddress": "9 RUE DES FRERES DEVERIA 35300 FOUGERES", "giveBlood": 1, "givePlasma": 0, "givePlatelet": 0, "regionCode": "016", "groupCode": "F70086", "latitude": 48.34799576, "longitude": -1.19033039, "name": "FOUGERES ATELIERS SA", "postCode": "35300", "samplingLocationCode": "8", "horaires": null, "infos": null, "metro": null, "bus": null, "tram": null, "parking": null, "debutInfos": null, "finInfos": null, "ville": null, "id": null, "phone": null, "urlBlood": null, "urlPlasma": null, "urlPlatelets": null}
{"address1": null, "address2": "9 RUE DES FRERES DEVERIA", "city": "FOUGERES", "convocationLabel": "LES ATELIERS", "distance": 0.0, "fullAddress": "9 RUE DES FRERES DEVERIA 35300 FOUGERES", "giveBlood": 1, "givePlasma": 0, "givePlatelet": 0, "regionCode": "016", "groupCode": "F70086", "latitude": 48.3483696, "longitude": -1.19010961, "name": "FOUGERES Mat RDV", "postCode": "35300", "samplingLocationCode": "9", "horaires": null, "infos": null, "metro": null, "bus": null, "tram": null, "parking": null, "debutInfos": null, "finInfos": null, "ville": null, "id": null, "phone": null, "urlBlood": null, "urlPlasma": null, "urlPlatelets": null}
{"address1": null, "address2": "9 RUE DES FRERES DEVERIA", "city": "FOUGERES", "convocationLabel": "LES ATELIERS", "distance": 0.0, "fullAddress": "9 RUE DES FRERES DEVERIA 35300 FOUGERES", "giveBlood": 1, "givePlasma": 0, "givePlatelet": 0, "regionCode": "016", "groupCode": "F70086", "latitude": 48.347795, "longitude": -1.190266, "name": "FOUGERES 1ER JOUR", "postCode": "35300", "samplingLocationCode": "99", "horaires": null, "infos": null, "metro": null, "bus": null, "tram": null, "parking": null, "debutInfos": null, "finInfos": null, "ville": null, "id": null, "phone": null, "urlBlood": null, "urlPlasma": null, "urlPlatelets": null}
