{"address1": null, "address2": "14 AVENUE DE LA GARE", "city": "MONTAUBAN DE BRETAGNE", "convocationLabel": "SALLE VICTOR HUGO", "distance": 0.0, "fullAddress": "14 AVENUE DE LA GARE 35360 MONTAUBAN DE BRETAGNE", "giveBlood": 1, "givePlasma": 0, "givePlatelet": 0, "regionCode": "016", "groupCode": "F70140", "latitude": 48.19818878, "longitude": -2.04815817, "name": "2 MONTAUBAN-V. HUGO VE. AM", "postCode": "35360", "samplingLocationCode": "10", "horaires": null, "infos": null, "metro": null, "bus": null, "tram": null, "parking": null, "debutInfos": null, "finInfos": null, "ville": null, "id": null, "phone": null, "urlBlood": null, "urlPlasma": null, "urlPlatelets": null}
{"address1": null, "address2": "14 AVENUE DE LA GARE", "city": "MONTAUBAN DE BRETAGNE", "convocationLabel": "SALLE VICTOR HUGO", "distance": 0.0, "fullAddress": "14 AVENUE DE LA GARE 35360 MONTAUBAN DE BRETAGNE", "giveBlood": 1, "givePlasma": 0, "givePlatelet": 0, "regionCode": "016", "groupCode": "F70140", "latitude": 48.19820786, "longitude": -2.0484283, "name": "MONTAUBAN DE BRETAGNE VH VESEM", "postCode": "35360", "samplingLocationCode": "153", "horaires": null, "infos": null, "metro": null, "bus": null, "tram": null, "parking": null, "debutInfos": null, "finInfos": null, "ville": null, "id": null, "phone": null, "urlBlood": null, "urlPlasma": null, "urlPlatelets": null}
{"address1": null, "address2": "14 AVENUE DE LA GARE", "city": "MONTAUBAN DE BRETAGNE", "convocationLabel": "SALLE VICTOR HUGO", "distance": 0.0, "fullAddress": "14 AVENUE DE LA GARE 35360 MONTAUBAN DE BRETAGNE", "giveBlood": 1, "givePlasma": 0, "givePlatelet": 0, "regionCode": "016", "groupCode": "F70140", "latitude": 48.19796371, "longitude": -2.04804206, "name": "MONTAUBAN DE BRETAGNE SA matin", "postCode": "35360", "samplingLocationCode": "2", "horaires": null, "infos": null, "metro": null, "bus": null, "tram": null, "parking": null, "debutInfos": null, "finInfos": null, "ville": null, "id": null, "phone": null, "urlBlood": null, "urlPlasma": null, "urlPlatelets": null}
{"address1": null, "address2": "14 AVENUE DE LA GARE", "city": "MONTAUBAN DE BRETAGNE", "convocationLabel": "SALLE VICTOR HUGO", "distance": 0.0, "fullAddress": "14 AVENUE DE LA GARE 35360 MONTAUBAN DE BRETAGNE", "giveBlood": 1, "givePlasma": 0, "givePlatelet": 0, "regionCode": "016", "groupCode": "F70140", "latitude": 48.20080948, "longitude": -2.04701209, "name": "MONTAUBAN DE BRETAGNE VH SA", "postCode": "35360", "samplingLocationCode": "3", "horaires": null, "infos": null, "metro": null, "bus": null, "tram": null, "parking": null, "debutInfos": null, "finInfos": null, "ville": null, "id": null, "phone": null, "urlBlood": null, "urlPlasma": null, "urlPlatelets": null}
{"address1": null, "address2": "10 RUE DE ROMILLE", "city": "MONTAUBAN DE BRETAGNE", "convocationLabel": "SALLE DES FETES", "distance": 0.0, "fullAddress": "10 RUE DE ROMILLE 35360 MONTAUBAN DE BRETAGNE", "giveBlood": 1, "givePlasma": 0, "givePlatelet": 0, "regionCode": "016", "groupCode": "F70140", "latitude": 48.20051193, "longitude": -2.04585719, "name": "2 MONTAUBAN-SDF VE.AM", "postCode": "35360", "samplingLocationCode": "4", "horaires": null, "infos": null, "metro": null, "bus": null, "tram": null, "parking": null, "debutInfos": null, "finInfos": null, "ville": null, "id": null, "phone": null, "urlBlood": null, "urlPlasma": null, "urlPlatelets": null}
{"address1": null, "address2": "10 RUE DE ROMILLE", "city": "MONTAUBAN DE BRETAGNE", "convocationLabel": "SALLE DES FETES", "distance": 0.0, "fullAddress": "10 RUE DE ROMILLE 35360 MONTAUBAN DE BRETAGNE", "giveBlood": 1, "givePlasma": 0, "givePlatelet": 0, "regionCode": "016", "groupCode": "F70140", "latitude": 48.20051193, "longitude": -2.04585719, "name": "2 MONTAUBAN-SDF SA J+", "postCode": "35360", "samplingLocationCode": "5", "horaires": null, "infos": null, "metro": null, "bus": null, "tram": null, "parking": null, "debutInfos": null, "finInfos": null, "ville": null, "id": null, "phone": null, "urlBlood": null, "urlPlasma": null, "urlPlatelets": null}
{"address1": null, "address2": "14 AVENUE DE LA GARE", "city": "MONTAUBAN DE BRETAGNE", "convocationLabel": "SALLE VICTOR HUGO", "distance": 0.0, "fullAddress": "14 AVENUE DE LA GARE 35360 MONTAUBAN DE BRETAGNE", "giveBlood": 1, "givePlasma": 0, "givePlatelet": 0, "regionCode": "016", "groupCode": "F70140", "latitude": 48.198119, "longitude": -2.048102, "name": "MONTAUBAN DE BRETAGNE VH VEMAT", "postCode": "35360", "samplingLocationCode": "6", "horaires": null, "infos": null, "metro": null, "bus": null, "tram": null, "parking": null, "debutInfos": null, "finInfos": null, "ville": null, "id": null, "phone": null, "urlBlood": null, "urlPlasma": null, "urlPlatelets": null}
{"address1": null, "address2": "14 AVENUE DE LA GARE", "city": "MONTAUBAN DE BRETAGNE", "convocationLabel": "SALLE VICTOR HUGO", "distance": 0.0, "fullAddress": "14 AVENUE DE LA GARE 35360 MONTAUBAN DE BRETAGNE", "giveBlood": 1, "givePlasma": 0, "givePlatelet": 0, "regionCode": "016", "groupCode": "F70140", "latitude": 48.198119, "longitude": -2.048102, "name": "MONTAUBAN DE BRETAGNE VH VEAM", "postCode": "35360", "samplingLocationCode": "7", "horaires": null, "infos": null, "metro": null, "bus": null, "tram": null, "parking": null, "debutInfos": null, "finInfos": null, "ville": null, "id": null, "phone": null, "urlBlood": null, "urlPlasma": null, "urlPlatelets": null}
{"address1": null, "address2": "14 AVENUE DE LA GARE", "city": "MONTAUBAN DE BRETAGNE", "convocationLabel": "SALLE VICTOR HUGO", "distance": 0.0, "fullAddress": "14 AVENUE DE LA GARE 35360 MONTAUBAN DE BRETAGNE", "giveBlood": 1, "givePlasma": 0, "givePlatelet": 0, "regionCode": "016", "groupCode": "F70140", "latitude": 48.198119, "longitude": -2.048102, "name": "2 MONTAUBAN-V. HUGO DAM", "postCode": "35360", "samplingLocationCode": "8", "horaires": null, "infos": null, "metro": null, "bus": null, "tram": null, "parking": null, "debutInfos": null, "finInfos": null, "ville": null, "id": null, "phone": null, "urlBlood": null, "urlPlasma": null, "urlPlatelets": null}
{"address1": null, "address2": "14 AVENUE DE LA GARE", "city": "MONTAUBAN DE BRETAGNE", "convocationLabel": "SALLE VICTOR HUGO", "distance": 0.0, "fullAddress": "14 AVENUE DE LA GARE 35360 MONTAUBAN DE BRETAGNE", "giveBlood": 1, "givePlasma": 0, "givePlatelet": 0, "regionCode": "016", "groupCode": "F70140", "latitude": 48.19818878, "longitude": -2.04815817, "name": "2 MONTAUBAN-V. HUGO SA J+", "postCode": "35360", "samplingLocationCode": "9", "horaires": null, "infos": null, "metro": null, "bus": null, "tram": null, "parking": null, "debutInfos": null, "finInfos": null, "ville": null, "id": null, "phone": null, "urlBlood": null, "urlPlasma": null, "urlPlatelets": null}
