{"address1": null, "address2": "19 RUE LARIBOISIERE", "city": "LOUVIGNE DU DESERT", "convocationLabel": "MAIRIE", "distance": 0.0, "fullAddress": "19 RUE LARIBOISIERE 35420 LOUVIGNE DU DESERT", "giveBlood": 1, "givePlasma": 0, "givePlatelet": 0, "regionCode": "016", "groupCode": "F70015", "latitude": 48.480156, "longitude": -1.124717, "name": "LOUVIGNE DU DESERT MAIRIE SEM", "postCode": "35420", "samplingLocationCode": "2", "horaires": null, "infos": null, "metro": null, "bus": null, "tram": null, "parking": null, "debutInfos": null, "finInfos": null, "ville": null, "id": null, "phone": null, "urlBlood": null, "urlPlasma": null, "urlPlatelets": null}
{"address1": null, "address2": "RUE LANGLET", "city": "LA BAZOUGE DU DESERT", "convocationLabel": "SALLE DU POURPRIS", "distance": 0.0, "fullAddress": "RUE LANGLET 35420 LA BAZOUGE DU DESERT", "giveBlood": 1, "givePlasma": 0, "givePlatelet": 0, "regionCode": "016", "groupCode": "F70015", "latitude": 48.442579, "longitude": -1.104733, "name": "LA BAZOUGE DU DESERT SEM", "postCode": "35420", "samplingLocationCode": "28", "horaires": null, "infos": null, "metro": null, "bus": null, "tram": null, "parking": null, "debutInfos": null, "finInfos": null, "ville": null, "id": null, "phone": null, "urlBlood": null, "urlPlasma": null, "urlPlatelets": null}
{"address1": null, "address2": "RUE ST MARTIN", "city": "LOUVIGNE DU DESERT", "convocationLabel": "CENTRE CULTUREL JOVENCE", "distance": 0.0, "fullAddress": "RUE ST MARTIN 35420 LOUVIGNE DU DESERT", "giveBlood": 1, "givePlasma": 0, "givePlatelet": 0, "regionCode": "016", "groupCode": "F70015", "latitude": 48.48129272, "longitude": -1.11913657, "name": "LOUVIGNE DU DESERT JOVENCE SEM", "postCode": "35420", "samplingLocationCode": "3", "horaires": null, "infos": null, "metro": null, "bus": null, "tram": null, "parking": null, "debutInfos": null, "finInfos": null, "ville": null, "id": null, "phone": null, "urlBlood": null, "urlPlasma": null, "urlPlatelets": null}
{"address1": null, "address2": "3 RUE LANGLET", "city": "LA BAZOUGE DU DESERT", "convocationLabel": "SALLE DU POURPRIS", "distance": 0.0, "fullAddress": "3 RUE LANGLET 35420 LA BAZOUGE DU DESERT", "giveBlood": 1, "givePlasma": 0, "givePlatelet": 0, "regionCode": "016", "groupCode": "F70015", "latitude": 48.441941, "longitude": -1.105316, "name": "2 LA BAZOUGE-POURPRIS AM ", "postCode": "35420", "samplingLocationCode": "4", "horaires": null, "infos": null, "metro": null, "bus": null, "tram": null, "parking": null, "debutInfos": null, "finInfos": null, "ville": null, "id": null, "phone": null, "urlBlood": null, "urlPlasma": null, "urlPlatelets": null}
{"address1": null, "address2": "RUE ST MARTIN", "city": "LOUVIGNE DU DESERT", "convocationLabel": "CENTRE CULTUREL JOVENCE", "distance": 0.0, "fullAddress": "RUE ST MARTIN 35420 LOUVIGNE DU DESERT", "giveBlood": 1, "givePlasma": 0, "givePlatelet": 0, "regionCode": "016", "groupCode": "F70015", "latitude": 48.48129272, "longitude": -1.11913657, "name": "2 LOUVIGNE-JOVENCE AM ", "postCode": "35420", "samplingLocationCode": "5", "horaires": null, "infos": null, "metro": null, "bus": null, "tram": null, "parking": null, "debutInfos": null, "finInfos": null, "ville": null, "id": null, "phone": null, "urlBlood": null, "urlPlasma": null, "urlPlatelets": null}
