{"address1": null, "address2": "RUE ST MIREL", "city": "TINTENIAC", "convocationLabel": "SALLE ILLE ET DONAC", "distance": 0.0, "fullAddress": "RUE ST MIREL 35190 TINTENIAC", "giveBlood": 1, "givePlasma": 0, "givePlatelet": 0, "regionCode": "016", "groupCode": "F70264", "latitude": 48.33083, "longitude": -1.83497, "name": "TINTENIAC MATIN", "postCode": "35190", "samplingLocationCode": "2", "horaires": null, "infos": null, "metro": null, "bus": null, "tram": null, "parking": null, "debutInfos": null, "finInfos": null, "ville": null, "id": null, "phone": null, "urlBlood": null, "urlPlasma": null, "urlPlatelets": null}
{"address1": null, "address2": "RUE ST MIREL", "city": "TINTENIAC", "convocationLabel": "SALLE ILLE ET DONAC", "distance": 0.0, "fullAddress": "RUE ST MIREL 35190 TINTENIAC", "giveBlood": 1, "givePlasma": 0, "givePlatelet": 0, "regionCode": "016", "groupCode": "F70264", "latitude": 48.33083, "longitude": -1.83497, "name": "TINTENIAC", "postCode": "35190", "samplingLocationCode": "276", "horaires": null, "infos": null, "metro": null, "bus": null, "tram": null, "parking": null, "debutInfos": null, "finInfos": null, "ville": null, "id": null, "phone": null, "urlBlood": null, "urlPlasma": null, "urlPlatelets": null}
{"address1": null, "address2": "RUE ST MIREL", "city": "TINTENIAC", "convocationLabel": "SALLE ILLE ET DONAC", "distance": 0.0, "fullAddress": "RUE ST MIREL 35190 TINTENIAC", "giveBlood": 1, "givePlasma": 0, "givePlatelet": 0, "regionCode": "016", "groupCode": "F70264", "latitude": 48.33123398, "longitude": -1.83477211, "name": "TINTENIAC ILLE ET DONAC SEM", "postCode": "35190", "samplingLocationCode": "3", "horaires": null, "infos": null, "metro": null, "bus": null, "tram": null, "parking": null, "debutInfos": null, "finInfos": null, "ville": null, "id": null, "phone": null, "urlBlood": null, "urlPlasma": null, "urlPlatelets": null}
{"address1": null, "address2": "AVENUE DUGUESCLIN", "city": "TINTENIAC", "convocationLabel": "SALLE DUGUESCLIN", "distance": 0.0, "fullAddress": "AVENUE DUGUESCLIN 35190 TINTENIAC", "giveBlood": 1, "givePlasma": 0, "givePlatelet": 0, "regionCode": "016", "groupCode": "F70264", "latitude": 48.325035, "longitude": -1.831178, "name": "TINTENIAC DUGUESCLIN SEM", "postCode": "35190", "samplingLocationCode": "4", "horaires": null, "infos": null, "metro": null, "bus": null, "tram": null, "parking": null, "debutInfos": null, "finInfos": null, "ville": null, "id": null, "phone": null, "urlBlood": null, "urlPlasma": null, "urlPlatelets": null}
{"address1": null, "address2": "RUE ST MIREL", "city": "TINTENIAC", "convocationLabel": "SALLE ILLE ET DONAC", "distance": 0.0, "fullAddress": "RUE ST MIREL 35190 TINTENIAC", "giveBlood": 1, "givePlasma": 0, "givePlatelet": 0, "regionCode": "016", "groupCode": "F70264", "latitude": 48.33083, "longitude": -1.83497, "name": "2 TINTENIAC-ILLE ET DONAC DAM", "postCode": "35190", "samplingLocationCode": "5", "horaires": null, "infos": null, "metro": null, "bus": null, "tram": null, "parking": null, "debutInfos": null, "finInfos": null, "ville": null, "id": null, "phone": null, "urlBlood": null, "urlPlasma": null, "urlPlatelets": null}
{"address1": null, "address2": "RUE ST MIREL", "city": "TINTENIAC", "convocationLabel": "SALLE ILLE ET DONAC", "distance": 0.0, "fullAddress": "RUE ST MIREL 35190 TINTENIAC", "giveBlood": 1, "givePlasma": 0, "givePlatelet": 0, "regionCode": "016", "groupCode": "F70264", "latitude": 48.3307457, "longitude": -1.83503532, "name": "2 TINTENIAC-ILLE ET DONAC AM", "postCode": "35190", "samplingLocationCode": "6", "horaires": null, "infos": null, "metro": null, "bus": null, "tram": null, "parking": null, "debutInfos": null, "finInfos": null, "ville": null, "id": null, "phone": null, "urlBlood": null, "urlPlasma": null, "urlPlatelets": null}
