{"address1": null, "address2": "RUE DU FORT BLOQUE", "city": "PLOEMEUR", "convocationLabel": "SALLE NINNOCH", "distance": 0.0, "fullAddress": "RUE DU FORT BLOQUE 56270 PLOEMEUR", "giveBlood": 1, "givePlasma": 0, "givePlatelet": 0, "regionCode": "016", "groupCode": "F30342", "latitude": 47.73669434, "longitude": -3.43533349, "name": "PLOEMEUR NINNOCH 8H30 13 H", "postCode": "56270", "samplingLocationCode": "10", "horaires": null, "infos": null, "metro": null, "bus": null, "tram": null, "parking": null, "debutInfos": null, "finInfos": null, "ville": null, "id": null, "phone": null, "urlBlood": null, "urlPlasma": null, "urlPlatelets": null}
{"address1": null, "address2": "RUE DU FORT BLOQUE", "city": "PLOEMEUR", "convocationLabel": "SALLE NINNOCH", "distance": 0.0, "fullAddress": "RUE DU FORT BLOQUE 56270 PLOEMEUR", "giveBlood": 1, "givePlasma": 0, "givePlatelet": 0, "regionCode": "016", "groupCode": "F30342", "latitude": 47.736489, "longitude": -3.432624, "name": "PLOEMEUR NINNOCH 15H-19H", "postCode": "56270", "samplingLocationCode": "11", "horaires": null, "infos": null, "metro": null, "bus": null, "tram": null, "parking": null, "debutInfos": null, "finInfos": null, "ville": null, "id": null, "phone": null, "urlBlood": null, "urlPlasma": null, "urlPlatelets": null}
{"address1": "SALLE DE CONFERENCE", "address2": "100 RUE DE L'ANSE DU STOLE", "city": "PLOEMEUR", "convocationLabel": "CENTRE MUTUALISTE DE KERPAPE", "distance": 0.0, "fullAddress": "SALLE DE CONFERENCE 100 RUE DE L'ANSE DU STOLE 56270 PLOEMEUR", "giveBlood": 1, "givePlasma": 0, "givePlatelet": 0, "regionCode": "016", "groupCode": "F30342", "latitude": 47.70681, "longitude": -3.42121, "name": "PLOEMEUR - CENTRE DE KERPAPE", "postCode": "56270", "samplingLocationCode": "12", "horaires": null, "infos": null, "metro": null, "bus": null, "tram": null, "parking": null, "debutInfos": null, "finInfos": null, "ville": null, "id": null, "phone": null, "urlBlood": null, "urlPlasma": null, "urlPlatelets": null}
{"address1": null, "address2": "RUE DU FORT BLOQUE", "city": "PLOEMEUR", "convocationLabel": "SALLE NINNOCH", "distance": 0.0, "fullAddress": "RUE DU FORT BLOQUE 56270 PLOEMEUR", "giveBlood": 1, "givePlasma": 0, "givePlatelet": 0, "regionCode": "016", "groupCode": "F30342", "latitude": 47.736488, "longitude": -3.432624, "name": "PLOEMEUR ETE AM", "postCode": "56270", "samplingLocationCode": "3", "horaires": null, "infos": null, "metro": null, "bus": null, "tram": null, "parking": null, "debutInfos": null, "finInfos": null, "ville": null, "id": null, "phone": null, "urlBlood": null, "urlPlasma": null, "urlPlatelets": null}
{"address1": null, "address2": "RUE DU FORT BLOQUE", "city": "PLOEMEUR", "convocationLabel": "SALLE NINNOCH", "distance": 0.0, "fullAddress": "RUE DU FORT BLOQUE 56270 PLOEMEUR", "giveBlood": 1, "givePlasma": 0, "givePlatelet": 0, "regionCode": "016", "groupCode": "F30342", "latitude": 47.736488, "longitude": -3.432624, "name": "PLOEMEUR 9H-13H", "postCode": "56270", "samplingLocationCode": "4", "horaires": null, "infos": null, "metro": null, "bus": null, "tram": null, "parking": null, "debutInfos": null, "finInfos": null, "ville": null, "id": null, "phone": null, "urlBlood": null, "urlPlasma": null, "urlPlatelets": null}
{"address1": null, "address2": "RUE DU FORT BLOQUE", "city": "PLOEMEUR", "convocationLabel": "SALLE NINNOCH", "distance": 0.0, "fullAddress": "RUE DU FORT BLOQUE 56270 PLOEMEUR", "giveBlood": 1, "givePlasma": 0, "givePlatelet": 0, "regionCode": "016", "groupCode": "F30342", "latitude": 47.736488, "longitude": -3.432624, "name": "PLOEMEUR ", "postCode": "56270", "samplingLocationCode": "5", "horaires": null, "infos": null, "metro": null, "bus": null, "tram": null, "parking": null, "debutInfos": null, "finInfos": null, "ville": null, "id": null, "phone": null, "urlBlood": null, "urlPlasma": null, "urlPlatelets": null}
{"address1": null, "address2": "RUE DE KERVAM", "city": "PLOEMEUR", "convocationLabel": "MAISON DES JEUNES", "distance": 0.0, "fullAddress": "RUE DE KERVAM 56270 PLOEMEUR", "giveBlood": 1, "givePlasma": 0, "givePlatelet": 0, "regionCode": "016", "groupCode": "F30342", "latitude": 47.734552, "longitude": -3.427233, "name": "MAISON DES JEUNES PLOEMEUR", "postCode": "56270", "samplingLocationCode": "6", "horaires": null, "infos": null, "metro": null, "bus": null, "tram": null, "parking": null, "debutInfos": null, "finInfos": null, "ville": null, "id": null, "phone": null, "urlBlood": null, "urlPlasma": null, "urlPlatelets": null}
{"address1": null, "address2": "BOULEVARD FRANCOIS MITTERAND", "city": "PLOEMEUR", "convocationLabel": "SALLE KERAGAN D'OCEANIS", "distance": 0.0, "fullAddress": "BOULEVARD FRANCOIS MITTERAND 56270 PLOEMEUR", "giveBlood": 1, "givePlasma": 0, "givePlatelet": 0, "regionCode": "016", "groupCode": "F30342", "latitude": 47.732451, "longitude": -3.42303, "name": "PLOEMEUR-OCEANIS", "postCode": "56270", "samplingLocationCode": "8", "horaires": null, "infos": null, "metro": null, "bus": null, "tram": null, "parking": null, "debutInfos": null, "finInfos": null, "ville": null, "id": null, "phone": null, "urlBlood": null, "urlPlasma": null, "urlPlatelets": null}
{"address1": null, "address2": "RUE DU FORT BLOQUE", "city": "PLOEMEUR", "convocationLabel": "SALLE NINNOCH", "distance": 0.0, "fullAddress": "RUE DU FORT BLOQUE 56270 PLOEMEUR", "giveBlood": 1, "givePlasma": 0, "givePlatelet": 0, "regionCode": "016", "groupCode": "F30342", "latitude": 47.73669434, "longitude": -3.43533349, "name": "PLOEMEUR NINNOCH 14 H 30 -19 H", "postCode": "56270", "samplingLocationCode": "9", "horaires": null, "infos": null, "metro": null, "bus": null, "tram": null, "parking": null, "debutInfos": null, "finInfos": null, "ville": null, "id": null, "phone": null, "urlBlood": null, "urlPlasma": null, "urlPlatelets": null}
{"address1": null, "address2": "RUE DU FORT BLOQUE", "city": "PLOEMEUR", "convocationLabel": "SALLE NINNOCH", "distance": 0.0, "fullAddress": "RUE DU FORT BLOQUE 56270 PLOEMEUR", "giveBlood": 1, "givePlasma": 0, "givePlatelet": 0, "regionCode": "016", "groupCode": "F30342", "latitude": 47.73669434, "longitude": -3.43533349, "name": "PLOEMEUR-SALLE NINNOCH", "postCode": "56270", "samplingLocationCode": "942", "horaires": null, "infos": null, "metro": null, "bus": null, "tram": null, "parking": null, "debutInfos": null, "finInfos": null, "ville": null, "id": null, "phone": null, "urlBlood": null, "urlPlasma": null, "urlPlatelets": null}
