{"address1": null, "address2": "RUE LECLERC", "city": "ST AUBIN DU CORMIER", "convocationLabel": "SALLE DU PARC", "distance": 0.0, "fullAddress": "RUE LECLERC 35140 ST AUBIN DU CORMIER", "giveBlood": 1, "givePlasma": 0, "givePlatelet": 0, "regionCode": "016", "groupCode": "F70210", "latitude": 48.2600174, "longitude": -1.40223026, "name": "2 ST AUBIN DU CORMIER-PARC AM", "postCode": "35140", "samplingLocationCode": "10", "horaires": null, "infos": null, "metro": null, "bus": null, "tram": null, "parking": null, "debutInfos": null, "finInfos": null, "ville": null, "id": null, "phone": null, "urlBlood": null, "urlPlasma": null, "urlPlatelets": null}
{"address1": null, "address2": "15 RUE LECLERC", "city": "ST AUBIN DU CORMIER", "convocationLabel": "SALLE DU PARC", "distance": 0.0, "fullAddress": "15 RUE LECLERC 35140 ST AUBIN DU CORMIER", "giveBlood": 1, "givePlasma": 0, "givePlatelet": 0, "regionCode": "016", "groupCode": "F70210", "latitude": 48.259212, "longitude": -1.402307, "name": "ST AUBIN DU CORMIER VEILLE F ", "postCode": "35140", "samplingLocationCode": "2", "horaires": null, "infos": null, "metro": null, "bus": null, "tram": null, "parking": null, "debutInfos": null, "finInfos": null, "ville": null, "id": null, "phone": null, "urlBlood": null, "urlPlasma": null, "urlPlatelets": null}
{"address1": null, "address2": "PLACE DE LA MAIRIE", "city": "SAINT AUBIN DU CORMIER", "convocationLabel": "SALLE DES HALLES", "distance": 0.0, "fullAddress": "PLACE DE LA MAIRIE 35140 SAINT AUBIN DU CORMIER", "giveBlood": 1, "givePlasma": 0, "givePlatelet": 0, "regionCode": "016", "groupCode": "F70210", "latitude": 48.25998688, "longitude": -1.39927495, "name": "ST AUBIN DU CORMIER HALL SEM", "postCode": "35140", "samplingLocationCode": "222", "horaires": null, "infos": null, "metro": null, "bus": null, "tram": null, "parking": null, "debutInfos": null, "finInfos": null, "ville": null, "id": null, "phone": null, "urlBlood": null, "urlPlasma": null, "urlPlatelets": null}
{"address1": null, "address2": "PLACE DE LA MAIRIE", "city": "SAINT AUBIN DU CORMIER", "convocationLabel": "SALLE DES HALLES", "distance": 0.0, "fullAddress": "PLACE DE LA MAIRIE 35140 SAINT AUBIN DU CORMIER", "giveBlood": 1, "givePlasma": 0, "givePlatelet": 0, "regionCode": "016", "groupCode": "F70210", "latitude": 48.25998688, "longitude": -1.39927495, "name": "ST AUBIN DU CORMIER HALLES SA", "postCode": "35140", "samplingLocationCode": "3", "horaires": null, "infos": null, "metro": null, "bus": null, "tram": null, "parking": null, "debutInfos": null, "finInfos": null, "ville": null, "id": null, "phone": null, "urlBlood": null, "urlPlasma": null, "urlPlatelets": null}
{"address1": null, "address2": "RUE DES ROCHERS", "city": "SAINT AUBIN DU CORMIER", "convocationLabel": "ESPACE BEL AIR", "distance": 0.0, "fullAddress": "RUE DES ROCHERS 35140 SAINT AUBIN DU CORMIER", "giveBlood": 1, "givePlasma": 0, "givePlatelet": 0, "regionCode": "016", "groupCode": "F70210", "latitude": 48.255887, "longitude": -1.388955, "name": "ST AUBIN DU CORMIER BEL AIR SE", "postCode": "35140", "samplingLocationCode": "4", "horaires": null, "infos": null, "metro": null, "bus": null, "tram": null, "parking": null, "debutInfos": null, "finInfos": null, "ville": null, "id": null, "phone": null, "urlBlood": null, "urlPlasma": null, "urlPlatelets": null}
{"address1": null, "address2": "PLACE DE LA MAIRIE", "city": "SAINT AUBIN DU CORMIER", "convocationLabel": "SALLE DES HALLES", "distance": 0.0, "fullAddress": "PLACE DE LA MAIRIE 35140 SAINT AUBIN DU CORMIER", "giveBlood": 1, "givePlasma": 0, "givePlatelet": 0, "regionCode": "016", "groupCode": "F70210", "latitude": 48.259869, "longitude": -1.399213, "name": "ST AUBIN DU CORMIER HALLES JO", "postCode": "35140", "samplingLocationCode": "5", "horaires": null, "infos": null, "metro": null, "bus": null, "tram": null, "parking": null, "debutInfos": null, "finInfos": null, "ville": null, "id": null, "phone": null, "urlBlood": null, "urlPlasma": null, "urlPlatelets": null}
{"address1": null, "address2": "RUE DES ROCHERS", "city": "SAINT AUBIN DU CORMIER", "convocationLabel": "ESPACE BEL AIR", "distance": 0.0, "fullAddress": "RUE DES ROCHERS 35140 SAINT AUBIN DU CORMIER", "giveBlood": 1, "givePlasma": 0, "givePlatelet": 0, "regionCode": "016", "groupCode": "F70210", "latitude": 48.255887, "longitude": -1.388955, "name": "ST AUBIN DU CORMIER BEL AIR JO", "postCode": "35140", "samplingLocationCode": "6", "horaires": null, "infos": null, "metro": null, "bus": null, "tram": null, "parking": null, "debutInfos": null, "finInfos": null, "ville": null, "id": null, "phone": null, "urlBlood": null, "urlPlasma": null, "urlPlatelets": null}
{"address1": null, "address2": "RUE LECLERC", "city": "ST AUBIN DU CORMIER", "convocationLabel": "SALLE DU PARC", "distance": 0.0, "fullAddress": "RUE LECLERC 35140 ST AUBIN DU CORMIER", "giveBlood": 1, "givePlasma": 0, "givePlatelet": 0, "regionCode": "016", "groupCode": "F70210", "latitude": 48.259846, "longitude": -1.402004, "name": "ST AUBIN DU CORMIER PARC SEM", "postCode": "35140", "samplingLocationCode": "7", "horaires": null, "infos": null, "metro": null, "bus": null, "tram": null, "parking": null, "debutInfos": null, "finInfos": null, "ville": null, "id": null, "phone": null, "urlBlood": null, "urlPlasma": null, "urlPlatelets": null}
{"address1": null, "address2": "RUE LECLERC", "city": "ST AUBIN DU CORMIER", "convocationLabel": "SALLE DU PARC", "distance": 0.0, "fullAddress": "RUE LECLERC 35140 ST AUBIN DU CORMIER", "giveBlood": 1, "givePlasma": 0, "givePlatelet": 0, "regionCode": "016", "groupCode": "F70210", "latitude": 48.259846, "longitude": -1.402004, "name": "ST AUBIN DU CORMIER PARC MAT", "postCode": "35140", "samplingLocationCode": "8", "horaires": null, "infos": null, "metro": null, "bus": null, "tram": null, "parking": null, "debutInfos": null, "finInfos": null, "ville": null, "id": null, "phone": null, "urlBlood": null, "urlPlasma": null, "urlPlatelets": null}
{"address1": null, "address2": "RUE LECLERC", "city": "ST AUBIN DU CORMIER", "convocationLabel": "SALLE DU PARC", "distance": 0.0, "fullAddress": "RUE LECLERC 35140 ST AUBIN DU CORMIER", "giveBlood": 1, "givePlasma": 0, "givePlatelet": 0, "regionCode": "016", "groupCode": "F70210", "latitude": 48.259846, "longitude": -1.402004, "name": "ST AUBIN DU CORMIER PARC AM", "postCode": "35140", "samplingLocationCode": "9", "horaires": null, "infos": null, "metro": null, "bus": null, "tram": null, "parking": null, "debutInfos": null, "finInfos": null, "ville": null, "id": null, "phone": null, "urlBlood": null, "urlPlasma": null, "urlPlatelets": null}
