{"address1": null, "address2": null, "city": "SAINT BRICE EN COGLES", "convocationLabel": "SALLE DES FETES", "distance": 0.0, "fullAddress": "35460 SAINT BRICE EN COGLES", "giveBlood": 1, "givePlasma": 0, "givePlatelet": 0, "regionCode": "016", "groupCode": "F70213", "latitude": 48.40638, "longitude": -1.370613, "name": "SAINT BRICE EN COGLES", "postCode": "35460", "samplingLocationCode": "225", "horaires": null, "infos": null, "metro": null, "bus": null, "tram": null, "parking": null, "debutInfos": null, "finInfos": null, "ville": null, "id": null, "phone": null, "urlBlood": null, "urlPlasma": null, "urlPlatelets": null}
{"address1": null, "address2": "LA BRIONNIERE", "city": "SAINT BRICE EN COGLES", "convocationLabel": "SALLE DES FETES", "distance": 0.0, "fullAddress": "LA BRIONNIERE 35460 SAINT BRICE EN COGLES", "giveBlood": 1, "givePlasma": 0, "givePlatelet": 0, "regionCode": "016", "groupCode": "F70213", "latitude": 48.41142654, "longitude": -1.36553597, "name": "SAINT BRICE EN COGLES MAT", "postCode": "35460", "samplingLocationCode": "3", "horaires": null, "infos": null, "metro": null, "bus": null, "tram": null, "parking": null, "debutInfos": null, "finInfos": null, "ville": null, "id": null, "phone": null, "urlBlood": null, "urlPlasma": null, "urlPlatelets": null}
{"address1": null, "address2": "LA BRIONNIERE", "city": "SAINT BRICE EN COGLES", "convocationLabel": "SALLE DES FETES", "distance": 0.0, "fullAddress": "LA BRIONNIERE 35460 SAINT BRICE EN COGLES", "giveBlood": 1, "givePlasma": 0, "givePlatelet": 0, "regionCode": "016", "groupCode": "F70213", "latitude": 48.41142654, "longitude": -1.36553597, "name": "SAINT BRICE EN COGLES AM", "postCode": "35460", "samplingLocationCode": "4", "horaires": null, "infos": null, "metro": null, "bus": null, "tram": null, "parking": null, "debutInfos": null, "finInfos": null, "ville": null, "id": null, "phone": null, "urlBlood": null, "urlPlasma": null, "urlPlatelets": null}
{"address1": null, "address2": "LA BRIONNIERE", "city": "MAEN ROCH", "convocationLabel": "SALLE ADONIS DE ST BRICE", "distance": 0.0, "fullAddress": "LA BRIONNIERE 35460 MAEN ROCH", "giveBlood": 1, "givePlasma": 0, "givePlatelet": 0, "regionCode": "016", "groupCode": "F70213", "latitude": 48.407143, "longitude": -1.370904, "name": "2 MAEN ROCH-ADONIS AM ", "postCode": "35460", "samplingLocationCode": "5", "horaires": null, "infos": null, "metro": null, "bus": null, "tram": null, "parking": null, "debutInfos": null, "finInfos": null, "ville": null, "id": null, "phone": null, "urlBlood": null, "urlPlasma": null, "urlPlatelets": null}
{"address1": null, "address2": "LA BRIONNIERE", "city": "MAEN ROCH", "convocationLabel": "SALLE ADONIS DE ST BRICE", "distance": 0.0, "fullAddress": "LA BRIONNIERE 35460 MAEN ROCH", "giveBlood": 1, "givePlasma": 0, "givePlatelet": 0, "regionCode": "016", "groupCode": "F70213", "latitude": 48.407143, "longitude": -1.370904, "name": "2 MAEN ROCH-ADONIS DAM J+", "postCode": "35460", "samplingLocationCode": "6", "horaires": null, "infos": null, "metro": null, "bus": null, "tram": null, "parking": null, "debutInfos": null, "finInfos": null, "ville": null, "id": null, "phone": null, "urlBlood": null, "urlPlasma": null, "urlPlatelets": null}
{"address1": null, "address2": "LA MALADRIE", "city": "ST MARC LE BLANC", "convocationLabel": "SALLE DES FETES", "distance": 0.0, "fullAddress": "LA MALADRIE 35460 ST MARC LE BLANC", "giveBlood": 1, "givePlasma": 0, "givePlatelet": 0, "regionCode": "016", "groupCode": "F70213", "latitude": 48.36101913, "longitude": -1.39951205, "name": "2 ST MARC-FETES AM ", "postCode": "35460", "samplingLocationCode": "7", "horaires": null, "infos": null, "metro": null, "bus": null, "tram": null, "parking": null, "debutInfos": null, "finInfos": null, "ville": null, "id": null, "phone": null, "urlBlood": null, "urlPlasma": null, "urlPlatelets": null}
{"address1": null, "address2": "RUE DE ST BRICE", "city": "ST MARC LE BLANC", "convocationLabel": "SALLE COMMUNALE", "distance": 0.0, "fullAddress": "RUE DE ST BRICE 35460 ST MARC LE BLANC", "giveBlood": 1, "givePlasma": 0, "givePlatelet": 0, "regionCode": "016", "groupCode": "F70213", "latitude": 48.372697, "longitude": -1.40447, "name": "2 ST MARC-COMMUNALE AM", "postCode": "35460", "samplingLocationCode": "8", "horaires": null, "infos": null, "metro": null, "bus": null, "tram": null, "parking": null, "debutInfos": null, "finInfos": null, "ville": null, "id": null, "phone": null, "urlBlood": null, "urlPlasma": null, "urlPlatelets": null}
