{"address1": null, "address2": "4 Place Carri\u00e8re", "city": "MONCONTOUR", "convocationLabel": "SALLE DU CAC", "distance": 0.0, "fullAddress": "4 Place Carri\u00e8re 22510 MONCONTOUR", "giveBlood": 1, "givePlasma": 0, "givePlatelet": 0, "regionCode": "016", "groupCode": "F10127", "latitude": 48.36003113, "longitude": -2.6341095, "name": "MONCONTOUR cac VEN", "postCode": "22510", "samplingLocationCode": "2", "horaires": null, "infos": null, "metro": null, "bus": null, "tram": null, "parking": null, "debutInfos": null, "finInfos": null, "ville": null, "id": null, "phone": null, "urlBlood": null, "urlPlasma": null, "urlPlatelets": null}
{"address1": null, "address2": "2 place du C\u00e8dre", "city": "TREDANIEL", "convocationLabel": "SALLE POLYVALENTE", "distance": 0.0, "fullAddress": "2 place du C\u00e8dre 22510 TREDANIEL", "giveBlood": 1, "givePlasma": 0, "givePlatelet": 0, "regionCode": "016", "groupCode": "F10127", "latitude": 48.36019897, "longitude": -2.61716294, "name": "TREDANIEL Salle Poly VEN", "postCode": "22510", "samplingLocationCode": "3", "horaires": null, "infos": null, "metro": null, "bus": null, "tram": null, "parking": null, "debutInfos": null, "finInfos": null, "ville": null, "id": null, "phone": null, "urlBlood": null, "urlPlasma": null, "urlPlatelets": null}
{"address1": null, "address2": "21 route de Moncontour", "city": "PLEMY", "convocationLabel": "SALLE KHEOPS", "distance": 0.0, "fullAddress": "21 route de Moncontour 22150 PLEMY", "giveBlood": 1, "givePlasma": 0, "givePlatelet": 0, "regionCode": "016", "groupCode": "F10127", "latitude": 48.33803177, "longitude": -2.679775, "name": "PLEMY Salle Kheops VEN", "postCode": "22150", "samplingLocationCode": "4", "horaires": null, "infos": null, "metro": null, "bus": null, "tram": null, "parking": null, "debutInfos": null, "finInfos": null, "ville": null, "id": null, "phone": null, "urlBlood": null, "urlPlasma": null, "urlPlatelets": null}
