{"address1": null, "address2": "RUE DES CAPUCINS", "city": "LANDIVISIAU", "convocationLabel": "SALLE DE L'ESPACE DES CAPUCINS", "distance": 0.0, "fullAddress": "RUE DES CAPUCINS 29400 LANDIVISIAU", "giveBlood": 1, "givePlasma": 0, "givePlatelet": 0, "regionCode": "016", "groupCode": "F50119", "latitude": 48.509176, "longitude": -4.073217, "name": "J1 JV", "postCode": "29400", "samplingLocationCode": "10", "horaires": null, "infos": null, "metro": null, "bus": null, "tram": null, "parking": null, "debutInfos": null, "finInfos": null, "ville": null, "id": null, "phone": null, "urlBlood": null, "urlPlasma": null, "urlPlatelets": null}
{"address1": null, "address2": "RUE DES CAPUCINS", "city": "LANDIVISIAU", "convocationLabel": "SALLE DE L'ESPACE DES CAPUCINS", "distance": 0.0, "fullAddress": "RUE DES CAPUCINS 29400 LANDIVISIAU", "giveBlood": 1, "givePlasma": 0, "givePlatelet": 0, "regionCode": "016", "groupCode": "F50119", "latitude": 48.50912094, "longitude": -4.07342577, "name": "LANDIVISIAU J2 LUNDI", "postCode": "29400", "samplingLocationCode": "11", "horaires": null, "infos": null, "metro": null, "bus": null, "tram": null, "parking": null, "debutInfos": null, "finInfos": null, "ville": null, "id": null, "phone": null, "urlBlood": null, "urlPlasma": null, "urlPlatelets": null}
{"address1": null, "address2": "RUE DES CAPUCINS", "city": "LANDIVISIAU", "convocationLabel": "SALLE DE L'ESPACE DES CAPUCINS", "distance": 0.0, "fullAddress": "RUE DES CAPUCINS 29400 LANDIVISIAU", "giveBlood": 1, "givePlasma": 0, "givePlatelet": 0, "regionCode": "016", "groupCode": "F50119", "latitude": 48.50912094, "longitude": -4.07342577, "name": "LANDIVISIAU J3 MARDI", "postCode": "29400", "samplingLocationCode": "12", "horaires": null, "infos": null, "metro": null, "bus": null, "tram": null, "parking": null, "debutInfos": null, "finInfos": null, "ville": null, "id": null, "phone": null, "urlBlood": null, "urlPlasma": null, "urlPlatelets": null}
{"address1": null, "address2": "RUE CAPUCINS", "city": "LANDIVISIAU", "convocationLabel": "SALLE DE L'ESPACE DES CAPUCINS", "distance": 0.0, "fullAddress": "RUE CAPUCINS 29400 LANDIVISIAU", "giveBlood": 1, "givePlasma": 0, "givePlatelet": 0, "regionCode": "016", "groupCode": "F50119", "latitude": 48.509176, "longitude": -4.073217, "name": "J1 AV", "postCode": "29400", "samplingLocationCode": "13", "horaires": null, "infos": null, "metro": null, "bus": null, "tram": null, "parking": null, "debutInfos": null, "finInfos": null, "ville": null, "id": null, "phone": null, "urlBlood": null, "urlPlasma": null, "urlPlatelets": null}
{"address1": null, "address2": "RUE CAPUCINS", "city": "LANDIVISIAU", "convocationLabel": "SALLE DE L'ESPACE DES CAPUCINS", "distance": 0.0, "fullAddress": "RUE CAPUCINS 29400 LANDIVISIAU", "giveBlood": 1, "givePlasma": 0, "givePlatelet": 0, "regionCode": "016", "groupCode": "F50119", "latitude": 48.509176, "longitude": -4.073217, "name": "J2 AV", "postCode": "29400", "samplingLocationCode": "14", "horaires": null, "infos": null, "metro": null, "bus": null, "tram": null, "parking": null, "debutInfos": null, "finInfos": null, "ville": null, "id": null, "phone": null, "urlBlood": null, "urlPlasma": null, "urlPlatelets": null}
{"address1": null, "address2": "RUE CAPUCINS", "city": "LANDIVISIAU", "convocationLabel": "SALLE DE L'ESPACE DES CAPUCINS", "distance": 0.0, "fullAddress": "RUE CAPUCINS 29400 LANDIVISIAU", "giveBlood": 1, "givePlasma": 0, "givePlatelet": 0, "regionCode": "016", "groupCode": "F50119", "latitude": 48.509176, "longitude": -4.073217, "name": "J3 AV", "postCode": "29400", "samplingLocationCode": "15", "horaires": null, "infos": null, "metro": null, "bus": null, "tram": null, "parking": null, "debutInfos": null, "finInfos": null, "ville": null, "id": null, "phone": null, "urlBlood": null, "urlPlasma": null, "urlPlatelets": null}
{"address1": null, "address2": "RUE DES CAPUCINS", "city": "LANDIVISIAU", "convocationLabel": "SALLE DE L'ESPACE DES CAPUCINS", "distance": 0.0, "fullAddress": "RUE DES CAPUCINS 29400 LANDIVISIAU", "giveBlood": 1, "givePlasma": 0, "givePlatelet": 0, "regionCode": "016", "groupCode": "F50119", "latitude": 48.509176, "longitude": -4.073217, "name": "J3 JUIN", "postCode": "29400", "samplingLocationCode": "16", "horaires": null, "infos": null, "metro": null, "bus": null, "tram": null, "parking": null, "debutInfos": null, "finInfos": null, "ville": null, "id": null, "phone": null, "urlBlood": null, "urlPlasma": null, "urlPlatelets": null}
{"address1": null, "address2": "RUE DES CAPUCINS", "city": "LANDIVISIAU", "convocationLabel": "SALLE DE L'ESPACE DES CAPUCINS", "distance": 0.0, "fullAddress": "RUE DES CAPUCINS 29400 LANDIVISIAU", "giveBlood": 1, "givePlasma": 0, "givePlatelet": 0, "regionCode": "016", "groupCode": "F50119", "latitude": 48.50912094, "longitude": -4.07342577, "name": "LANDIVISIAU J1 SAMEDI", "postCode": "29400", "samplingLocationCode": "17", "horaires": null, "infos": null, "metro": null, "bus": null, "tram": null, "parking": null, "debutInfos": null, "finInfos": null, "ville": null, "id": null, "phone": null, "urlBlood": null, "urlPlasma": null, "urlPlatelets": null}
{"address1": null, "address2": "RUE DES CAPUCINS", "city": "LANDIVISIAU", "convocationLabel": "SALLE DE L'ESPACE DES CAPUCINS", "distance": 0.0, "fullAddress": "RUE DES CAPUCINS 29400 LANDIVISIAU", "giveBlood": 1, "givePlasma": 0, "givePlatelet": 0, "regionCode": "016", "groupCode": "F50119", "latitude": 48.50912094, "longitude": -4.07342577, "name": "LANDIVISIAU J4 MERCREDI", "postCode": "29400", "samplingLocationCode": "3", "horaires": null, "infos": null, "metro": null, "bus": null, "tram": null, "parking": null, "debutInfos": null, "finInfos": null, "ville": null, "id": null, "phone": null, "urlBlood": null, "urlPlasma": null, "urlPlatelets": null}
{"address1": null, "address2": "RUE DES CAPUCINS", "city": "LANDIVISIAU", "convocationLabel": "SALLE DE L'ESPACE DES CAPUCINS", "distance": 0.0, "fullAddress": "RUE DES CAPUCINS 29400 LANDIVISIAU", "giveBlood": 1, "givePlasma": 0, "givePlatelet": 0, "regionCode": "016", "groupCode": "F50119", "latitude": 48.509176, "longitude": -4.073217, "name": "J1 ETE", "postCode": "29400", "samplingLocationCode": "4", "horaires": null, "infos": null, "metro": null, "bus": null, "tram": null, "parking": null, "debutInfos": null, "finInfos": null, "ville": null, "id": null, "phone": null, "urlBlood": null, "urlPlasma": null, "urlPlatelets": null}
{"address1": null, "address2": "RUE DES CAPUCINS", "city": "LANDIVISIAU", "convocationLabel": "SALLE DE L'ESPACE DES CAPUCINS", "distance": 0.0, "fullAddress": "RUE DES CAPUCINS 29400 LANDIVISIAU", "giveBlood": 1, "givePlasma": 0, "givePlatelet": 0, "regionCode": "016", "groupCode": "F50119", "latitude": 48.509176, "longitude": -4.073217, "name": "J2 ETE", "postCode": "29400", "samplingLocationCode": "5", "horaires": null, "infos": null, "metro": null, "bus": null, "tram": null, "parking": null, "debutInfos": null, "finInfos": null, "ville": null, "id": null, "phone": null, "urlBlood": null, "urlPlasma": null, "urlPlatelets": null}
{"address1": null, "address2": "RUE DES CAPUCINS", "city": "LANDIVISIAU", "convocationLabel": "SALLE DE L'ESPACE DES CAPUCINS", "distance": 0.0, "fullAddress": "RUE DES CAPUCINS 29400 LANDIVISIAU", "giveBlood": 1, "givePlasma": 0, "givePlatelet": 0, "regionCode": "016", "groupCode": "F50119", "latitude": 48.509176, "longitude": -4.073217, "name": "J3 ETE6", "postCode": "29400", "samplingLocationCode": "6", "horaires": null, "infos": null, "metro": null, "bus": null, "tram": null, "parking": null, "debutInfos": null, "finInfos": null, "ville": null, "id": null, "phone": null, "urlBlood": null, "urlPlasma": null, "urlPlatelets": null}
{"address1": null, "address2": "RUE DES CAPUCINS", "city": "LANDIVISIAU", "convocationLabel": "SALLE DE L'ESPACE DES CAPUCINS", "distance": 0.0, "fullAddress": "RUE DES CAPUCINS 29400 LANDIVISIAU", "giveBlood": 1, "givePlasma": 0, "givePlatelet": 0, "regionCode": "016", "groupCode": "F50119", "latitude": 48.509176, "longitude": -4.073217, "name": "J1 NOV", "postCode": "29400", "samplingLocationCode": "7", "horaires": null, "infos": null, "metro": null, "bus": null, "tram": null, "parking": null, "debutInfos": null, "finInfos": null, "ville": null, "id": null, "phone": null, "urlBlood": null, "urlPlasma": null, "urlPlatelets": null}
{"address1": null, "address2": "RUE DES CAPUCINS", "city": "LANDIVISIAU", "convocationLabel": "SALLE DE L'ESPACE DES CAPUCINS", "distance": 0.0, "fullAddress": "RUE DES CAPUCINS 29400 LANDIVISIAU", "giveBlood": 1, "givePlasma": 0, "givePlatelet": 0, "regionCode": "016", "groupCode": "F50119", "latitude": 48.509176, "longitude": -4.073217, "name": "J2 JUIN", "postCode": "29400", "samplingLocationCode": "700", "horaires": null, "infos": null, "metro": null, "bus": null, "tram": null, "parking": null, "debutInfos": null, "finInfos": null, "ville": null, "id": null, "phone": null, "urlBlood": null, "urlPlasma": null, "urlPlatelets": null}
{"address1": null, "address2": "RUE DES CAPUCINS", "city": "LANDIVISIAU", "convocationLabel": "SALLE DE L'ESPACE DES CAPUCINS", "distance": 0.0, "fullAddress": "RUE DES CAPUCINS 29400 LANDIVISIAU", "giveBlood": 1, "givePlasma": 0, "givePlatelet": 0, "regionCode": "016", "groupCode": "F50119", "latitude": 48.509176, "longitude": -4.073217, "name": "J2", "postCode": "29400", "samplingLocationCode": "8", "horaires": null, "infos": null, "metro": null, "bus": null, "tram": null, "parking": null, "debutInfos": null, "finInfos": null, "ville": null, "id": null, "phone": null, "urlBlood": null, "urlPlasma": null, "urlPlatelets": null}
{"address1": null, "address2": "RUE DES CAPUCINS", "city": "LANDIVISIAU", "convocationLabel": "SALLE DE L'ESPACE DES CAPUCINS", "distance": 0.0, "fullAddress": "RUE DES CAPUCINS 29400 LANDIVISIAU", "giveBlood": 1, "givePlasma": 0, "givePlatelet": 0, "regionCode": "016", "groupCode": "F50119", "latitude": 48.50912094, "longitude": -4.07342577, "name": "LANDIVISIAU J1 VENDREDI", "postCode": "29400", "samplingLocationCode": "831", "horaires": null, "infos": null, "metro": null, "bus": null, "tram": null, "parking": null, "debutInfos": null, "finInfos": null, "ville": null, "id": null, "phone": null, "urlBlood": null, "urlPlasma": null, "urlPlatelets": null}
{"address1": null, "address2": "RUE DES CAPUCINS", "city": "LANDIVISIAU", "convocationLabel": "SALLE DE L'ESPACE DES CAPUCINS", "distance": 0.0, "fullAddress": "RUE DES CAPUCINS 29400 LANDIVISIAU", "giveBlood": 1, "givePlasma": 0, "givePlatelet": 0, "regionCode": "016", "groupCode": "F50119", "latitude": 48.509176, "longitude": -4.073217, "name": "J3", "postCode": "29400", "samplingLocationCode": "9", "horaires": null, "infos": null, "metro": null, "bus": null, "tram": null, "parking": null, "debutInfos": null, "finInfos": null, "ville": null, "id": null, "phone": null, "urlBlood": null, "urlPlasma": null, "urlPlatelets": null}
