{"address1": null, "address2": "3 RUE DES ILES", "city": "FOUESNANT", "convocationLabel": "RESTAURANT MUNICIPAL", "distance": 0.0, "fullAddress": "3 RUE DES ILES 29170 FOUESNANT", "giveBlood": 1, "givePlasma": 0, "givePlatelet": 0, "regionCode": "016", "groupCode": "F50071", "latitude": 47.894687, "longitude": -4.012844, "name": "FOUESNANT  RESTAURANT AM", "postCode": "29170", "samplingLocationCode": "1146", "horaires": null, "infos": null, "metro": null, "bus": null, "tram": null, "parking": null, "debutInfos": null, "finInfos": null, "ville": null, "id": null, "phone": null, "urlBlood": null, "urlPlasma": null, "urlPlatelets": null}
{"address1": null, "address2": "3 RUE DES ILES", "city": "FOUESNANT", "convocationLabel": "RESTAURANT SCOLAIRE", "distance": 0.0, "fullAddress": "3 RUE DES ILES 29170 FOUESNANT", "giveBlood": 1, "givePlasma": 0, "givePlatelet": 0, "regionCode": "016", "groupCode": "F50071", "latitude": 47.894687, "longitude": -4.012844, "name": "FOUESNANT Matin", "postCode": "29170", "samplingLocationCode": "2", "horaires": null, "infos": null, "metro": null, "bus": null, "tram": null, "parking": null, "debutInfos": null, "finInfos": null, "ville": null, "id": null, "phone": null, "urlBlood": null, "urlPlasma": null, "urlPlatelets": null}
{"address1": null, "address2": "49 RUE DE KEROURGUE", "city": "FOUESNANT", "convocationLabel": "POLE DE LA VIE ASSOCIATIVE KEROURGUE", "distance": 0.0, "fullAddress": "49 RUE DE KEROURGUE 29170 FOUESNANT", "giveBlood": 1, "givePlasma": 0, "givePlatelet": 0, "regionCode": "016", "groupCode": "F50071", "latitude": 47.89445496, "longitude": -4.01223564, "name": "FOUESNANT KEROURGUE AM", "postCode": "29170", "samplingLocationCode": "3", "horaires": null, "infos": null, "metro": null, "bus": null, "tram": null, "parking": null, "debutInfos": null, "finInfos": null, "ville": null, "id": null, "phone": null, "urlBlood": null, "urlPlasma": null, "urlPlatelets": null}
{"address1": null, "address2": "49 RUE DE KEROURGUE", "city": "FOUESNANT", "convocationLabel": "POLE DE LA VIE ASSOCIATIVE KEROURGUE", "distance": 0.0, "fullAddress": "49 RUE DE KEROURGUE 29170 FOUESNANT", "giveBlood": 1, "givePlasma": 0, "givePlatelet": 0, "regionCode": "016", "groupCode": "F50071", "latitude": 47.92053604, "longitude": -4.03113604, "name": "FOUESNANT KEROURGUE M", "postCode": "29170", "samplingLocationCode": "4", "horaires": null, "infos": null, "metro": null, "bus": null, "tram": null, "parking": null, "debutInfos": null, "finInfos": null, "ville": null, "id": null, "phone": null, "urlBlood": null, "urlPlasma": null, "urlPlatelets": null}
{"address1": null, "address2": "34 CHEMIN DU QUINQUIS", "city": "FOUESNANT", "convocationLabel": "POLE ASSOCIATIF DU QUINQUIS", "distance": 0.0, "fullAddress": "34 CHEMIN DU QUINQUIS 29170 FOUESNANT", "giveBlood": 1, "givePlasma": 0, "givePlatelet": 0, "regionCode": "016", "groupCode": "F50071", "latitude": 47.87054062, "longitude": -3.99703622, "name": "FOUESNANT QUINQUIS AM", "postCode": "29170", "samplingLocationCode": "5", "horaires": null, "infos": null, "metro": null, "bus": null, "tram": null, "parking": null, "debutInfos": null, "finInfos": null, "ville": null, "id": null, "phone": null, "urlBlood": null, "urlPlasma": null, "urlPlatelets": null}
