{"address1": null, "address2": "7 rue des Gr\u00e8ves", "city": "YFFINIAC", "convocationLabel": "SALLE DES FETES", "distance": 0.0, "fullAddress": "7 rue des Gr\u00e8ves 22120 YFFINIAC", "giveBlood": 1, "givePlasma": 0, "givePlatelet": 0, "regionCode": "016", "groupCode": "F10119", "latitude": 48.48606491, "longitude": -2.67744136, "name": "YFFINIAC sdf MAT", "postCode": "22120", "samplingLocationCode": "1266", "horaires": null, "infos": null, "metro": null, "bus": null, "tram": null, "parking": null, "debutInfos": null, "finInfos": null, "ville": null, "id": null, "phone": null, "urlBlood": null, "urlPlasma": null, "urlPlatelets": null}
{"address1": null, "address2": "Esplanade Fran\u00e7ois Mitterrand", "city": "YFFINIAC", "convocationLabel": "SALLE BELVEDERE", "distance": 0.0, "fullAddress": "Esplanade Fran\u00e7ois Mitterrand 22120 YFFINIAC", "giveBlood": 1, "givePlasma": 0, "givePlatelet": 0, "regionCode": "016", "groupCode": "F10119", "latitude": 48.495855, "longitude": -2.713838, "name": "YFFINIAC belv\u00e9d\u00e8re MAT", "postCode": "22120", "samplingLocationCode": "2", "horaires": null, "infos": null, "metro": null, "bus": null, "tram": null, "parking": null, "debutInfos": null, "finInfos": null, "ville": null, "id": null, "phone": null, "urlBlood": null, "urlPlasma": null, "urlPlatelets": null}
{"address1": null, "address2": "Rue Olivier Provost", "city": "HILLION", "convocationLabel": "SALLE DE LA PRESQU'ILE", "distance": 0.0, "fullAddress": "Rue Olivier Provost 22120 HILLION", "giveBlood": 1, "givePlasma": 0, "givePlatelet": 0, "regionCode": "016", "groupCode": "F10119", "latitude": 48.51597214, "longitude": -2.66750193, "name": "HILLION Presqu'ile MAT", "postCode": "22120", "samplingLocationCode": "3", "horaires": null, "infos": null, "metro": null, "bus": null, "tram": null, "parking": null, "debutInfos": null, "finInfos": null, "ville": null, "id": null, "phone": null, "urlBlood": null, "urlPlasma": null, "urlPlatelets": null}
{"address1": "Rue de Rennes", "address2": null, "city": "LANGUEUX", "convocationLabel": "SALLE MUNICIPALE", "distance": 0.0, "fullAddress": "Rue de Rennes 22360 LANGUEUX", "giveBlood": 1, "givePlasma": 0, "givePlatelet": 0, "regionCode": "016", "groupCode": "F10119", "latitude": 48.493015, "longitude": -2.708968, "name": "LANGUEUX apm", "postCode": "22360", "samplingLocationCode": "4", "horaires": null, "infos": null, "metro": null, "bus": null, "tram": null, "parking": null, "debutInfos": null, "finInfos": null, "ville": null, "id": null, "phone": null, "urlBlood": null, "urlPlasma": null, "urlPlatelets": null}
{"address1": null, "address2": "2 rue de Brest", "city": "LANGUEUX", "convocationLabel": "SALLE MUNICIPALE", "distance": 0.0, "fullAddress": "2 rue de Brest 22360 LANGUEUX", "giveBlood": 1, "givePlasma": 0, "givePlatelet": 0, "regionCode": "016", "groupCode": "F10119", "latitude": 48.494474, "longitude": -2.71475, "name": "LANGUEUX samedi", "postCode": "22360", "samplingLocationCode": "5", "horaires": null, "infos": null, "metro": null, "bus": null, "tram": null, "parking": null, "debutInfos": null, "finInfos": null, "ville": null, "id": null, "phone": null, "urlBlood": null, "urlPlasma": null, "urlPlatelets": null}
{"address1": null, "address2": "7 rue des Gr\u00e8ves", "city": "YFFINIAC", "convocationLabel": "SALLE DES FETES", "distance": 0.0, "fullAddress": "7 rue des Gr\u00e8ves 22120 YFFINIAC", "giveBlood": 1, "givePlasma": 0, "givePlatelet": 0, "regionCode": "016", "groupCode": "F10119", "latitude": 48.48616409, "longitude": -2.67732763, "name": "YFFINIAC  SDF sam", "postCode": "22120", "samplingLocationCode": "6", "horaires": null, "infos": null, "metro": null, "bus": null, "tram": null, "parking": null, "debutInfos": null, "finInfos": null, "ville": null, "id": null, "phone": null, "urlBlood": null, "urlPlasma": null, "urlPlatelets": null}
{"address1": null, "address2": "rue Fran\u00e7oise Dolto", "city": "YFFINIAC", "convocationLabel": "SALLE TRAIT D'UNION", "distance": 0.0, "fullAddress": "rue Fran\u00e7oise Dolto 22120 YFFINIAC", "giveBlood": 1, "givePlasma": 0, "givePlatelet": 0, "regionCode": "016", "groupCode": "F10119", "latitude": 48.472847, "longitude": -2.688301, "name": "YFFINIAC Trait d'Union", "postCode": "22120", "samplingLocationCode": "7", "horaires": null, "infos": null, "metro": null, "bus": null, "tram": null, "parking": null, "debutInfos": null, "finInfos": null, "ville": null, "id": null, "phone": null, "urlBlood": null, "urlPlasma": null, "urlPlatelets": null}
{"address1": null, "address2": "Rue Olivier Provost", "city": "HILLION", "convocationLabel": "SALLE PALANTE", "distance": 0.0, "fullAddress": "Rue Olivier Provost 22120 HILLION", "giveBlood": 1, "givePlasma": 0, "givePlatelet": 0, "regionCode": "016", "groupCode": "F10119", "latitude": 48.515541, "longitude": -2.667507, "name": "HILLION Palante SAM", "postCode": "22120", "samplingLocationCode": "8", "horaires": null, "infos": null, "metro": null, "bus": null, "tram": null, "parking": null, "debutInfos": null, "finInfos": null, "ville": null, "id": null, "phone": null, "urlBlood": null, "urlPlasma": null, "urlPlatelets": null}
