{"address1": "CHAMBRE DES METIERS ET CFA BATIMENT", "address2": "10 BOULEVARD DES ILES", "city": "VANNES", "convocationLabel": "SALLE CONFERENCE", "distance": 0.0, "fullAddress": "CHAMBRE DES METIERS ET CFA BATIMENT 10 BOULEVARD DES ILES 56000 VANNES", "giveBlood": 1, "givePlasma": 0, "givePlatelet": 0, "regionCode": "016", "groupCode": "F30146", "latitude": 47.652795, "longitude": -2.784709, "name": "CH. DES METIERS & CFA BATIMENT", "postCode": "56000", "samplingLocationCode": "1455", "horaires": null, "infos": null, "metro": null, "bus": null, "tram": null, "parking": null, "debutInfos": null, "finInfos": null, "ville": null, "id": null, "phone": null, "urlBlood": null, "urlPlasma": null, "urlPlatelets": null}
{"address1": "CHAMBRE DES METIERS ET CFA BATIMENT MORBIHAN", "address2": "10 BOULEVARD DES ILES", "city": "VANNES", "convocationLabel": "SALLE BELLE ILE", "distance": 0.0, "fullAddress": "CHAMBRE DES METIERS ET CFA BATIMENT MORBIHAN 10 BOULEVARD DES ILES 56000 VANNES", "giveBlood": 1, "givePlasma": 0, "givePlatelet": 0, "regionCode": "016", "groupCode": "F30146", "latitude": 47.652795, "longitude": -2.784709, "name": "CH. DES METIERS ET CFA BAT", "postCode": "56000", "samplingLocationCode": "2", "horaires": null, "infos": null, "metro": null, "bus": null, "tram": null, "parking": null, "debutInfos": null, "finInfos": null, "ville": null, "id": null, "phone": null, "urlBlood": null, "urlPlasma": null, "urlPlatelets": null}
{"address1": "CHAMBRE DES METIERS ET CFA BATIMENT", "address2": "10 BOULEVARD DES ILES", "city": "VANNES", "convocationLabel": "SALLE BELLE ILE", "distance": 0.0, "fullAddress": "CHAMBRE DES METIERS ET CFA BATIMENT 10 BOULEVARD DES ILES 56000 VANNES", "giveBlood": 1, "givePlasma": 0, "givePlatelet": 0, "regionCode": "016", "groupCode": "F30146", "latitude": 47.652795, "longitude": -2.784709, "name": "CH. DES METIERS-CFA  12  h 30 ", "postCode": "56000", "samplingLocationCode": "3", "horaires": null, "infos": null, "metro": null, "bus": null, "tram": null, "parking": null, "debutInfos": null, "finInfos": null, "ville": null, "id": null, "phone": null, "urlBlood": null, "urlPlasma": null, "urlPlatelets": null}
{"address1": "CHAMBRE DES METIERS ET CFA BATIMENT", "address2": "10 BOULEVARD DES ILES", "city": "VANNES", "convocationLabel": "SALLE BELLE ILE", "distance": 0.0, "fullAddress": "CHAMBRE DES METIERS ET CFA BATIMENT 10 BOULEVARD DES ILES 56000 VANNES", "giveBlood": 1, "givePlasma": 0, "givePlatelet": 0, "regionCode": "016", "groupCode": "F30146", "latitude": 47.65222549, "longitude": -2.78826308, "name": "CH.DES METIERS CFA 09 H 13 H", "postCode": "56000", "samplingLocationCode": "4", "horaires": null, "infos": null, "metro": null, "bus": null, "tram": null, "parking": null, "debutInfos": null, "finInfos": null, "ville": null, "id": null, "phone": null, "urlBlood": null, "urlPlasma": null, "urlPlatelets": null}
{"address1": "SALLE BELLE ILE", "address2": "10 BOULEVARD DES ILES", "city": "VANNES", "convocationLabel": "VANNES - CHAMBRE DES METIERS", "distance": 0.0, "fullAddress": "SALLE BELLE ILE 10 BOULEVARD DES ILES 56000 VANNES", "giveBlood": 1, "givePlasma": 0, "givePlatelet": 0, "regionCode": "016", "groupCode": "F30146", "latitude": 47.652795, "longitude": -2.784709, "name": "CH. DES METIERS CFA  08H30", "postCode": "56000", "samplingLocationCode": "5", "horaires": null, "infos": null, "metro": null, "bus": null, "tram": null, "parking": null, "debutInfos": null, "finInfos": null, "ville": null, "id": null, "phone": null, "urlBlood": null, "urlPlasma": null, "urlPlatelets": null}
