{"address1": "CREDIT MUTUEL ARKEA", "address2": "1 RUE LOUIS LICHOU", "city": "LE RELECQ KERHUON", "convocationLabel": "XANADU", "distance": 0.0, "fullAddress": "CREDIT MUTUEL ARKEA 1 RUE LOUIS LICHOU 29480 LE RELECQ KERHUON", "giveBlood": 1, "givePlasma": 0, "givePlatelet": 0, "regionCode": "016", "groupCode": "F50038", "latitude": 48.405425, "longitude": -4.418977, "name": "CREDIT MUTUEL ARKEA XANADU", "postCode": "29480", "samplingLocationCode": "2", "horaires": null, "infos": null, "metro": null, "bus": null, "tram": null, "parking": null, "debutInfos": null, "finInfos": null, "ville": null, "id": null, "phone": null, "urlBlood": null, "urlPlasma": null, "urlPlatelets": null}
{"address1": "RESTAURANT MIRABEAU", "address2": "1 RUE LOUIS LICHOU", "city": "LE RELECQ KERHUON", "convocationLabel": "CREDIT MUTUEL ARKEA", "distance": 0.0, "fullAddress": "RESTAURANT MIRABEAU 1 RUE LOUIS LICHOU 29480 LE RELECQ KERHUON", "giveBlood": 1, "givePlasma": 0, "givePlatelet": 0, "regionCode": "016", "groupCode": "F50038", "latitude": 48.405425, "longitude": -4.418977, "name": "C.M.A. LE RELECQ KERHUON J2", "postCode": "29480", "samplingLocationCode": "3", "horaires": null, "infos": null, "metro": null, "bus": null, "tram": null, "parking": null, "debutInfos": null, "finInfos": null, "ville": null, "id": null, "phone": null, "urlBlood": null, "urlPlasma": null, "urlPlatelets": null}
{"address1": "ESPACE COLLABORATIF", "address2": "1 RUE LOUIS LICHOU", "city": "LE RELECQ KERHUON", "convocationLabel": "CREDIT MUTUEL ARKEA", "distance": 0.0, "fullAddress": "ESPACE COLLABORATIF 1 RUE LOUIS LICHOU 29480 LE RELECQ KERHUON", "giveBlood": 1, "givePlasma": 0, "givePlatelet": 0, "regionCode": "016", "groupCode": "F50038", "latitude": 48.405425, "longitude": -4.418977, "name": "CMA J1 - ESPACE COLLABORATIF", "postCode": "29480", "samplingLocationCode": "4", "horaires": null, "infos": null, "metro": null, "bus": null, "tram": null, "parking": null, "debutInfos": null, "finInfos": null, "ville": null, "id": null, "phone": null, "urlBlood": null, "urlPlasma": null, "urlPlatelets": null}
{"address1": "ESPACE COLLABORATIF", "address2": "1 RUE LOUIS LICHOU", "city": "LE RELECQ KERHUON", "convocationLabel": "CREDIT MUTUEL ARKEA", "distance": 0.0, "fullAddress": "ESPACE COLLABORATIF 1 RUE LOUIS LICHOU 29480 LE RELECQ KERHUON", "giveBlood": 1, "givePlasma": 0, "givePlatelet": 0, "regionCode": "016", "groupCode": "F50038", "latitude": 48.405425, "longitude": -4.418977, "name": "CMA J2 - ESPACE COLLABORATIF", "postCode": "29480", "samplingLocationCode": "5", "horaires": null, "infos": null, "metro": null, "bus": null, "tram": null, "parking": null, "debutInfos": null, "finInfos": null, "ville": null, "id": null, "phone": null, "urlBlood": null, "urlPlasma": null, "urlPlatelets": null}
{"address1": "RESTAURANT MIRABEAU", "address2": "1 RUE LOUIS LICHOU", "city": "LE RELECQ KERHUON", "convocationLabel": "CREDIT MUTUEL ARKEA", "distance": 0.0, "fullAddress": "RESTAURANT MIRABEAU 1 RUE LOUIS LICHOU 29480 LE RELECQ KERHUON", "giveBlood": 1, "givePlasma": 0, "givePlatelet": 0, "regionCode": "016", "groupCode": "F50038", "latitude": 48.405425, "longitude": -4.418977, "name": "C.M.A. LE RELECQ KERHUON J1", "postCode": "29480", "samplingLocationCode": "809", "horaires": null, "infos": null, "metro": null, "bus": null, "tram": null, "parking": null, "debutInfos": null, "finInfos": null, "ville": null, "id": null, "phone": null, "urlBlood": null, "urlPlasma": null, "urlPlatelets": null}
