{"address1": null, "address2": "RUE DE LA FONTAINE", "city": "MOREAC", "convocationLabel": "SALLE POLYVALENTE", "distance": 0.0, "fullAddress": "RUE DE LA FONTAINE 56500 MOREAC", "giveBlood": 1, "givePlasma": 0, "givePlatelet": 0, "regionCode": "016", "groupCode": "F30327", "latitude": 47.918449, "longitude": -2.818249, "name": "MOREAC-SALLE POLYVALENTE  AM", "postCode": "56500", "samplingLocationCode": "1525", "horaires": null, "infos": null, "metro": null, "bus": null, "tram": null, "parking": null, "debutInfos": null, "finInfos": null, "ville": null, "id": null, "phone": null, "urlBlood": null, "urlPlasma": null, "urlPlatelets": null}
{"address1": null, "address2": "RUE DE LA FONTAINE", "city": "MOREAC", "convocationLabel": "SALLE POLYVALENTE", "distance": 0.0, "fullAddress": "RUE DE LA FONTAINE 56500 MOREAC", "giveBlood": 1, "givePlasma": 0, "givePlatelet": 0, "regionCode": "016", "groupCode": "F30327", "latitude": 47.918449, "longitude": -2.818249, "name": "MOREAC-SALLE POLYVALENTE  PM", "postCode": "56500", "samplingLocationCode": "2", "horaires": null, "infos": null, "metro": null, "bus": null, "tram": null, "parking": null, "debutInfos": null, "finInfos": null, "ville": null, "id": null, "phone": null, "urlBlood": null, "urlPlasma": null, "urlPlatelets": null}
{"address1": null, "address2": "RUE DE LA FONTAINE", "city": "MOREAC", "convocationLabel": "SALLE POLYVALENTE", "distance": 0.0, "fullAddress": "RUE DE LA FONTAINE 56500 MOREAC", "giveBlood": 1, "givePlasma": 0, "givePlatelet": 0, "regionCode": "016", "groupCode": "F30327", "latitude": 47.918449, "longitude": -2.818249, "name": "MOREAC-SALLE POLYVALENTE S", "postCode": "56500", "samplingLocationCode": "3", "horaires": null, "infos": null, "metro": null, "bus": null, "tram": null, "parking": null, "debutInfos": null, "finInfos": null, "ville": null, "id": null, "phone": null, "urlBlood": null, "urlPlasma": null, "urlPlatelets": null}
{"address1": "Salles Arvest et Breizh", "address2": "RUE DE KERAMOUR", "city": "MOREAC", "convocationLabel": "ESPACE AN TY ROZ", "distance": 0.0, "fullAddress": "Salles Arvest et Breizh RUE DE KERAMOUR 56500 MOREAC", "giveBlood": 1, "givePlasma": 0, "givePlatelet": 0, "regionCode": "016", "groupCode": "F30327", "latitude": 47.91610328834085, "longitude": -2.8197312355041504, "name": "MOREAC - AN TY ROZ ", "postCode": "56500", "samplingLocationCode": "4", "horaires": null, "infos": null, "metro": null, "bus": null, "tram": null, "parking": null, "debutInfos": null, "finInfos": null, "ville": null, "id": null, "phone": null, "urlBlood": null, "urlPlasma": null, "urlPlatelets": null}
{"address1": null, "address2": "RUE DE KERAMOUR", "city": "MOREAC", "convocationLabel": "ESPACE AN TY ROZ SALLE 1 ET 2", "distance": 0.0, "fullAddress": "RUE DE KERAMOUR 56500 MOREAC", "giveBlood": 1, "givePlasma": 0, "givePlatelet": 0, "regionCode": "016", "groupCode": "F30327", "latitude": 47.91588211, "longitude": -2.81973386, "name": "MOREAC AN TY ROZ 14H 18H", "postCode": "56500", "samplingLocationCode": "5", "horaires": null, "infos": null, "metro": null, "bus": null, "tram": null, "parking": null, "debutInfos": null, "finInfos": null, "ville": null, "id": null, "phone": null, "urlBlood": null, "urlPlasma": null, "urlPlatelets": null}
