{"address1": null, "address2": "AVENUE GUILLOUX", "city": "LANESTER", "convocationLabel": "SALLE DES F\u00caTES", "distance": 0.0, "fullAddress": "AVENUE GUILLOUX 56600 LANESTER", "giveBlood": 1, "givePlasma": 0, "givePlatelet": 0, "regionCode": "016", "groupCode": "F30245", "latitude": 47.764519, "longitude": -3.35104, "name": "LANESTER SALLE DES F\u00caTES", "postCode": "56600", "samplingLocationCode": "2", "horaires": null, "infos": null, "metro": null, "bus": null, "tram": null, "parking": null, "debutInfos": null, "finInfos": null, "ville": null, "id": null, "phone": null, "urlBlood": null, "urlPlasma": null, "urlPlatelets": null}
{"address1": null, "address2": "4 RUE GERARD PHILIPPE", "city": "LANESTER", "convocationLabel": "FOYER LAIQUE LANESTER", "distance": 0.0, "fullAddress": "4 RUE GERARD PHILIPPE 56600 LANESTER", "giveBlood": 1, "givePlasma": 0, "givePlatelet": 0, "regionCode": "016", "groupCode": "F30245", "latitude": 47.765652, "longitude": -3.358904, "name": "LANESTER FOYER LAIQUE", "postCode": "56600", "samplingLocationCode": "3", "horaires": null, "infos": null, "metro": null, "bus": null, "tram": null, "parking": null, "debutInfos": null, "finInfos": null, "ville": null, "id": null, "phone": null, "urlBlood": null, "urlPlasma": null, "urlPlatelets": null}
{"address1": null, "address2": "AVENUE GUILLOUX", "city": "LANESTER", "convocationLabel": "SALLE DES FETES", "distance": 0.0, "fullAddress": "AVENUE GUILLOUX 56600 LANESTER", "giveBlood": 1, "givePlasma": 0, "givePlatelet": 0, "regionCode": "016", "groupCode": "F30245", "latitude": 47.764519, "longitude": -3.35104, "name": "LANESTER SALLE DES FETES MATIN", "postCode": "56600", "samplingLocationCode": "4", "horaires": null, "infos": null, "metro": null, "bus": null, "tram": null, "parking": null, "debutInfos": null, "finInfos": null, "ville": null, "id": null, "phone": null, "urlBlood": null, "urlPlasma": null, "urlPlatelets": null}
{"address1": null, "address2": "AVENUE GUILLOUX", "city": "LANESTER", "convocationLabel": "SALLE DES FETES", "distance": 0.0, "fullAddress": "AVENUE GUILLOUX 56600 LANESTER", "giveBlood": 1, "givePlasma": 0, "givePlatelet": 0, "regionCode": "016", "groupCode": "F30245", "latitude": 47.764519, "longitude": -3.35104, "name": "LANESTER SALLE DES FETES- PM", "postCode": "56600", "samplingLocationCode": "5", "horaires": null, "infos": null, "metro": null, "bus": null, "tram": null, "parking": null, "debutInfos": null, "finInfos": null, "ville": null, "id": null, "phone": null, "urlBlood": null, "urlPlasma": null, "urlPlatelets": null}
{"address1": null, "address2": "PLACE DELAUNE", "city": "LANESTER", "convocationLabel": "QUAI 9 (Dock 1 et 2)", "distance": 0.0, "fullAddress": "PLACE DELAUNE 56600 LANESTER", "giveBlood": 1, "givePlasma": 0, "givePlatelet": 0, "regionCode": "016", "groupCode": "F30245", "latitude": 47.76421356, "longitude": -3.35044384, "name": "LANESTER-QUAI 9 MATIN", "postCode": "56600", "samplingLocationCode": "6", "horaires": null, "infos": null, "metro": null, "bus": null, "tram": null, "parking": null, "debutInfos": null, "finInfos": null, "ville": null, "id": null, "phone": null, "urlBlood": null, "urlPlasma": null, "urlPlatelets": null}
{"address1": null, "address2": "PLACE DELAUNE", "city": "LANESTER", "convocationLabel": "QUAI 9 (Dock 1 et 2)", "distance": 0.0, "fullAddress": "PLACE DELAUNE 56500 LANESTER", "giveBlood": 1, "givePlasma": 0, "givePlatelet": 0, "regionCode": "016", "groupCode": "F30245", "latitude": 47.76467514, "longitude": -3.35031509, "name": "LANESTER-QUAI 9 PM", "postCode": "56500", "samplingLocationCode": "7", "horaires": null, "infos": null, "metro": null, "bus": null, "tram": null, "parking": null, "debutInfos": null, "finInfos": null, "ville": null, "id": null, "phone": null, "urlBlood": null, "urlPlasma": null, "urlPlatelets": null}
{"address1": null, "address2": "RUE LOUIS ARAGON", "city": "LANESTER", "convocationLabel": "HOTEL DE VILLE", "distance": 0.0, "fullAddress": "RUE LOUIS ARAGON 56600 LANESTER", "giveBlood": 1, "givePlasma": 0, "givePlatelet": 0, "regionCode": "016", "groupCode": "F30245", "latitude": 47.763685, "longitude": -3.346766, "name": "LANESTER HOTEL DE VILLE", "postCode": "56600", "samplingLocationCode": "936", "horaires": null, "infos": null, "metro": null, "bus": null, "tram": null, "parking": null, "debutInfos": null, "finInfos": null, "ville": null, "id": null, "phone": null, "urlBlood": null, "urlPlasma": null, "urlPlatelets": null}
