{"address1": null, "address2": "Av. Gal de Gaulle", "city": "BINIC", "convocationLabel": "SALLE DE L'ESTRAN", "distance": 0.0, "fullAddress": "Av. Gal de Gaulle 22520 BINIC", "giveBlood": 1, "givePlasma": 0, "givePlatelet": 0, "regionCode": "016", "groupCode": "F10117", "latitude": 48.6012107, "longitude": -2.8302451, "name": "BINIC Estran AM1", "postCode": "22520", "samplingLocationCode": "1264", "horaires": null, "infos": null, "metro": null, "bus": null, "tram": null, "parking": null, "debutInfos": null, "finInfos": null, "ville": null, "id": null, "phone": null, "urlBlood": null, "urlPlasma": null, "urlPlatelets": null}
{"address1": null, "address2": "Av. Gal de Gaulle", "city": "BINIC", "convocationLabel": "SALLE DE L'ESTRAN", "distance": 0.0, "fullAddress": "Av. Gal de Gaulle 22520 BINIC", "giveBlood": 1, "givePlasma": 0, "givePlatelet": 0, "regionCode": "016", "groupCode": "F10117", "latitude": 48.6012107, "longitude": -2.8302451, "name": "BINIC Estran AM2", "postCode": "22520", "samplingLocationCode": "2", "horaires": null, "infos": null, "metro": null, "bus": null, "tram": null, "parking": null, "debutInfos": null, "finInfos": null, "ville": null, "id": null, "phone": null, "urlBlood": null, "urlPlasma": null, "urlPlatelets": null}
{"address1": null, "address2": "Av. Gal de Gaulle", "city": "BINIC", "convocationLabel": "SALLE DE L'ESTRAN", "distance": 0.0, "fullAddress": "Av. Gal de Gaulle 22520 BINIC", "giveBlood": 1, "givePlasma": 0, "givePlatelet": 0, "regionCode": "016", "groupCode": "F10117", "latitude": 48.617122, "longitude": -2.841613, "name": "BINIC Estran MAT", "postCode": "22520", "samplingLocationCode": "3", "horaires": null, "infos": null, "metro": null, "bus": null, "tram": null, "parking": null, "debutInfos": null, "finInfos": null, "ville": null, "id": null, "phone": null, "urlBlood": null, "urlPlasma": null, "urlPlatelets": null}
{"address1": null, "address2": "Avenue du G\u00e9n\u00e9ral de Gaulle", "city": "BINIC", "convocationLabel": "SALLE DE L'ESTRAN", "distance": 0.0, "fullAddress": "Avenue du G\u00e9n\u00e9ral de Gaulle 22520 BINIC", "giveBlood": 1, "givePlasma": 0, "givePlatelet": 0, "regionCode": "016", "groupCode": "F10117", "latitude": 48.6012107, "longitude": -2.8302451, "name": "BINIC Estran VEN", "postCode": "22520", "samplingLocationCode": "5", "horaires": null, "infos": null, "metro": null, "bus": null, "tram": null, "parking": null, "debutInfos": null, "finInfos": null, "ville": null, "id": null, "phone": null, "urlBlood": null, "urlPlasma": null, "urlPlatelets": null}
{"address1": null, "address2": "Av. Gal de Gaulle", "city": "BINIC", "convocationLabel": "SALLE DE L'ESTRAN", "distance": 0.0, "fullAddress": "Av. Gal de Gaulle 22520 BINIC", "giveBlood": 1, "givePlasma": 0, "givePlatelet": 0, "regionCode": "016", "groupCode": "F10117", "latitude": 48.617122, "longitude": -2.841613, "name": "BINIC 'Estran Sp\u00e9", "postCode": "22520", "samplingLocationCode": "6", "horaires": null, "infos": null, "metro": null, "bus": null, "tram": null, "parking": null, "debutInfos": null, "finInfos": null, "ville": null, "id": null, "phone": null, "urlBlood": null, "urlPlasma": null, "urlPlatelets": null}
