{"address1": null, "address2": "RUE D'ENGUERA", "city": "MELESSE", "convocationLabel": "SALLE POLYVALENTE", "distance": 0.0, "fullAddress": "RUE D'ENGUERA 35520 MELESSE", "giveBlood": 1, "givePlasma": 0, "givePlatelet": 0, "regionCode": "016", "groupCode": "F70132", "latitude": 48.21908951, "longitude": -1.69876695, "name": "MELESSE SEM", "postCode": "35520", "samplingLocationCode": "145", "horaires": null, "infos": null, "metro": null, "bus": null, "tram": null, "parking": null, "debutInfos": null, "finInfos": null, "ville": null, "id": null, "phone": null, "urlBlood": null, "urlPlasma": null, "urlPlatelets": null}
{"address1": null, "address2": "RUE D'ENGUERA", "city": "MELESSE", "convocationLabel": "SALLE POLYVALENTE", "distance": 0.0, "fullAddress": "RUE D'ENGUERA 35520 MELESSE", "giveBlood": 1, "givePlasma": 0, "givePlatelet": 0, "regionCode": "016", "groupCode": "F70132", "latitude": 48.218933, "longitude": -1.699045, "name": "MELESSE VEILLE FERIE MAT", "postCode": "35520", "samplingLocationCode": "2", "horaires": null, "infos": null, "metro": null, "bus": null, "tram": null, "parking": null, "debutInfos": null, "finInfos": null, "ville": null, "id": null, "phone": null, "urlBlood": null, "urlPlasma": null, "urlPlatelets": null}
{"address1": null, "address2": "RUE D'ENGUERA", "city": "MELESSE", "convocationLabel": "SALLE POLYVALENTE", "distance": 0.0, "fullAddress": "RUE D'ENGUERA 35520 MELESSE", "giveBlood": 1, "givePlasma": 0, "givePlatelet": 0, "regionCode": "016", "groupCode": "F70132", "latitude": 48.21908951, "longitude": -1.69876695, "name": "2 MELESSE-SALLE POLY AM ", "postCode": "35520", "samplingLocationCode": "3", "horaires": null, "infos": null, "metro": null, "bus": null, "tram": null, "parking": null, "debutInfos": null, "finInfos": null, "ville": null, "id": null, "phone": null, "urlBlood": null, "urlPlasma": null, "urlPlatelets": null}
{"address1": null, "address2": "5 MAIL DU CHAMP COURTIN", "city": "MELESSE", "convocationLabel": "SALLE LE CHAMPS COURTIN", "distance": 0.0, "fullAddress": "5 MAIL DU CHAMP COURTIN 35520 MELESSE", "giveBlood": 1, "givePlasma": 0, "givePlatelet": 0, "regionCode": "016", "groupCode": "F70132", "latitude": 48.219365, "longitude": -1.688582, "name": "2 MELESSE-SALLE COURTIN AM ", "postCode": "35520", "samplingLocationCode": "4", "horaires": null, "infos": null, "metro": null, "bus": null, "tram": null, "parking": null, "debutInfos": null, "finInfos": null, "ville": null, "id": null, "phone": null, "urlBlood": null, "urlPlasma": null, "urlPlatelets": null}
{"address1": null, "address2": "5 MAIL DU CHAMP COURTIN", "city": "MELESSE", "convocationLabel": "SALLE LE CHAMPS COURTIN", "distance": 0.0, "fullAddress": "5 MAIL DU CHAMP COURTIN 35520 MELESSE", "giveBlood": 1, "givePlasma": 0, "givePlatelet": 0, "regionCode": "016", "groupCode": "F70132", "latitude": 48.218933, "longitude": -1.698761, "name": "2 MELESSE-SALLE COURTIN MAT", "postCode": "35520", "samplingLocationCode": "5", "horaires": null, "infos": null, "metro": null, "bus": null, "tram": null, "parking": null, "debutInfos": null, "finInfos": null, "ville": null, "id": null, "phone": null, "urlBlood": null, "urlPlasma": null, "urlPlatelets": null}
