{"address1": null, "address2": "RUE DE LA CLAIE", "city": "BIGNAN", "convocationLabel": "SALLE DES FETES", "distance": 0.0, "fullAddress": "RUE DE LA CLAIE 56500 BIGNAN", "giveBlood": 1, "givePlasma": 0, "givePlatelet": 0, "regionCode": "016", "groupCode": "F30111", "latitude": 47.878136, "longitude": -2.769894, "name": "BIGNAN SALLE DES FETES AM", "postCode": "56500", "samplingLocationCode": "1515", "horaires": null, "infos": null, "metro": null, "bus": null, "tram": null, "parking": null, "debutInfos": null, "finInfos": null, "ville": null, "id": null, "phone": null, "urlBlood": null, "urlPlasma": null, "urlPlatelets": null}
{"address1": null, "address2": "RUE DE LA CLAIE", "city": "BIGNAN", "convocationLabel": "SALLE DES FETES", "distance": 0.0, "fullAddress": "RUE DE LA CLAIE 56500 BIGNAN", "giveBlood": 1, "givePlasma": 0, "givePlatelet": 0, "regionCode": "016", "groupCode": "F30111", "latitude": 47.878136, "longitude": -2.769894, "name": "BIGNAN PM", "postCode": "56500", "samplingLocationCode": "2", "horaires": null, "infos": null, "metro": null, "bus": null, "tram": null, "parking": null, "debutInfos": null, "finInfos": null, "ville": null, "id": null, "phone": null, "urlBlood": null, "urlPlasma": null, "urlPlatelets": null}
{"address1": null, "address2": "RUE YVES LE THIES", "city": "BIGNAN", "convocationLabel": "SALLE DES SPORTS", "distance": 0.0, "fullAddress": "RUE YVES LE THIES 56500 BIGNAN", "giveBlood": 1, "givePlasma": 0, "givePlatelet": 0, "regionCode": "016", "groupCode": "F30111", "latitude": 47.877259, "longitude": -2.773293, "name": "SALLE DE SPORTS PM", "postCode": "56500", "samplingLocationCode": "3", "horaires": null, "infos": null, "metro": null, "bus": null, "tram": null, "parking": null, "debutInfos": null, "finInfos": null, "ville": null, "id": null, "phone": null, "urlBlood": null, "urlPlasma": null, "urlPlatelets": null}
{"address1": null, "address2": "RUE YVES LE THIES", "city": "BIGNAN", "convocationLabel": "SALLE DES SPORTS", "distance": 0.0, "fullAddress": "RUE YVES LE THIES 56500 BIGNAN", "giveBlood": 1, "givePlasma": 0, "givePlatelet": 0, "regionCode": "016", "groupCode": "F30111", "latitude": 47.877259, "longitude": -2.773293, "name": "SALLE DE SPORTS AM", "postCode": "56500", "samplingLocationCode": "4", "horaires": null, "infos": null, "metro": null, "bus": null, "tram": null, "parking": null, "debutInfos": null, "finInfos": null, "ville": null, "id": null, "phone": null, "urlBlood": null, "urlPlasma": null, "urlPlatelets": null}
{"address1": null, "address2": "RUE DE LA CLAIE", "city": "BIGNAN", "convocationLabel": "SALLE DES FETES", "distance": 0.0, "fullAddress": "RUE DE LA CLAIE 56500 BIGNAN", "giveBlood": 1, "givePlasma": 0, "givePlatelet": 0, "regionCode": "016", "groupCode": "F30111", "latitude": 47.878136, "longitude": -2.769894, "name": "BIGNAN 15 H 19 H", "postCode": "56500", "samplingLocationCode": "5", "horaires": null, "infos": null, "metro": null, "bus": null, "tram": null, "parking": null, "debutInfos": null, "finInfos": null, "ville": null, "id": null, "phone": null, "urlBlood": null, "urlPlasma": null, "urlPlatelets": null}
{"address1": null, "address2": "RUE DE LA CLAIE", "city": "BIGNAN", "convocationLabel": "SALLE DES FETES", "distance": 0.0, "fullAddress": "RUE DE LA CLAIE 56500 BIGNAN", "giveBlood": 1, "givePlasma": 0, "givePlatelet": 0, "regionCode": "016", "groupCode": "F30111", "latitude": 47.87729645, "longitude": -2.76792169, "name": "BIGNAN 14 h 45 - 18 h 45", "postCode": "56500", "samplingLocationCode": "6", "horaires": null, "infos": null, "metro": null, "bus": null, "tram": null, "parking": null, "debutInfos": null, "finInfos": null, "ville": null, "id": null, "phone": null, "urlBlood": null, "urlPlasma": null, "urlPlatelets": null}
