{"address1": null, "address2": "Quai Loti", "city": "PAIMPOL", "convocationLabel": "SALLE DES FETES", "distance": 0.0, "fullAddress": "Quai Loti 22500 PAIMPOL", "giveBlood": 1, "givePlasma": 0, "givePlatelet": 0, "regionCode": "016", "groupCode": "F10129", "latitude": 48.7825832, "longitude": -3.0451112, "name": "PAIMPOL sdf AM1", "postCode": "22500", "samplingLocationCode": "1276", "horaires": null, "infos": null, "metro": null, "bus": null, "tram": null, "parking": null, "debutInfos": null, "finInfos": null, "ville": null, "id": null, "phone": null, "urlBlood": null, "urlPlasma": null, "urlPlatelets": null}
{"address1": null, "address2": "QUAI LOTI", "city": "PAIMPOL", "convocationLabel": "SALLE DES FETES", "distance": 0.0, "fullAddress": "QUAI LOTI 22500 PAIMPOL", "giveBlood": 1, "givePlasma": 0, "givePlatelet": 0, "regionCode": "016", "groupCode": "F10129", "latitude": 48.7825832, "longitude": -3.0451112, "name": "PAIMPOL sdf VEN", "postCode": "22500", "samplingLocationCode": "2", "horaires": null, "infos": null, "metro": null, "bus": null, "tram": null, "parking": null, "debutInfos": null, "finInfos": null, "ville": null, "id": null, "phone": null, "urlBlood": null, "urlPlasma": null, "urlPlatelets": null}
{"address1": null, "address2": "Quai Loti", "city": "PAIMPOL", "convocationLabel": "SALLE DES FETES", "distance": 0.0, "fullAddress": "Quai Loti 22500 PAIMPOL", "giveBlood": 1, "givePlasma": 0, "givePlatelet": 0, "regionCode": "016", "groupCode": "F10129", "latitude": 48.78198624, "longitude": -3.0448904, "name": "PAIMPOL sdf MAT1", "postCode": "22500", "samplingLocationCode": "3", "horaires": null, "infos": null, "metro": null, "bus": null, "tram": null, "parking": null, "debutInfos": null, "finInfos": null, "ville": null, "id": null, "phone": null, "urlBlood": null, "urlPlasma": null, "urlPlatelets": null}
{"address1": null, "address2": "Place de la Mairie", "city": "KERFOT", "convocationLabel": "SALLE D'ANIMATION COMMUNALE", "distance": 0.0, "fullAddress": "Place de la Mairie 22500 KERFOT", "giveBlood": 1, "givePlasma": 0, "givePlatelet": 0, "regionCode": "016", "groupCode": "F10129", "latitude": 48.737828, "longitude": -3.027911, "name": "KERFOT", "postCode": "22500", "samplingLocationCode": "4", "horaires": null, "infos": null, "metro": null, "bus": null, "tram": null, "parking": null, "debutInfos": null, "finInfos": null, "ville": null, "id": null, "phone": null, "urlBlood": null, "urlPlasma": null, "urlPlatelets": null}
