{"address1": null, "address2": "RUE BRETIGNE", "city": "RANNEE", "convocationLabel": "SALLE DU TEMPS LIBRE", "distance": 0.0, "fullAddress": "RUE BRETIGNE 35130 RANNEE", "giveBlood": 1, "givePlasma": 0, "givePlatelet": 0, "regionCode": "016", "groupCode": "F70096", "latitude": 47.92428207, "longitude": -1.23927414, "name": "LA GUERCHE DE BRETAGNE RAN AM", "postCode": "35130", "samplingLocationCode": "10", "horaires": null, "infos": null, "metro": null, "bus": null, "tram": null, "parking": null, "debutInfos": null, "finInfos": null, "ville": null, "id": null, "phone": null, "urlBlood": null, "urlPlasma": null, "urlPlatelets": null}
{"address1": null, "address2": "RUE DE LA  VANNERIE", "city": "LA GUERCHE DE BRETAGNE", "convocationLabel": "SALLE POLYVALENTE DE LA VANNERIE", "distance": 0.0, "fullAddress": "RUE DE LA  VANNERIE 35130 LA GUERCHE DE BRETAGNE", "giveBlood": 1, "givePlasma": 0, "givePlatelet": 0, "regionCode": "016", "groupCode": "F70096", "latitude": 47.93588, "longitude": -1.239592, "name": "LA GUERCHE DE BGNE 1430 1900", "postCode": "35130", "samplingLocationCode": "109", "horaires": null, "infos": null, "metro": null, "bus": null, "tram": null, "parking": null, "debutInfos": null, "finInfos": null, "ville": null, "id": null, "phone": null, "urlBlood": null, "urlPlasma": null, "urlPlatelets": null}
{"address1": null, "address2": "RUE DE LA VANNERIE", "city": "LA GUERCHE DE BRETAGNE", "convocationLabel": "SALLE POLYVALENTE DE LA VANNERIE", "distance": 0.0, "fullAddress": "RUE DE LA VANNERIE 35130 LA GUERCHE DE BRETAGNE", "giveBlood": 1, "givePlasma": 0, "givePlatelet": 0, "regionCode": "016", "groupCode": "F70096", "latitude": 47.9373436, "longitude": -1.23502505, "name": "2 LA GUERCHE-VANNERIE AM", "postCode": "35130", "samplingLocationCode": "11", "horaires": null, "infos": null, "metro": null, "bus": null, "tram": null, "parking": null, "debutInfos": null, "finInfos": null, "ville": null, "id": null, "phone": null, "urlBlood": null, "urlPlasma": null, "urlPlatelets": null}
{"address1": null, "address2": "RUE DE LA VANNERIE", "city": "LA GUERCHE DE BRETAGNE", "convocationLabel": "SALLE POLYVALENTE DE LA VANNERIE", "distance": 0.0, "fullAddress": "RUE DE LA VANNERIE 35130 LA GUERCHE DE BRETAGNE", "giveBlood": 1, "givePlasma": 0, "givePlatelet": 0, "regionCode": "016", "groupCode": "F70096", "latitude": 47.93588, "longitude": -1.239592, "name": "2 LA GUERCHE-VANNERIE J+ DAM", "postCode": "35130", "samplingLocationCode": "12", "horaires": null, "infos": null, "metro": null, "bus": null, "tram": null, "parking": null, "debutInfos": null, "finInfos": null, "ville": null, "id": null, "phone": null, "urlBlood": null, "urlPlasma": null, "urlPlatelets": null}
{"address1": null, "address2": "RUE DE LA VANNERIE", "city": "LA GUERCHE DE BRETAGNE", "convocationLabel": "SALLE POLYVALENTE DE LA VANNERIE", "distance": 0.0, "fullAddress": "RUE DE LA VANNERIE 35130 LA GUERCHE DE BRETAGNE", "giveBlood": 1, "givePlasma": 0, "givePlatelet": 0, "regionCode": "016", "groupCode": "F70096", "latitude": 47.9377618766012, "longitude": -1.2351310238591395, "name": "2 LA GUERCHE-VANNERIE MAT", "postCode": "35130", "samplingLocationCode": "13", "horaires": null, "infos": null, "metro": null, "bus": null, "tram": null, "parking": null, "debutInfos": null, "finInfos": null, "ville": null, "id": null, "phone": null, "urlBlood": null, "urlPlasma": null, "urlPlatelets": null}
{"address1": null, "address2": "RUE DE LA VANNERIE", "city": "LA GUERCHE DE BRETAGNE", "convocationLabel": "SALLE POLYVALENTE DE LA VANNERIE", "distance": 0.0, "fullAddress": "RUE DE LA VANNERIE 35130 LA GUERCHE DE BRETAGNE", "giveBlood": 1, "givePlasma": 0, "givePlatelet": 0, "regionCode": "016", "groupCode": "F70096", "latitude": 47.9373436, "longitude": -1.23502505, "name": "2 LA GUERCHE-VANNERIE AM J+", "postCode": "35130", "samplingLocationCode": "14", "horaires": null, "infos": null, "metro": null, "bus": null, "tram": null, "parking": null, "debutInfos": null, "finInfos": null, "ville": null, "id": null, "phone": null, "urlBlood": null, "urlPlasma": null, "urlPlatelets": null}
{"address1": null, "address2": "RUE LA VANNERIE", "city": "LA GUERCHE DE BRETAGNE", "convocationLabel": "SALLE POLYVALENTE DE LA VANNERIE", "distance": 0.0, "fullAddress": "RUE LA VANNERIE 35130 LA GUERCHE DE BRETAGNE", "giveBlood": 1, "givePlasma": 0, "givePlatelet": 0, "regionCode": "016", "groupCode": "F70096", "latitude": 47.93588, "longitude": -1.239592, "name": "2 LA GUERCHE-VANNERIE VE AM", "postCode": "35130", "samplingLocationCode": "15", "horaires": null, "infos": null, "metro": null, "bus": null, "tram": null, "parking": null, "debutInfos": null, "finInfos": null, "ville": null, "id": null, "phone": null, "urlBlood": null, "urlPlasma": null, "urlPlatelets": null}
{"address1": null, "address2": "RUE DE LA VANNERIE", "city": "LA GUERCHE DE BRETAGNE", "convocationLabel": "SALLE POLYVALENTE DE LA VANNERIE", "distance": 0.0, "fullAddress": "RUE DE LA VANNERIE 35130 LA GUERCHE DE BRETAGNE", "giveBlood": 1, "givePlasma": 0, "givePlatelet": 0, "regionCode": "016", "groupCode": "F70096", "latitude": 47.9373436, "longitude": -1.23502505, "name": "2 LA GUERCHE-VANNERIE MAT J+", "postCode": "35130", "samplingLocationCode": "16", "horaires": null, "infos": null, "metro": null, "bus": null, "tram": null, "parking": null, "debutInfos": null, "finInfos": null, "ville": null, "id": null, "phone": null, "urlBlood": null, "urlPlasma": null, "urlPlatelets": null}
{"address1": null, "address2": "RUE DE LA VANNERIE", "city": "LA GUERCHE DE BRETAGNE", "convocationLabel": "SALLE POLYVALENTE DE LA VANNERIE", "distance": 0.0, "fullAddress": "RUE DE LA VANNERIE 35130 LA GUERCHE DE BRETAGNE", "giveBlood": 1, "givePlasma": 0, "givePlatelet": 0, "regionCode": "016", "groupCode": "F70096", "latitude": 47.93588, "longitude": -1.239592, "name": "2 LA GUERCHE-VANNERIE JO", "postCode": "35130", "samplingLocationCode": "2", "horaires": null, "infos": null, "metro": null, "bus": null, "tram": null, "parking": null, "debutInfos": null, "finInfos": null, "ville": null, "id": null, "phone": null, "urlBlood": null, "urlPlasma": null, "urlPlatelets": null}
{"address1": null, "address2": "RUE DE LA VANNERIE", "city": "LA GUERCHE DE BRETAGNE", "convocationLabel": "SALLE POLYVALENTE DE LA VANNERIE", "distance": 0.0, "fullAddress": "RUE DE LA VANNERIE 35130 LA GUERCHE DE BRETAGNE", "giveBlood": 1, "givePlasma": 0, "givePlatelet": 0, "regionCode": "016", "groupCode": "F70096", "latitude": 47.93588, "longitude": -1.239592, "name": "LA GUERCHE DE BRETAGNE MAT", "postCode": "35130", "samplingLocationCode": "3", "horaires": null, "infos": null, "metro": null, "bus": null, "tram": null, "parking": null, "debutInfos": null, "finInfos": null, "ville": null, "id": null, "phone": null, "urlBlood": null, "urlPlasma": null, "urlPlatelets": null}
{"address1": null, "address2": "RUE DE LA VANNERIE", "city": "LA GUERCHE DE BRETAGNE", "convocationLabel": "SALLE POLYVALENTE DE LA VANNERIE", "distance": 0.0, "fullAddress": "RUE DE LA VANNERIE 35130 LA GUERCHE DE BRETAGNE", "giveBlood": 1, "givePlasma": 0, "givePlatelet": 0, "regionCode": "016", "groupCode": "F70096", "latitude": 47.93588, "longitude": -1.239592, "name": "LA GUERCHE DE BRETAGNE AM", "postCode": "35130", "samplingLocationCode": "4", "horaires": null, "infos": null, "metro": null, "bus": null, "tram": null, "parking": null, "debutInfos": null, "finInfos": null, "ville": null, "id": null, "phone": null, "urlBlood": null, "urlPlasma": null, "urlPlatelets": null}
{"address1": null, "address2": "RUE DE LA VANNERIE", "city": "LA GUERCHE DE BRETAGNE", "convocationLabel": "SALLE POLYVALENTE DE LA VANNERIE", "distance": 0.0, "fullAddress": "RUE DE LA VANNERIE 35130 LA GUERCHE DE BRETAGNE", "giveBlood": 1, "givePlasma": 0, "givePlatelet": 0, "regionCode": "016", "groupCode": "F70096", "latitude": 47.93588, "longitude": -1.239592, "name": "LA GUERCHE DE BRETAGNE SA ", "postCode": "35130", "samplingLocationCode": "5", "horaires": null, "infos": null, "metro": null, "bus": null, "tram": null, "parking": null, "debutInfos": null, "finInfos": null, "ville": null, "id": null, "phone": null, "urlBlood": null, "urlPlasma": null, "urlPlatelets": null}
{"address1": null, "address2": "RUE DE LA VANNERIE", "city": "LA GUERCHE DE BRETAGNE", "convocationLabel": "SALLE POLYVALENTE DE LA VANNERIE", "distance": 0.0, "fullAddress": "RUE DE LA VANNERIE 35130 LA GUERCHE DE BRETAGNE", "giveBlood": 1, "givePlasma": 0, "givePlatelet": 0, "regionCode": "016", "groupCode": "F70096", "latitude": 47.93588, "longitude": -1.239592, "name": "LA GUERCHE DE BRETAGNE SA AM", "postCode": "35130", "samplingLocationCode": "6", "horaires": null, "infos": null, "metro": null, "bus": null, "tram": null, "parking": null, "debutInfos": null, "finInfos": null, "ville": null, "id": null, "phone": null, "urlBlood": null, "urlPlasma": null, "urlPlatelets": null}
{"address1": null, "address2": null, "city": null, "convocationLabel": null, "distance": 0.0, "fullAddress": "35130", "giveBlood": 1, "givePlasma": 0, "givePlatelet": 0, "regionCode": "016", "groupCode": "F70096", "latitude": 0.0, "longitude": 0.0, "name": "LA GUERCHE DE BRETAGNE SA AM", "postCode": "35130", "samplingLocationCode": "7", "horaires": null, "infos": null, "metro": null, "bus": null, "tram": null, "parking": null, "debutInfos": null, "finInfos": null, "ville": null, "id": null, "phone": null, "urlBlood": null, "urlPlasma": null, "urlPlatelets": null}
{"address1": null, "address2": "RUE DE LA  VANNERIE", "city": "LA GUERCHE DE BRETAGNE", "convocationLabel": "SALLE POLYVALENTE DE LA VANNERIE", "distance": 0.0, "fullAddress": "RUE DE LA  VANNERIE 35130 LA GUERCHE DE BRETAGNE", "giveBlood": 1, "givePlasma": 0, "givePlatelet": 0, "regionCode": "016", "groupCode": "F70096", "latitude": 47.93588, "longitude": -1.239592, "name": "LA GUERCHE DE BGNE 9H30- 13H", "postCode": "35130", "samplingLocationCode": "8", "horaires": null, "infos": null, "metro": null, "bus": null, "tram": null, "parking": null, "debutInfos": null, "finInfos": null, "ville": null, "id": null, "phone": null, "urlBlood": null, "urlPlasma": null, "urlPlatelets": null}
{"address1": null, "address2": "RUE DE BRETIGNE", "city": "RANNEE", "convocationLabel": "SALLE DU TEMPS LIBRE", "distance": 0.0, "fullAddress": "RUE DE BRETIGNE 35130 RANNEE", "giveBlood": 1, "givePlasma": 0, "givePlatelet": 0, "regionCode": "016", "groupCode": "F70096", "latitude": 47.92428207, "longitude": -1.23927414, "name": "LA GUERCHE DE BRETAGNE RAN MAT", "postCode": "35130", "samplingLocationCode": "9", "horaires": null, "infos": null, "metro": null, "bus": null, "tram": null, "parking": null, "debutInfos": null, "finInfos": null, "ville": null, "id": null, "phone": null, "urlBlood": null, "urlPlasma": null, "urlPlatelets": null}
