{"address1": "SALLES 120-121-122", "address2": "8 RUE MONTAIGNE", "city": "VANNES", "convocationLabel": "I.U.T KERCADO", "distance": 0.0, "fullAddress": "SALLES 120-121-122 8 RUE MONTAIGNE 56000 VANNES", "giveBlood": 1, "givePlasma": 0, "givePlatelet": 0, "regionCode": "016", "groupCode": "F30214", "latitude": 47.644681, "longitude": -2.776592, "name": "VANNES I.U.T Kercado 09 H 16 H", "postCode": "56000", "samplingLocationCode": "1427", "horaires": null, "infos": null, "metro": null, "bus": null, "tram": null, "parking": null, "debutInfos": null, "finInfos": null, "ville": null, "id": null, "phone": null, "urlBlood": null, "urlPlasma": null, "urlPlatelets": null}
{"address1": "SALLES 120-121-122", "address2": "8 RUE MONTAIGNE", "city": "VANNES", "convocationLabel": "I.U.T KERCADO", "distance": 0.0, "fullAddress": "SALLES 120-121-122 8 RUE MONTAIGNE 56000 VANNES", "giveBlood": 1, "givePlasma": 0, "givePlatelet": 0, "regionCode": "016", "groupCode": "F30214", "latitude": 47.6442337, "longitude": -2.77658749, "name": "VANNES I.U.T Kercado 9 H 13H", "postCode": "56000", "samplingLocationCode": "2", "horaires": null, "infos": null, "metro": null, "bus": null, "tram": null, "parking": null, "debutInfos": null, "finInfos": null, "ville": null, "id": null, "phone": null, "urlBlood": null, "urlPlasma": null, "urlPlatelets": null}
{"address1": "IUT KERCADO", "address2": "8 RUE MONTAIGNE", "city": "VANNES", "convocationLabel": "SALLES 120 - 121 - 122", "distance": 0.0, "fullAddress": "IUT KERCADO 8 RUE MONTAIGNE 56000 VANNES", "giveBlood": 1, "givePlasma": 0, "givePlatelet": 0, "regionCode": "016", "groupCode": "F30214", "latitude": 47.644681, "longitude": -2.776592, "name": "I.U.T. KERCADO JO", "postCode": "56000", "samplingLocationCode": "3", "horaires": null, "infos": null, "metro": null, "bus": null, "tram": null, "parking": null, "debutInfos": null, "finInfos": null, "ville": null, "id": null, "phone": null, "urlBlood": null, "urlPlasma": null, "urlPlatelets": null}
{"address1": "SALLES 120-121-122", "address2": "8 RUE MONTAIGNE", "city": "VANNES", "convocationLabel": "I.U.T KERCADO", "distance": 0.0, "fullAddress": "SALLES 120-121-122 8 RUE MONTAIGNE 56000 VANNES", "giveBlood": 1, "givePlasma": 0, "givePlatelet": 0, "regionCode": "016", "groupCode": "F30214", "latitude": 47.644681, "longitude": -2.776592, "name": "VANNES I.U.T Kercado 12H 16H", "postCode": "56000", "samplingLocationCode": "4", "horaires": null, "infos": null, "metro": null, "bus": null, "tram": null, "parking": null, "debutInfos": null, "finInfos": null, "ville": null, "id": null, "phone": null, "urlBlood": null, "urlPlasma": null, "urlPlatelets": null}
{"address1": "SALLES 120-121-122", "address2": "8 RUE MONTAIGNE", "city": "VANNES", "convocationLabel": "I.U.T KERCADO ", "distance": 0.0, "fullAddress": "SALLES 120-121-122 8 RUE MONTAIGNE 56000 VANNES", "giveBlood": 1, "givePlasma": 0, "givePlatelet": 0, "regionCode": "016", "groupCode": "F30214", "latitude": 47.644681, "longitude": -2.776592, "name": "VANNES I.U.T Kercado 8 H 30 ", "postCode": "56000", "samplingLocationCode": "5", "horaires": null, "infos": null, "metro": null, "bus": null, "tram": null, "parking": null, "debutInfos": null, "finInfos": null, "ville": null, "id": null, "phone": null, "urlBlood": null, "urlPlasma": null, "urlPlatelets": null}
