{"address1": "SALLE DES FETES", "address2": "RUE DU STADE", "city": "CRACH", "convocationLabel": "ESPACE DES CHENES", "distance": 0.0, "fullAddress": "SALLE DES FETES RUE DU STADE 56950 CRACH", "giveBlood": 1, "givePlasma": 0, "givePlatelet": 0, "regionCode": "016", "groupCode": "F30162", "latitude": 47.62041473, "longitude": -3.00272155, "name": "CRACH  15H-18H45", "postCode": "56950", "samplingLocationCode": "1", "horaires": null, "infos": null, "metro": null, "bus": null, "tram": null, "parking": null, "debutInfos": null, "finInfos": null, "ville": null, "id": null, "phone": null, "urlBlood": null, "urlPlasma": null, "urlPlatelets": null}
{"address1": "SALLE DES FETES", "address2": "RUE DU STADE", "city": "CRACH", "convocationLabel": "ESPACE DES CHENES", "distance": 0.0, "fullAddress": "SALLE DES FETES RUE DU STADE 56950 CRACH", "giveBlood": 1, "givePlasma": 0, "givePlatelet": 0, "regionCode": "016", "groupCode": "F30162", "latitude": 47.62049866, "longitude": -3.0028758, "name": "CRACH 9 H - 13 H", "postCode": "56950", "samplingLocationCode": "2", "horaires": null, "infos": null, "metro": null, "bus": null, "tram": null, "parking": null, "debutInfos": null, "finInfos": null, "ville": null, "id": null, "phone": null, "urlBlood": null, "urlPlasma": null, "urlPlatelets": null}
{"address1": null, "address2": "RUE DU STADE", "city": "CRACH", "convocationLabel": "ESPACE DES CHENES", "distance": 0.0, "fullAddress": "RUE DU STADE 56950 CRACH", "giveBlood": 1, "givePlasma": 0, "givePlatelet": 0, "regionCode": "016", "groupCode": "F30162", "latitude": 47.620418, "longitude": -3.003655, "name": "CRACH AM", "postCode": "56950", "samplingLocationCode": "3", "horaires": null, "infos": null, "metro": null, "bus": null, "tram": null, "parking": null, "debutInfos": null, "finInfos": null, "ville": null, "id": null, "phone": null, "urlBlood": null, "urlPlasma": null, "urlPlatelets": null}
{"address1": null, "address2": "RUE JEAN FRANCOIS GOUZER", "city": "SAINT PHILIBERT", "convocationLabel": "SALLE LE MOUSKER", "distance": 0.0, "fullAddress": "RUE JEAN FRANCOIS GOUZER 56470 SAINT PHILIBERT", "giveBlood": 1, "givePlasma": 0, "givePlatelet": 0, "regionCode": "016", "groupCode": "F30162", "latitude": 47.588052, "longitude": -3.002472, "name": "SAINT PHILIBERT (PM)", "postCode": "56470", "samplingLocationCode": "4", "horaires": null, "infos": null, "metro": null, "bus": null, "tram": null, "parking": null, "debutInfos": null, "finInfos": null, "ville": null, "id": null, "phone": null, "urlBlood": null, "urlPlasma": null, "urlPlatelets": null}
{"address1": null, "address2": "Rue Jean Fran\u00e7ois Gouzer", "city": "SAINT PHILIBERT", "convocationLabel": "SALLE LE MOUSKER", "distance": 0.0, "fullAddress": "Rue Jean Fran\u00e7ois Gouzer 56470 SAINT PHILIBERT", "giveBlood": 1, "givePlasma": 0, "givePlatelet": 0, "regionCode": "016", "groupCode": "F30162", "latitude": 47.588052, "longitude": -3.002472, "name": "SAINT PHILIBERT (AM)", "postCode": "56470", "samplingLocationCode": "5", "horaires": null, "infos": null, "metro": null, "bus": null, "tram": null, "parking": null, "debutInfos": null, "finInfos": null, "ville": null, "id": null, "phone": null, "urlBlood": null, "urlPlasma": null, "urlPlatelets": null}
