{"address1": null, "address2": "RUE DU PRESBYTERE", "city": "RIEC SUR BELON", "convocationLabel": "SALLE DES FETES N\u00b03", "distance": 0.0, "fullAddress": "RUE DU PRESBYTERE 29340 RIEC SUR BELON", "giveBlood": 1, "givePlasma": 0, "givePlatelet": 0, "regionCode": "016", "groupCode": "F30377", "latitude": 47.843575, "longitude": -3.694362, "name": "RIEC SUR BELON SALLE 3 - 8H45", "postCode": "29340", "samplingLocationCode": "10", "horaires": null, "infos": null, "metro": null, "bus": null, "tram": null, "parking": null, "debutInfos": null, "finInfos": null, "ville": null, "id": null, "phone": null, "urlBlood": null, "urlPlasma": null, "urlPlatelets": null}
{"address1": null, "address2": "RUE DE PRESBYTERE", "city": "RIEC SUR BELON", "convocationLabel": "SALLE DES FETES N\u00b03", "distance": 0.0, "fullAddress": "RUE DE PRESBYTERE 29340 RIEC SUR BELON", "giveBlood": 1, "givePlasma": 0, "givePlatelet": 0, "regionCode": "016", "groupCode": "F30377", "latitude": 47.843575, "longitude": -3.694362, "name": "RIEC SUR BELON N\u00b03 14H 18H", "postCode": "29340", "samplingLocationCode": "11", "horaires": null, "infos": null, "metro": null, "bus": null, "tram": null, "parking": null, "debutInfos": null, "finInfos": null, "ville": null, "id": null, "phone": null, "urlBlood": null, "urlPlasma": null, "urlPlatelets": null}
{"address1": null, "address2": null, "city": "RIEC SUR BELON", "convocationLabel": "MAISON DES ASSOCIATIONS", "distance": 0.0, "fullAddress": "29340 RIEC SUR BELON", "giveBlood": 1, "givePlasma": 0, "givePlatelet": 0, "regionCode": "016", "groupCode": "F30377", "latitude": 47.849497, "longitude": -3.680762, "name": "RIEC BELON ASSOCIATION", "postCode": "29340", "samplingLocationCode": "2", "horaires": null, "infos": null, "metro": null, "bus": null, "tram": null, "parking": null, "debutInfos": null, "finInfos": null, "ville": null, "id": null, "phone": null, "urlBlood": null, "urlPlasma": null, "urlPlatelets": null}
{"address1": null, "address2": "3 RUE DE LA PAIX", "city": "RIEC SUR BELON", "convocationLabel": "MAISON DU TEMPS LIBRE", "distance": 0.0, "fullAddress": "3 RUE DE LA PAIX 29340 RIEC SUR BELON", "giveBlood": 1, "givePlasma": 0, "givePlatelet": 0, "regionCode": "016", "groupCode": "F30377", "latitude": 47.84297943, "longitude": -3.68745232, "name": "RIEC BELON TEMPS LIBRE14h30", "postCode": "29340", "samplingLocationCode": "3", "horaires": null, "infos": null, "metro": null, "bus": null, "tram": null, "parking": null, "debutInfos": null, "finInfos": null, "ville": null, "id": null, "phone": null, "urlBlood": null, "urlPlasma": null, "urlPlatelets": null}
{"address1": null, "address2": "RUE DES VIEUX CHENES", "city": "RIEC SUR BELON", "convocationLabel": "SALLE POLYVALENTE", "distance": 0.0, "fullAddress": "RUE DES VIEUX CHENES 29340 RIEC SUR BELON", "giveBlood": 1, "givePlasma": 0, "givePlatelet": 0, "regionCode": "016", "groupCode": "F30377", "latitude": 47.84187, "longitude": -3.691454, "name": "RIEC BELON SALLE POLYV 08 h 45", "postCode": "29340", "samplingLocationCode": "4", "horaires": null, "infos": null, "metro": null, "bus": null, "tram": null, "parking": null, "debutInfos": null, "finInfos": null, "ville": null, "id": null, "phone": null, "urlBlood": null, "urlPlasma": null, "urlPlatelets": null}
{"address1": null, "address2": "RUE DES VIEUX CHENES", "city": "RIEC SUR BELON", "convocationLabel": "SALLE POLYVALENTE", "distance": 0.0, "fullAddress": "RUE DES VIEUX CHENES 29340 RIEC SUR BELON", "giveBlood": 1, "givePlasma": 0, "givePlatelet": 0, "regionCode": "016", "groupCode": "F30377", "latitude": 47.84187, "longitude": -3.691454, "name": "RIEC SALLE POLYV 14 h 30", "postCode": "29340", "samplingLocationCode": "6", "horaires": null, "infos": null, "metro": null, "bus": null, "tram": null, "parking": null, "debutInfos": null, "finInfos": null, "ville": null, "id": null, "phone": null, "urlBlood": null, "urlPlasma": null, "urlPlatelets": null}
{"address1": null, "address2": "RUE DE PRESBYTERE", "city": "RIEC SUR BELON", "convocationLabel": "SALLE DES FETES N\u00b03", "distance": 0.0, "fullAddress": "RUE DE PRESBYTERE 29340 RIEC SUR BELON", "giveBlood": 1, "givePlasma": 0, "givePlatelet": 0, "regionCode": "016", "groupCode": "F30377", "latitude": 47.84362793, "longitude": -3.69433475, "name": "RIEC SUR BELON SALLE 3", "postCode": "29340", "samplingLocationCode": "7", "horaires": null, "infos": null, "metro": null, "bus": null, "tram": null, "parking": null, "debutInfos": null, "finInfos": null, "ville": null, "id": null, "phone": null, "urlBlood": null, "urlPlasma": null, "urlPlatelets": null}
{"address1": null, "address2": "RUE DU PRESBYTERE", "city": "RIEC SUR BELON", "convocationLabel": "SALLE DES FETES N\u00b03", "distance": 0.0, "fullAddress": "RUE DU PRESBYTERE 29340 RIEC SUR BELON", "giveBlood": 1, "givePlasma": 0, "givePlatelet": 0, "regionCode": "016", "groupCode": "F30377", "latitude": 47.843575, "longitude": -3.694362, "name": "RIEC SUR BELON N\u00b03 12 h - 16 h", "postCode": "29340", "samplingLocationCode": "8", "horaires": null, "infos": null, "metro": null, "bus": null, "tram": null, "parking": null, "debutInfos": null, "finInfos": null, "ville": null, "id": null, "phone": null, "urlBlood": null, "urlPlasma": null, "urlPlatelets": null}
{"address1": null, "address2": "3 RUE DE LA PAIX", "city": "RIEC SUR BELON", "convocationLabel": "MAISON DU TEMPS LIBRE", "distance": 0.0, "fullAddress": "3 RUE DE LA PAIX 29340 RIEC SUR BELON", "giveBlood": 1, "givePlasma": 0, "givePlatelet": 0, "regionCode": "016", "groupCode": "F30377", "latitude": 47.842945, "longitude": -3.689836, "name": "RIEC SUR BELON MTL 12 - 16 H", "postCode": "29340", "samplingLocationCode": "9", "horaires": null, "infos": null, "metro": null, "bus": null, "tram": null, "parking": null, "debutInfos": null, "finInfos": null, "ville": null, "id": null, "phone": null, "urlBlood": null, "urlPlasma": null, "urlPlatelets": null}
{"address1": null, "address2": "3 RUE DE LA PAIX", "city": "RIEC SUR BELON", "convocationLabel": "MAISON DU TEMPS LIBRE", "distance": 0.0, "fullAddress": "3 RUE DE LA PAIX 29340 RIEC SUR BELON", "giveBlood": 1, "givePlasma": 0, "givePlatelet": 0, "regionCode": "016", "groupCode": "F30377", "latitude": 47.842945, "longitude": -3.689836, "name": "RIEC BELON TEMPS LIBRE AM", "postCode": "29340", "samplingLocationCode": "954", "horaires": null, "infos": null, "metro": null, "bus": null, "tram": null, "parking": null, "debutInfos": null, "finInfos": null, "ville": null, "id": null, "phone": null, "urlBlood": null, "urlPlasma": null, "urlPlatelets": null}
