{"address1": "LYCEE LA TOUCHE", "address2": "ROUTE DE DINAN BP 38", "city": "PLOERMEL", "convocationLabel": null, "distance": 0.0, "fullAddress": "LYCEE LA TOUCHE ROUTE DE DINAN BP 38 56800 PLOERMEL", "giveBlood": 1, "givePlasma": 0, "givePlatelet": 0, "regionCode": "016", "groupCode": "F30304", "latitude": 47.883894, "longitude": -2.342296, "name": "LYCEE LA TOUCHE PLOERMEL", "postCode": "56800", "samplingLocationCode": "1554", "horaires": null, "infos": null, "metro": null, "bus": null, "tram": null, "parking": null, "debutInfos": null, "finInfos": null, "ville": null, "id": null, "phone": null, "urlBlood": null, "urlPlasma": null, "urlPlatelets": null}
{"address1": "LYCEE LA TOUCHE", "address2": "ROUTE DE DINAN BP 38", "city": "PLOERMEL", "convocationLabel": null, "distance": 0.0, "fullAddress": "LYCEE LA TOUCHE ROUTE DE DINAN BP 38 56800 PLOERMEL", "giveBlood": 1, "givePlasma": 0, "givePlatelet": 0, "regionCode": "016", "groupCode": "F30304", "latitude": 47.883894, "longitude": -2.342296, "name": "LYCEE LA TOUCHE (LUNDI)", "postCode": "56800", "samplingLocationCode": "2", "horaires": null, "infos": null, "metro": null, "bus": null, "tram": null, "parking": null, "debutInfos": null, "finInfos": null, "ville": null, "id": null, "phone": null, "urlBlood": null, "urlPlasma": null, "urlPlatelets": null}
{"address1": "LYCEE LA TOUCHE", "address2": "ROUTE DE DINAN BP 38", "city": "PLOERMEL", "convocationLabel": "LYCEE LA TOUCHE", "distance": 0.0, "fullAddress": "LYCEE LA TOUCHE ROUTE DE DINAN BP 38 56800 PLOERMEL", "giveBlood": 1, "givePlasma": 0, "givePlatelet": 0, "regionCode": "016", "groupCode": "F30304", "latitude": 47.883894, "longitude": -2.342296, "name": "PLOERMEL-Lyc La Touche AM", "postCode": "56800", "samplingLocationCode": "3", "horaires": null, "infos": null, "metro": null, "bus": null, "tram": null, "parking": null, "debutInfos": null, "finInfos": null, "ville": null, "id": null, "phone": null, "urlBlood": null, "urlPlasma": null, "urlPlatelets": null}
{"address1": "LYCEE LA TOUCHE", "address2": "ROUTE DE DINAN BP 38", "city": "PLOERMEL", "convocationLabel": "PLOERMEL - LYCEE LA TOUCHE", "distance": 0.0, "fullAddress": "LYCEE LA TOUCHE ROUTE DE DINAN BP 38 56800 PLOERMEL", "giveBlood": 1, "givePlasma": 0, "givePlatelet": 0, "regionCode": "016", "groupCode": "F30304", "latitude": 47.883894, "longitude": -2.342296, "name": "PLOERMEL- La Touche 12 h 16 h", "postCode": "56800", "samplingLocationCode": "4", "horaires": null, "infos": null, "metro": null, "bus": null, "tram": null, "parking": null, "debutInfos": null, "finInfos": null, "ville": null, "id": null, "phone": null, "urlBlood": null, "urlPlasma": null, "urlPlatelets": null}
{"address1": "SALLE CONFERENCE LES GENETS", "address2": "ROUTE DE DINAN", "city": "PLOERMEL", "convocationLabel": "PLOERMEL LYCEE LA TOUCHE", "distance": 0.0, "fullAddress": "SALLE CONFERENCE LES GENETS ROUTE DE DINAN 56800 PLOERMEL", "giveBlood": 1, "givePlasma": 0, "givePlatelet": 0, "regionCode": "016", "groupCode": "F30304", "latitude": 47.928769, "longitude": -2.424504, "name": " LA TOUCHE LES GENETS 12-16 h", "postCode": "56800", "samplingLocationCode": "5", "horaires": null, "infos": null, "metro": null, "bus": null, "tram": null, "parking": null, "debutInfos": null, "finInfos": null, "ville": null, "id": null, "phone": null, "urlBlood": null, "urlPlasma": null, "urlPlatelets": null}
{"address1": "SALLE CONFERENCE LES GENETS", "address2": "ROUTE DE DINAN", "city": "PLOERMEL", "convocationLabel": "PLOERMEL LYCEE LA TOUCHE", "distance": 0.0, "fullAddress": "SALLE CONFERENCE LES GENETS ROUTE DE DINAN 56800 PLOERMEL", "giveBlood": 1, "givePlasma": 0, "givePlatelet": 0, "regionCode": "016", "groupCode": "F30304", "latitude": 47.929042, "longitude": -2.423629, "name": "LA TOUCHE LES GENETS 9H -13H", "postCode": "56800", "samplingLocationCode": "6", "horaires": null, "infos": null, "metro": null, "bus": null, "tram": null, "parking": null, "debutInfos": null, "finInfos": null, "ville": null, "id": null, "phone": null, "urlBlood": null, "urlPlasma": null, "urlPlatelets": null}
