{"address1": null, "address2": "16 RUE BELLE ETOILE", "city": "ROHAN", "convocationLabel": "SALLE LA BELLE ETOILE", "distance": 0.0, "fullAddress": "16 RUE BELLE ETOILE 56580 ROHAN", "giveBlood": 1, "givePlasma": 0, "givePlatelet": 0, "regionCode": "016", "groupCode": "F30380", "latitude": 48.070754, "longitude": -2.750429, "name": "ROHAN M", "postCode": "56580", "samplingLocationCode": "1", "horaires": null, "infos": null, "metro": null, "bus": null, "tram": null, "parking": null, "debutInfos": null, "finInfos": null, "ville": null, "id": null, "phone": null, "urlBlood": null, "urlPlasma": null, "urlPlatelets": null}
{"address1": null, "address2": "16 RUE DE LA BELLE ETOILE", "city": "ROHAN", "convocationLabel": "SALLE LA BELLE ETOILE", "distance": 0.0, "fullAddress": "16 RUE DE LA BELLE ETOILE 56580 ROHAN", "giveBlood": 1, "givePlasma": 0, "givePlatelet": 0, "regionCode": "016", "groupCode": "F30380", "latitude": 48.070754, "longitude": -2.750429, "name": "ROHAN 15 h 00 - 18 h 30", "postCode": "56580", "samplingLocationCode": "10", "horaires": null, "infos": null, "metro": null, "bus": null, "tram": null, "parking": null, "debutInfos": null, "finInfos": null, "ville": null, "id": null, "phone": null, "urlBlood": null, "urlPlasma": null, "urlPlatelets": null}
{"address1": null, "address2": "RUE SAINT YVES", "city": "CREDIN", "convocationLabel": "SALLE DES FETES SAL KERZHIN", "distance": 0.0, "fullAddress": "RUE SAINT YVES 56580 CREDIN", "giveBlood": 1, "givePlasma": 0, "givePlatelet": 0, "regionCode": "016", "groupCode": "F30380", "latitude": 48.034557, "longitude": -2.764954, "name": "CREDIN 15 H -18 H 30", "postCode": "56580", "samplingLocationCode": "11", "horaires": null, "infos": null, "metro": null, "bus": null, "tram": null, "parking": null, "debutInfos": null, "finInfos": null, "ville": null, "id": null, "phone": null, "urlBlood": null, "urlPlasma": null, "urlPlatelets": null}
{"address1": null, "address2": "RUE DE LA SALLE DES FETES", "city": "BREHAN", "convocationLabel": "SALLE DES FETES OUESSANT ET POMPORT", "distance": 0.0, "fullAddress": "RUE DE LA SALLE DES FETES 56580 BREHAN", "giveBlood": 1, "givePlasma": 0, "givePlatelet": 0, "regionCode": "016", "groupCode": "F30380", "latitude": 48.062678, "longitude": -2.68812, "name": "BREHAN 15 H - 18 H 30", "postCode": "56580", "samplingLocationCode": "12", "horaires": null, "infos": null, "metro": null, "bus": null, "tram": null, "parking": null, "debutInfos": null, "finInfos": null, "ville": null, "id": null, "phone": null, "urlBlood": null, "urlPlasma": null, "urlPlatelets": null}
{"address1": null, "address2": "RUE DE LA SALLE DES FETES", "city": "BREHAN", "convocationLabel": "SALLE DES FETES OUESSANT ET POMPORT", "distance": 0.0, "fullAddress": "RUE DE LA SALLE DES FETES 56580 BREHAN", "giveBlood": 1, "givePlasma": 0, "givePlatelet": 0, "regionCode": "016", "groupCode": "F30380", "latitude": 48.06417084, "longitude": -2.68886089, "name": "BREHAN 14 H 45 - 18 H 30", "postCode": "56580", "samplingLocationCode": "13", "horaires": null, "infos": null, "metro": null, "bus": null, "tram": null, "parking": null, "debutInfos": null, "finInfos": null, "ville": null, "id": null, "phone": null, "urlBlood": null, "urlPlasma": null, "urlPlatelets": null}
{"address1": null, "address2": "16 RUE DE LA BELLE ETOILE", "city": "ROHAN", "convocationLabel": "SALLE LA BELLE ETOILE", "distance": 0.0, "fullAddress": "16 RUE DE LA BELLE ETOILE 56580 ROHAN", "giveBlood": 1, "givePlasma": 0, "givePlatelet": 0, "regionCode": "016", "groupCode": "F30380", "latitude": 48.07077026, "longitude": -2.75031495, "name": "ROHAN 14h45-18h30", "postCode": "56580", "samplingLocationCode": "14", "horaires": null, "infos": null, "metro": null, "bus": null, "tram": null, "parking": null, "debutInfos": null, "finInfos": null, "ville": null, "id": null, "phone": null, "urlBlood": null, "urlPlasma": null, "urlPlatelets": null}
{"address1": null, "address2": "RUE SAINT YVES", "city": "CREDIN", "convocationLabel": "CREDIN-SALLE DES FETES SAL KERZHIN", "distance": 0.0, "fullAddress": "RUE SAINT YVES 56580 CREDIN", "giveBlood": 1, "givePlasma": 0, "givePlatelet": 0, "regionCode": "016", "groupCode": "F30380", "latitude": 48.034557, "longitude": -2.764954, "name": "CREDIN 14 H 45 - 18 H 30", "postCode": "56580", "samplingLocationCode": "15", "horaires": null, "infos": null, "metro": null, "bus": null, "tram": null, "parking": null, "debutInfos": null, "finInfos": null, "ville": null, "id": null, "phone": null, "urlBlood": null, "urlPlasma": null, "urlPlatelets": null}
{"address1": null, "address2": "16 RUE DE LA BELLE ETOILE", "city": "ROHAN", "convocationLabel": "SALLE LA BELLE ETOILE", "distance": 0.0, "fullAddress": "16 RUE DE LA BELLE ETOILE 56580 ROHAN", "giveBlood": 1, "givePlasma": 0, "givePlatelet": 0, "regionCode": "016", "groupCode": "F30380", "latitude": 48.070754, "longitude": -2.750429, "name": "ROHAN   PM", "postCode": "56580", "samplingLocationCode": "2", "horaires": null, "infos": null, "metro": null, "bus": null, "tram": null, "parking": null, "debutInfos": null, "finInfos": null, "ville": null, "id": null, "phone": null, "urlBlood": null, "urlPlasma": null, "urlPlatelets": null}
{"address1": null, "address2": "16 RUE DE LA BELLE ETOILE", "city": "ROHAN", "convocationLabel": "SALLE LA BELLE ETOILE", "distance": 0.0, "fullAddress": "16 RUE DE LA BELLE ETOILE 56580 ROHAN", "giveBlood": 1, "givePlasma": 0, "givePlatelet": 0, "regionCode": "016", "groupCode": "F30380", "latitude": 48.07076263, "longitude": -2.75024962, "name": "ROHAN 15 H - 19 H", "postCode": "56580", "samplingLocationCode": "3", "horaires": null, "infos": null, "metro": null, "bus": null, "tram": null, "parking": null, "debutInfos": null, "finInfos": null, "ville": null, "id": null, "phone": null, "urlBlood": null, "urlPlasma": null, "urlPlatelets": null}
{"address1": null, "address2": "RUE ST YVES", "city": "CREDIN", "convocationLabel": "SALLE DES FETES", "distance": 0.0, "fullAddress": "RUE ST YVES 56580 CREDIN", "giveBlood": 1, "givePlasma": 0, "givePlatelet": 0, "regionCode": "016", "groupCode": "F30380", "latitude": 48.034557, "longitude": -2.764954, "name": "CREDIN SALLE DES FETES S", "postCode": "56580", "samplingLocationCode": "4", "horaires": null, "infos": null, "metro": null, "bus": null, "tram": null, "parking": null, "debutInfos": null, "finInfos": null, "ville": null, "id": null, "phone": null, "urlBlood": null, "urlPlasma": null, "urlPlatelets": null}
{"address1": null, "address2": "BOURG", "city": "CREDIN", "convocationLabel": "SALLE DES FETES DE CREDIN", "distance": 0.0, "fullAddress": "BOURG 56580 CREDIN", "giveBlood": 1, "givePlasma": 0, "givePlatelet": 0, "regionCode": "016", "groupCode": "F30380", "latitude": 48.065174, "longitude": -2.752789, "name": "CREDIN S (LORIENT)", "postCode": "56580", "samplingLocationCode": "5", "horaires": null, "infos": null, "metro": null, "bus": null, "tram": null, "parking": null, "debutInfos": null, "finInfos": null, "ville": null, "id": null, "phone": null, "urlBlood": null, "urlPlasma": null, "urlPlatelets": null}
{"address1": null, "address2": "RUE DE LA SALLE DES FETES", "city": "BREHAN", "convocationLabel": "SALLE DES FETES OUESSANT ET POMPORT", "distance": 0.0, "fullAddress": "RUE DE LA SALLE DES FETES 56580 BREHAN", "giveBlood": 1, "givePlasma": 0, "givePlatelet": 0, "regionCode": "016", "groupCode": "F30380", "latitude": 48.062678, "longitude": -2.68812, "name": "BREHAN S", "postCode": "56580", "samplingLocationCode": "6", "horaires": null, "infos": null, "metro": null, "bus": null, "tram": null, "parking": null, "debutInfos": null, "finInfos": null, "ville": null, "id": null, "phone": null, "urlBlood": null, "urlPlasma": null, "urlPlatelets": null}
{"address1": null, "address2": "RUE ST YVES", "city": "CREDIN", "convocationLabel": "SALLE POLYVALENTE DU COMPLEXE SPORTIF", "distance": 0.0, "fullAddress": "RUE ST YVES 56580 CREDIN", "giveBlood": 1, "givePlasma": 0, "givePlatelet": 0, "regionCode": "016", "groupCode": "F30380", "latitude": 48.034557, "longitude": -2.764954, "name": "CREDIN COMPLEXE SPORTIF", "postCode": "56580", "samplingLocationCode": "7", "horaires": null, "infos": null, "metro": null, "bus": null, "tram": null, "parking": null, "debutInfos": null, "finInfos": null, "ville": null, "id": null, "phone": null, "urlBlood": null, "urlPlasma": null, "urlPlatelets": null}
{"address1": null, "address2": "RUE ST YVES", "city": "CREDIN", "convocationLabel": "SALLE DE SPORT DU COMPLEXE SPORTIF", "distance": 0.0, "fullAddress": "RUE ST YVES 56580 CREDIN", "giveBlood": 1, "givePlasma": 0, "givePlatelet": 0, "regionCode": "016", "groupCode": "F30380", "latitude": 48.034557, "longitude": -2.764954, "name": "CREDIN SALLE DE SPORT", "postCode": "56580", "samplingLocationCode": "8", "horaires": null, "infos": null, "metro": null, "bus": null, "tram": null, "parking": null, "debutInfos": null, "finInfos": null, "ville": null, "id": null, "phone": null, "urlBlood": null, "urlPlasma": null, "urlPlatelets": null}
{"address1": null, "address2": "RUE SAINT VYES", "city": "CREDIN", "convocationLabel": "SALLE DES FETES", "distance": 0.0, "fullAddress": "RUE SAINT VYES 56580 CREDIN", "giveBlood": 1, "givePlasma": 0, "givePlatelet": 0, "regionCode": "016", "groupCode": "F30380", "latitude": 48.034557, "longitude": -2.764954, "name": "CREDIN 12 H - 15 H 15", "postCode": "56580", "samplingLocationCode": "9", "horaires": null, "infos": null, "metro": null, "bus": null, "tram": null, "parking": null, "debutInfos": null, "finInfos": null, "ville": null, "id": null, "phone": null, "urlBlood": null, "urlPlasma": null, "urlPlatelets": null}
