{"address1": null, "address2": "20 RUE DES ECOLES", "city": "LANVEOC", "convocationLabel": "ECOLE PUBLIQUE", "distance": 0.0, "fullAddress": "20 RUE DES ECOLES 29160 LANVEOC", "giveBlood": 1, "givePlasma": 0, "givePlatelet": 0, "regionCode": "016", "groupCode": "F50124", "latitude": 48.28757858, "longitude": -4.46440363, "name": "LANVEOC J2", "postCode": "29160", "samplingLocationCode": "2", "horaires": null, "infos": null, "metro": null, "bus": null, "tram": null, "parking": null, "debutInfos": null, "finInfos": null, "ville": null, "id": null, "phone": null, "urlBlood": null, "urlPlasma": null, "urlPlatelets": null}
{"address1": null, "address2": "10 RUE NOMINOE", "city": "CROZON", "convocationLabel": "COLLEGE ALAIN", "distance": 0.0, "fullAddress": "10 RUE NOMINOE 29160 CROZON", "giveBlood": 1, "givePlasma": 0, "givePlatelet": 0, "regionCode": "016", "groupCode": "F50124", "latitude": 48.250942, "longitude": -4.490739, "name": "CROZON J1", "postCode": "29160", "samplingLocationCode": "3", "horaires": null, "infos": null, "metro": null, "bus": null, "tram": null, "parking": null, "debutInfos": null, "finInfos": null, "ville": null, "id": null, "phone": null, "urlBlood": null, "urlPlasma": null, "urlPlatelets": null}
{"address1": null, "address2": "10 RUE NOMINOE", "city": "CROZON", "convocationLabel": "COLLEGE ALAIN", "distance": 0.0, "fullAddress": "10 RUE NOMINOE 29160 CROZON", "giveBlood": 1, "givePlasma": 0, "givePlatelet": 0, "regionCode": "016", "groupCode": "F50124", "latitude": 48.250942, "longitude": -4.490739, "name": "CROZON J2", "postCode": "29160", "samplingLocationCode": "4", "horaires": null, "infos": null, "metro": null, "bus": null, "tram": null, "parking": null, "debutInfos": null, "finInfos": null, "ville": null, "id": null, "phone": null, "urlBlood": null, "urlPlasma": null, "urlPlatelets": null}
{"address1": null, "address2": "495 LA GREVE", "city": "LANVEOC", "convocationLabel": "ESPACE NAUTIQUE", "distance": 0.0, "fullAddress": "495 LA GREVE 29160 LANVEOC", "giveBlood": 1, "givePlasma": 0, "givePlatelet": 0, "regionCode": "016", "groupCode": "F50124", "latitude": 48.29210663, "longitude": -4.45277214, "name": "LANVEOC ESPACE NAUTIQUE 1", "postCode": "29160", "samplingLocationCode": "5", "horaires": null, "infos": null, "metro": null, "bus": null, "tram": null, "parking": null, "debutInfos": null, "finInfos": null, "ville": null, "id": null, "phone": null, "urlBlood": null, "urlPlasma": null, "urlPlatelets": null}
{"address1": null, "address2": "495 LA GREVE", "city": "LANVEOC", "convocationLabel": "ESPACE NAUTIQUE", "distance": 0.0, "fullAddress": "495 LA GREVE 29160 LANVEOC", "giveBlood": 1, "givePlasma": 0, "givePlatelet": 0, "regionCode": "016", "groupCode": "F50124", "latitude": 48.29210663, "longitude": -4.45277214, "name": "LANVEOC ESPACE NAUTIQUE 2", "postCode": "29160", "samplingLocationCode": "6", "horaires": null, "infos": null, "metro": null, "bus": null, "tram": null, "parking": null, "debutInfos": null, "finInfos": null, "ville": null, "id": null, "phone": null, "urlBlood": null, "urlPlasma": null, "urlPlatelets": null}
{"address1": null, "address2": "20 RUE DES ECOLES", "city": "LANVEOC", "convocationLabel": "ECOLE PUBLIQUE", "distance": 0.0, "fullAddress": "20 RUE DES ECOLES 29160 LANVEOC", "giveBlood": 1, "givePlasma": 0, "givePlatelet": 0, "regionCode": "016", "groupCode": "F50124", "latitude": 48.28757858, "longitude": -4.46440363, "name": "LANVEOC J1", "postCode": "29160", "samplingLocationCode": "884", "horaires": null, "infos": null, "metro": null, "bus": null, "tram": null, "parking": null, "debutInfos": null, "finInfos": null, "ville": null, "id": null, "phone": null, "urlBlood": null, "urlPlasma": null, "urlPlatelets": null}
