{"address1": null, "address2": "16 RUE DES CHARRONS", "city": "THEIX-NOYALO", "convocationLabel": "SALLE DE LA LANDIERE", "distance": 0.0, "fullAddress": "16 RUE DES CHARRONS 56450 THEIX-NOYALO", "giveBlood": 1, "givePlasma": 0, "givePlatelet": 0, "regionCode": "016", "groupCode": "F30400", "latitude": 47.632135, "longitude": -2.658615, "name": "THEIX-NOYALO LA LANDIERE 1J", "postCode": "56450", "samplingLocationCode": "10", "horaires": null, "infos": null, "metro": null, "bus": null, "tram": null, "parking": null, "debutInfos": null, "finInfos": null, "ville": null, "id": null, "phone": null, "urlBlood": null, "urlPlasma": null, "urlPlatelets": null}
{"address1": null, "address2": "RUE JOSEPH LE DIGABEL", "city": "THEIX-NOYALO", "convocationLabel": "SALLE PIERRE DOSSE", "distance": 0.0, "fullAddress": "RUE JOSEPH LE DIGABEL 56450 THEIX-NOYALO", "giveBlood": 1, "givePlasma": 0, "givePlatelet": 0, "regionCode": "016", "groupCode": "F30400", "latitude": 47.630991, "longitude": -2.65481, "name": "THEIX-NOYALO S", "postCode": "56450", "samplingLocationCode": "1462", "horaires": null, "infos": null, "metro": null, "bus": null, "tram": null, "parking": null, "debutInfos": null, "finInfos": null, "ville": null, "id": null, "phone": null, "urlBlood": null, "urlPlasma": null, "urlPlatelets": null}
{"address1": null, "address2": "RUE JOSEPH LE DIGABEL", "city": "THEIX-NOYALO", "convocationLabel": "SALLE PIERRE DOSSE", "distance": 0.0, "fullAddress": "RUE JOSEPH LE DIGABEL 56450 THEIX-NOYALO", "giveBlood": 1, "givePlasma": 0, "givePlatelet": 0, "regionCode": "016", "groupCode": "F30400", "latitude": 47.6293602, "longitude": -2.64974403, "name": "THEIX-NOYALO- SALLE DOSSE AM", "postCode": "56450", "samplingLocationCode": "2", "horaires": null, "infos": null, "metro": null, "bus": null, "tram": null, "parking": null, "debutInfos": null, "finInfos": null, "ville": null, "id": null, "phone": null, "urlBlood": null, "urlPlasma": null, "urlPlatelets": null}
{"address1": null, "address2": "RUE JOSEPH LE DIGABEL", "city": "THEIX-NOYALO", "convocationLabel": "SALLE PIERRE DOSSE", "distance": 0.0, "fullAddress": "RUE JOSEPH LE DIGABEL 56450 THEIX-NOYALO", "giveBlood": 1, "givePlasma": 0, "givePlatelet": 0, "regionCode": "016", "groupCode": "F30400", "latitude": 47.6293602, "longitude": -2.64974403, "name": "THEIX-NOYALO-SALLE DOSSE PM", "postCode": "56450", "samplingLocationCode": "3", "horaires": null, "infos": null, "metro": null, "bus": null, "tram": null, "parking": null, "debutInfos": null, "finInfos": null, "ville": null, "id": null, "phone": null, "urlBlood": null, "urlPlasma": null, "urlPlatelets": null}
{"address1": null, "address2": "16 RUE DES CHARRONS", "city": "THEIX-NOYALO", "convocationLabel": "SALLE DE LA LANDIERE", "distance": 0.0, "fullAddress": "16 RUE DES CHARRONS 56450 THEIX-NOYALO", "giveBlood": 1, "givePlasma": 0, "givePlatelet": 0, "regionCode": "016", "groupCode": "F30400", "latitude": 47.6319809, "longitude": -2.658535, "name": "THEIX-NOYALO- LA LANDIERE 14 H", "postCode": "56450", "samplingLocationCode": "4", "horaires": null, "infos": null, "metro": null, "bus": null, "tram": null, "parking": null, "debutInfos": null, "finInfos": null, "ville": null, "id": null, "phone": null, "urlBlood": null, "urlPlasma": null, "urlPlatelets": null}
{"address1": null, "address2": "16 RUE DES CHARRONS", "city": "THEIX-NOYALO", "convocationLabel": "SALLE DE LA LANDIERE", "distance": 0.0, "fullAddress": "16 RUE DES CHARRONS 56450 THEIX-NOYALO", "giveBlood": 1, "givePlasma": 0, "givePlatelet": 0, "regionCode": "016", "groupCode": "F30400", "latitude": 47.632135, "longitude": -2.658615, "name": "THEIX-NOYALO - LA LANDIERE AM", "postCode": "56450", "samplingLocationCode": "5", "horaires": null, "infos": null, "metro": null, "bus": null, "tram": null, "parking": null, "debutInfos": null, "finInfos": null, "ville": null, "id": null, "phone": null, "urlBlood": null, "urlPlasma": null, "urlPlatelets": null}
{"address1": null, "address2": "RUE JOSEPH LE DIGABEL", "city": "THEIX-NOYALO", "convocationLabel": "SALLE PIERRE DOSSE", "distance": 0.0, "fullAddress": "RUE JOSEPH LE DIGABEL 56450 THEIX-NOYALO", "giveBlood": 1, "givePlasma": 0, "givePlatelet": 0, "regionCode": "016", "groupCode": "F30400", "latitude": 47.6293602, "longitude": -2.64974403, "name": "THEIX-NOYALO 12 h- 16 h", "postCode": "56450", "samplingLocationCode": "6", "horaires": null, "infos": null, "metro": null, "bus": null, "tram": null, "parking": null, "debutInfos": null, "finInfos": null, "ville": null, "id": null, "phone": null, "urlBlood": null, "urlPlasma": null, "urlPlatelets": null}
{"address1": null, "address2": "16 RUE DES CHARRONS", "city": "THEIX-NOYALO", "convocationLabel": "SALLE DE LA LANDIERE", "distance": 0.0, "fullAddress": "16 RUE DES CHARRONS 56450 THEIX-NOYALO", "giveBlood": 1, "givePlasma": 0, "givePlatelet": 0, "regionCode": "016", "groupCode": "F30400", "latitude": 47.632135, "longitude": -2.658615, "name": "THEIX  LA LANDIERE 12 H 16 H", "postCode": "56450", "samplingLocationCode": "7", "horaires": null, "infos": null, "metro": null, "bus": null, "tram": null, "parking": null, "debutInfos": null, "finInfos": null, "ville": null, "id": null, "phone": null, "urlBlood": null, "urlPlasma": null, "urlPlatelets": null}
{"address1": null, "address2": "RUE JOSEPH LE DIGABEL", "city": "THEIX-NOYALO", "convocationLabel": "SALLE PIERRE DOSSE", "distance": 0.0, "fullAddress": "RUE JOSEPH LE DIGABEL 56450 THEIX-NOYALO", "giveBlood": 1, "givePlasma": 0, "givePlatelet": 0, "regionCode": "016", "groupCode": "F30400", "latitude": 47.6303215, "longitude": -2.65444899, "name": "THEIX-NOYALO 14h - 18 h", "postCode": "56450", "samplingLocationCode": "8", "horaires": null, "infos": null, "metro": null, "bus": null, "tram": null, "parking": null, "debutInfos": null, "finInfos": null, "ville": null, "id": null, "phone": null, "urlBlood": null, "urlPlasma": null, "urlPlatelets": null}
{"address1": null, "address2": "16 RUE DES CHARRONS", "city": "THEIX-NOYALO", "convocationLabel": "SALLE LA LANDIERE", "distance": 0.0, "fullAddress": "16 RUE DES CHARRONS 56450 THEIX-NOYALO", "giveBlood": 1, "givePlasma": 0, "givePlatelet": 0, "regionCode": "016", "groupCode": "F30400", "latitude": 47.632135, "longitude": -2.658615, "name": "THEIX  LA LANDIERE 14 H 30", "postCode": "56450", "samplingLocationCode": "9", "horaires": null, "infos": null, "metro": null, "bus": null, "tram": null, "parking": null, "debutInfos": null, "finInfos": null, "ville": null, "id": null, "phone": null, "urlBlood": null, "urlPlasma": null, "urlPlatelets": null}
