{"address1": null, "address2": "STREAD KICHEN", "city": "LANDEDA", "convocationLabel": "SALLE OMNISPORTS", "distance": 0.0, "fullAddress": "STREAD KICHEN 29870 LANDEDA", "giveBlood": 1, "givePlasma": 0, "givePlatelet": 0, "regionCode": "016", "groupCode": "F50116", "latitude": 48.5855217, "longitude": -4.57004786, "name": "LANDEDA J2 ", "postCode": "29870", "samplingLocationCode": "2", "horaires": null, "infos": null, "metro": null, "bus": null, "tram": null, "parking": null, "debutInfos": null, "finInfos": null, "ville": null, "id": null, "phone": null, "urlBlood": null, "urlPlasma": null, "urlPlatelets": null}
{"address1": null, "address2": "STREAD KICHEN", "city": "LANDEDA", "convocationLabel": "SALLE OMNISPORTS", "distance": 0.0, "fullAddress": "STREAD KICHEN 29870 LANDEDA", "giveBlood": 1, "givePlasma": 0, "givePlatelet": 0, "regionCode": "016", "groupCode": "F50116", "latitude": 48.585941, "longitude": -4.570502, "name": "LANDEDA 1 JOUR", "postCode": "29870", "samplingLocationCode": "3", "horaires": null, "infos": null, "metro": null, "bus": null, "tram": null, "parking": null, "debutInfos": null, "finInfos": null, "ville": null, "id": null, "phone": null, "urlBlood": null, "urlPlasma": null, "urlPlatelets": null}
{"address1": null, "address2": "STREAD KICHEN", "city": "LANDEDA", "convocationLabel": "SALLE OMNISPORTS", "distance": 0.0, "fullAddress": "STREAD KICHEN 29870 LANDEDA", "giveBlood": 1, "givePlasma": 0, "givePlatelet": 0, "regionCode": "016", "groupCode": "F50116", "latitude": 48.585941, "longitude": -4.570502, "name": "LANDEDA J1 DECEMBRE", "postCode": "29870", "samplingLocationCode": "4", "horaires": null, "infos": null, "metro": null, "bus": null, "tram": null, "parking": null, "debutInfos": null, "finInfos": null, "ville": null, "id": null, "phone": null, "urlBlood": null, "urlPlasma": null, "urlPlatelets": null}
{"address1": null, "address2": "STREAD KICHEN", "city": "LANDEDA", "convocationLabel": "SALLE OMNISPORTS", "distance": 0.0, "fullAddress": "STREAD KICHEN 29870 LANDEDA", "giveBlood": 1, "givePlasma": 0, "givePlatelet": 0, "regionCode": "016", "groupCode": "F50116", "latitude": 48.585941, "longitude": -4.570502, "name": "LANDEDA J2 DECEMBRE", "postCode": "29870", "samplingLocationCode": "5", "horaires": null, "infos": null, "metro": null, "bus": null, "tram": null, "parking": null, "debutInfos": null, "finInfos": null, "ville": null, "id": null, "phone": null, "urlBlood": null, "urlPlasma": null, "urlPlatelets": null}
{"address1": null, "address2": "STREAD KICHEN", "city": "LANDEDA", "convocationLabel": "SALLE OMNISPORTS", "distance": 0.0, "fullAddress": "STREAD KICHEN 29870 LANDEDA", "giveBlood": 1, "givePlasma": 0, "givePlatelet": 0, "regionCode": "016", "groupCode": "F50116", "latitude": 48.5855217, "longitude": -4.57004786, "name": "LANDEDA J1", "postCode": "29870", "samplingLocationCode": "796", "horaires": null, "infos": null, "metro": null, "bus": null, "tram": null, "parking": null, "debutInfos": null, "finInfos": null, "ville": null, "id": null, "phone": null, "urlBlood": null, "urlPlasma": null, "urlPlatelets": null}
