{"address1": null, "address2": "AVENUE DU COAT KAER", "city": "QUIMPERLE", "convocationLabel": "ESPACE BENOITE GROULT - SALLE ELLE", "distance": 0.0, "fullAddress": "AVENUE DU COAT KAER 29300 QUIMPERLE", "giveBlood": 1, "givePlasma": 0, "givePlatelet": 0, "regionCode": "016", "groupCode": "F50235", "latitude": 47.861426, "longitude": -3.552977, "name": "QUIMPERLE J2 ELLE", "postCode": "29300", "samplingLocationCode": "10", "horaires": null, "infos": null, "metro": null, "bus": null, "tram": null, "parking": null, "debutInfos": null, "finInfos": null, "ville": null, "id": null, "phone": null, "urlBlood": null, "urlPlasma": null, "urlPlatelets": null}
{"address1": null, "address2": "AVENUE DU COAT KAER", "city": "QUIMPERLE", "convocationLabel": "ESPACE BENOITE GROULT - Salle Du Coat Kaer", "distance": 0.0, "fullAddress": "AVENUE DU COAT KAER 29300 QUIMPERLE", "giveBlood": 1, "givePlasma": 0, "givePlatelet": 0, "regionCode": "016", "groupCode": "F50235", "latitude": 47.87494659, "longitude": -3.55393076, "name": "QUIMPERLE J1", "postCode": "29300", "samplingLocationCode": "1136", "horaires": null, "infos": null, "metro": null, "bus": null, "tram": null, "parking": null, "debutInfos": null, "finInfos": null, "ville": null, "id": null, "phone": null, "urlBlood": null, "urlPlasma": null, "urlPlatelets": null}
{"address1": null, "address2": "AVENUE DU COAT KAER", "city": "QUIMPERLE", "convocationLabel": "ESPACE BENOITE GROULT - Salle Du Coat Kaer", "distance": 0.0, "fullAddress": "AVENUE DU COAT KAER 29300 QUIMPERLE", "giveBlood": 1, "givePlasma": 0, "givePlatelet": 0, "regionCode": "016", "groupCode": "F50235", "latitude": 47.87494659, "longitude": -3.55393076, "name": "QUIMPERLE J2", "postCode": "29300", "samplingLocationCode": "2", "horaires": null, "infos": null, "metro": null, "bus": null, "tram": null, "parking": null, "debutInfos": null, "finInfos": null, "ville": null, "id": null, "phone": null, "urlBlood": null, "urlPlasma": null, "urlPlatelets": null}
{"address1": null, "address2": "AVENUE DU COAT KAER", "city": "QUIMPERLE", "convocationLabel": "ESPACE BENOITE GROULT - SALLE LAITA", "distance": 0.0, "fullAddress": "AVENUE DU COAT KAER 29300 QUIMPERLE", "giveBlood": 1, "givePlasma": 0, "givePlatelet": 0, "regionCode": "016", "groupCode": "F50235", "latitude": 47.87494659, "longitude": -3.55393076, "name": "QUIMPERLE J1", "postCode": "29300", "samplingLocationCode": "3", "horaires": null, "infos": null, "metro": null, "bus": null, "tram": null, "parking": null, "debutInfos": null, "finInfos": null, "ville": null, "id": null, "phone": null, "urlBlood": null, "urlPlasma": null, "urlPlatelets": null}
{"address1": null, "address2": "AVENUE DU COAT KAER", "city": "QUIMPERLE", "convocationLabel": "ESPACE BENOITE GROULT - Salle Du Coat Kaer", "distance": 0.0, "fullAddress": "AVENUE DU COAT KAER 29300 QUIMPERLE", "giveBlood": 1, "givePlasma": 0, "givePlatelet": 0, "regionCode": "016", "groupCode": "F50235", "latitude": 47.87494659, "longitude": -3.55393076, "name": "QUIMPERLE J3", "postCode": "29300", "samplingLocationCode": "4", "horaires": null, "infos": null, "metro": null, "bus": null, "tram": null, "parking": null, "debutInfos": null, "finInfos": null, "ville": null, "id": null, "phone": null, "urlBlood": null, "urlPlasma": null, "urlPlatelets": null}
{"address1": null, "address2": "AVENUE DU COAT KAER", "city": "QUIMPERLE", "convocationLabel": "ESPACE BENOITE GROULT - SALLE LAITA", "distance": 0.0, "fullAddress": "AVENUE DU COAT KAER 29300 QUIMPERLE", "giveBlood": 1, "givePlasma": 0, "givePlatelet": 0, "regionCode": "016", "groupCode": "F50235", "latitude": 47.87494659, "longitude": -3.55393076, "name": "QUIMPERLE J2", "postCode": "29300", "samplingLocationCode": "5", "horaires": null, "infos": null, "metro": null, "bus": null, "tram": null, "parking": null, "debutInfos": null, "finInfos": null, "ville": null, "id": null, "phone": null, "urlBlood": null, "urlPlasma": null, "urlPlatelets": null}
{"address1": null, "address2": "AVENUE DU COAT KAER", "city": "QUIMPERLE", "convocationLabel": "ESPACE BENOITE GROULT - SALLE LAITA", "distance": 0.0, "fullAddress": "AVENUE DU COAT KAER 29300 QUIMPERLE", "giveBlood": 1, "givePlasma": 0, "givePlatelet": 0, "regionCode": "016", "groupCode": "F50235", "latitude": 47.87494659, "longitude": -3.55393076, "name": "QUIMPERLE J3", "postCode": "29300", "samplingLocationCode": "6", "horaires": null, "infos": null, "metro": null, "bus": null, "tram": null, "parking": null, "debutInfos": null, "finInfos": null, "ville": null, "id": null, "phone": null, "urlBlood": null, "urlPlasma": null, "urlPlatelets": null}
{"address1": null, "address2": "RUE DE KERBERTRAND", "city": "QUIMPERLE", "convocationLabel": "SALLE DU TENNIS CLUB DE KERBERTRAND", "distance": 0.0, "fullAddress": "RUE DE KERBERTRAND 29300 QUIMPERLE", "giveBlood": 1, "givePlasma": 0, "givePlatelet": 0, "regionCode": "016", "groupCode": "F50235", "latitude": 47.872801, "longitude": -3.566254, "name": "QLE Ten V", "postCode": "29300", "samplingLocationCode": "7", "horaires": null, "infos": null, "metro": null, "bus": null, "tram": null, "parking": null, "debutInfos": null, "finInfos": null, "ville": null, "id": null, "phone": null, "urlBlood": null, "urlPlasma": null, "urlPlatelets": null}
{"address1": null, "address2": "SALLE POLYVALENTE", "city": "MELLAC", "convocationLabel": null, "distance": 0.0, "fullAddress": "SALLE POLYVALENTE 29300 MELLAC", "giveBlood": 1, "givePlasma": 0, "givePlatelet": 0, "regionCode": "016", "groupCode": "F50235", "latitude": 47.89742, "longitude": -3.579029, "name": "MELLAC Jeu", "postCode": "29300", "samplingLocationCode": "8", "horaires": null, "infos": null, "metro": null, "bus": null, "tram": null, "parking": null, "debutInfos": null, "finInfos": null, "ville": null, "id": null, "phone": null, "urlBlood": null, "urlPlasma": null, "urlPlatelets": null}
{"address1": null, "address2": "AVENUE DU COAT KAER", "city": "QUIMPERLE", "convocationLabel": "ESPACE BENOITE GROULT - SALLE ELLE", "distance": 0.0, "fullAddress": "AVENUE DU COAT KAER 29300 QUIMPERLE", "giveBlood": 1, "givePlasma": 0, "givePlatelet": 0, "regionCode": "016", "groupCode": "F50235", "latitude": 47.861426, "longitude": -3.552977, "name": "QUIMPERLE J1 ELLE", "postCode": "29300", "samplingLocationCode": "9", "horaires": null, "infos": null, "metro": null, "bus": null, "tram": null, "parking": null, "debutInfos": null, "finInfos": null, "ville": null, "id": null, "phone": null, "urlBlood": null, "urlPlasma": null, "urlPlatelets": null}
