{"address1": null, "address2": "183 rue de Pleumeur la Clart\u00e9", "city": "PERROS-GUIREC", "convocationLabel": "SALLE ROUZIC", "distance": 0.0, "fullAddress": "183 rue de Pleumeur la Clart\u00e9 22700 PERROS-GUIREC", "giveBlood": 1, "givePlasma": 0, "givePlatelet": 0, "regionCode": "016", "groupCode": "F10131", "latitude": 48.8043071, "longitude": -3.4736512, "name": "PERROS Rouzic AM", "postCode": "22700", "samplingLocationCode": "1278", "horaires": null, "infos": null, "metro": null, "bus": null, "tram": null, "parking": null, "debutInfos": null, "finInfos": null, "ville": null, "id": null, "phone": null, "urlBlood": null, "urlPlasma": null, "urlPlatelets": null}
{"address1": null, "address2": "183 rue de Pleumeur la Clart\u00e9", "city": "PERROS-GUIREC", "convocationLabel": "SALLE ROUZIC", "distance": 0.0, "fullAddress": "183 rue de Pleumeur la Clart\u00e9 22700 PERROS-GUIREC", "giveBlood": 1, "givePlasma": 0, "givePlatelet": 0, "regionCode": "016", "groupCode": "F10131", "latitude": 48.8043071, "longitude": -3.4736512, "name": "PERROS Rouzic VEN", "postCode": "22700", "samplingLocationCode": "2", "horaires": null, "infos": null, "metro": null, "bus": null, "tram": null, "parking": null, "debutInfos": null, "finInfos": null, "ville": null, "id": null, "phone": null, "urlBlood": null, "urlPlasma": null, "urlPlatelets": null}
{"address1": null, "address2": "58 boulevard Thalassa", "city": "PERROS-GUIREC", "convocationLabel": "THALASSO ROZ MARINE", "distance": 0.0, "fullAddress": "58 boulevard Thalassa 22700 PERROS-GUIREC", "giveBlood": 1, "givePlasma": 0, "givePlatelet": 0, "regionCode": "016", "groupCode": "F10131", "latitude": 48.811206, "longitude": -3.444637, "name": "PERROS Thalasso AM", "postCode": "22700", "samplingLocationCode": "3", "horaires": null, "infos": null, "metro": null, "bus": null, "tram": null, "parking": null, "debutInfos": null, "finInfos": null, "ville": null, "id": null, "phone": null, "urlBlood": null, "urlPlasma": null, "urlPlatelets": null}
{"address1": null, "address2": "65 rue Anatole Le Braz", "city": "PERROS GUIREC", "convocationLabel": "SALLE CLUB DES NAVIGATEURS", "distance": 0.0, "fullAddress": "65 rue Anatole Le Braz 22700 PERROS GUIREC", "giveBlood": 1, "givePlasma": 0, "givePlatelet": 0, "regionCode": "016", "groupCode": "F10131", "latitude": 48.80752182, "longitude": -3.44206238, "name": "PERROS Navigateurs AM", "postCode": "22700", "samplingLocationCode": "4", "horaires": null, "infos": null, "metro": null, "bus": null, "tram": null, "parking": null, "debutInfos": null, "finInfos": null, "ville": null, "id": null, "phone": null, "urlBlood": null, "urlPlasma": null, "urlPlatelets": null}
{"address1": null, "address2": "65 rue Anatole Le Braz", "city": "PERROS-GUIREC", "convocationLabel": "SALLE CLUB DES NAVIGATEURS", "distance": 0.0, "fullAddress": "65 rue Anatole Le Braz 22700 PERROS-GUIREC", "giveBlood": 1, "givePlasma": 0, "givePlatelet": 0, "regionCode": "016", "groupCode": "F10131", "latitude": 48.80752182, "longitude": -3.44206238, "name": "PERROS Navigateurs VEN", "postCode": "22700", "samplingLocationCode": "5", "horaires": null, "infos": null, "metro": null, "bus": null, "tram": null, "parking": null, "debutInfos": null, "finInfos": null, "ville": null, "id": null, "phone": null, "urlBlood": null, "urlPlasma": null, "urlPlatelets": null}
