{"address1": null, "address2": "RUE PARC AR HOAT", "city": "MOELAN SUR MER", "convocationLabel": "COLLEGE PARC AR C'HOAT SALLE DU SELF", "distance": 0.0, "fullAddress": "RUE PARC AR HOAT 29350 MOELAN SUR MER", "giveBlood": 1, "givePlasma": 0, "givePlatelet": 0, "regionCode": "016", "groupCode": "F30325", "latitude": 47.81422424, "longitude": -3.62916589, "name": "MOELAN COLLEGE PARC AR C'HOAT", "postCode": "29350", "samplingLocationCode": "2", "horaires": null, "infos": null, "metro": null, "bus": null, "tram": null, "parking": null, "debutInfos": null, "finInfos": null, "ville": null, "id": null, "phone": null, "urlBlood": null, "urlPlasma": null, "urlPlatelets": null}
{"address1": null, "address2": "RUE DE PONT AR LAER", "city": "MOELAN SUR MER", "convocationLabel": "CENTRE SOCIO CULTUREL-SALLE L'ELLIPSE", "distance": 0.0, "fullAddress": "RUE DE PONT AR LAER 29350 MOELAN SUR MER", "giveBlood": 1, "givePlasma": 0, "givePlatelet": 0, "regionCode": "016", "groupCode": "F30325", "latitude": 47.81088257, "longitude": -3.6286509, "name": "MOELAN-SALLE ELLIPSE 9 h 13 h", "postCode": "29350", "samplingLocationCode": "3", "horaires": null, "infos": null, "metro": null, "bus": null, "tram": null, "parking": null, "debutInfos": null, "finInfos": null, "ville": null, "id": null, "phone": null, "urlBlood": null, "urlPlasma": null, "urlPlatelets": null}
{"address1": null, "address2": "RUE DE PONT AR LAER", "city": "MOELAN SUR MER", "convocationLabel": "CENTRE SOCIO CULTUREL-SALLE L'ELLIPSE", "distance": 0.0, "fullAddress": "RUE DE PONT AR LAER 29350 MOELAN SUR MER", "giveBlood": 1, "givePlasma": 0, "givePlatelet": 0, "regionCode": "016", "groupCode": "F30325", "latitude": 47.81086349, "longitude": -3.62803316, "name": "MOELAN- ELLIPSE 14h30 18h30", "postCode": "29350", "samplingLocationCode": "4", "horaires": null, "infos": null, "metro": null, "bus": null, "tram": null, "parking": null, "debutInfos": null, "finInfos": null, "ville": null, "id": null, "phone": null, "urlBlood": null, "urlPlasma": null, "urlPlatelets": null}
{"address1": null, "address2": "RUE DES ECOLES", "city": "MOELAN SUR MER", "convocationLabel": "SALLE MLC", "distance": 0.0, "fullAddress": "RUE DES ECOLES 29350 MOELAN SUR MER", "giveBlood": 1, "givePlasma": 0, "givePlatelet": 0, "regionCode": "016", "groupCode": "F30325", "latitude": 47.814243, "longitude": -3.627362, "name": "MOELAN SALLE MLC PM", "postCode": "29350", "samplingLocationCode": "5", "horaires": null, "infos": null, "metro": null, "bus": null, "tram": null, "parking": null, "debutInfos": null, "finInfos": null, "ville": null, "id": null, "phone": null, "urlBlood": null, "urlPlasma": null, "urlPlatelets": null}
{"address1": null, "address2": "RUE DES ECOLES", "city": "MOELAN SUR MER", "convocationLabel": "SALLE MLC", "distance": 0.0, "fullAddress": "RUE DES ECOLES 29350 MOELAN SUR MER", "giveBlood": 1, "givePlasma": 0, "givePlatelet": 0, "regionCode": "016", "groupCode": "F30325", "latitude": 47.814243, "longitude": -3.627362, "name": "MOELAN SALLE MLC 9h/13h", "postCode": "29350", "samplingLocationCode": "6", "horaires": null, "infos": null, "metro": null, "bus": null, "tram": null, "parking": null, "debutInfos": null, "finInfos": null, "ville": null, "id": null, "phone": null, "urlBlood": null, "urlPlasma": null, "urlPlatelets": null}
{"address1": null, "address2": "RUE DE PONT AR LAER", "city": "MOELAN SUR MER", "convocationLabel": "CENTRE SOCIO CULTUREL - SALLE L'ELLIPSE", "distance": 0.0, "fullAddress": "RUE DE PONT AR LAER 29350 MOELAN SUR MER", "giveBlood": 1, "givePlasma": 0, "givePlatelet": 0, "regionCode": "016", "groupCode": "F30325", "latitude": 47.811102, "longitude": -3.628107, "name": "MOELAN SUR MER 12  H - 16  H", "postCode": "29350", "samplingLocationCode": "7", "horaires": null, "infos": null, "metro": null, "bus": null, "tram": null, "parking": null, "debutInfos": null, "finInfos": null, "ville": null, "id": null, "phone": null, "urlBlood": null, "urlPlasma": null, "urlPlatelets": null}
{"address1": null, "address2": "RUE DE PONT AR LAER", "city": "MOELAN SUR MER", "convocationLabel": "CENTRE SOCIO CULTUREL-SALLE L'ELLIPSE", "distance": 0.0, "fullAddress": "RUE DE PONT AR LAER 29350 MOELAN SUR MER", "giveBlood": 1, "givePlasma": 0, "givePlatelet": 0, "regionCode": "016", "groupCode": "F30325", "latitude": 47.811102, "longitude": -3.628107, "name": "MOELAN SUR MER-SALLE ELLIPSE S", "postCode": "29350", "samplingLocationCode": "947", "horaires": null, "infos": null, "metro": null, "bus": null, "tram": null, "parking": null, "debutInfos": null, "finInfos": null, "ville": null, "id": null, "phone": null, "urlBlood": null, "urlPlasma": null, "urlPlatelets": null}
