{"address1": null, "address2": "24 AVENUE DES COMPTOIRS", "city": "ST MALO", "convocationLabel": "MAISON DE QUARTIER DE LA MADELEINE", "distance": 0.0, "fullAddress": "24 AVENUE DES COMPTOIRS 35400 ST MALO", "giveBlood": 1, "givePlasma": 0, "givePlatelet": 0, "regionCode": "016", "groupCode": "F70165", "latitude": 48.62768936, "longitude": -1.99453735, "name": "ST MALO LA MADELEINE SA matin", "postCode": "35400", "samplingLocationCode": "1", "horaires": null, "infos": null, "metro": null, "bus": null, "tram": null, "parking": null, "debutInfos": null, "finInfos": null, "ville": null, "id": null, "phone": null, "urlBlood": null, "urlPlasma": null, "urlPlatelets": null}
{"address1": null, "address2": "39 AVENUE DES COMPTOIRS", "city": "ST MALO", "convocationLabel": "MAISON DE QUARTIER DE LA MADELEINE", "distance": 0.0, "fullAddress": "39 AVENUE DES COMPTOIRS 35400 ST MALO", "giveBlood": 1, "givePlasma": 0, "givePlatelet": 0, "regionCode": "016", "groupCode": "F70165", "latitude": 48.627966, "longitude": -1.99461, "name": "ST MALO LA MADELEINE SA amidi", "postCode": "35400", "samplingLocationCode": "2", "horaires": null, "infos": null, "metro": null, "bus": null, "tram": null, "parking": null, "debutInfos": null, "finInfos": null, "ville": null, "id": null, "phone": null, "urlBlood": null, "urlPlasma": null, "urlPlatelets": null}
{"address1": null, "address2": "39 AVENUE DES COMPTOIRS", "city": "ST MALO", "convocationLabel": "MAISON DE QUARTIER DE LA MADELEINE", "distance": 0.0, "fullAddress": "39 AVENUE DES COMPTOIRS 35400 ST MALO", "giveBlood": 1, "givePlasma": 0, "givePlatelet": 0, "regionCode": "016", "groupCode": "F70165", "latitude": 48.627966, "longitude": -1.99461, "name": "ST MALO LA MADELEINE SEM matin", "postCode": "35400", "samplingLocationCode": "3", "horaires": null, "infos": null, "metro": null, "bus": null, "tram": null, "parking": null, "debutInfos": null, "finInfos": null, "ville": null, "id": null, "phone": null, "urlBlood": null, "urlPlasma": null, "urlPlatelets": null}
{"address1": null, "address2": "39 AVENUE DES COMPTOIRS", "city": "ST MALO", "convocationLabel": "MAISON DE QUARTIER DE LA MADELEINE", "distance": 0.0, "fullAddress": "39 AVENUE DES COMPTOIRS 35400 ST MALO", "giveBlood": 1, "givePlasma": 0, "givePlatelet": 0, "regionCode": "016", "groupCode": "F70165", "latitude": 48.627966, "longitude": -1.99461, "name": "ST MALO LA MADELEINE SEM amidi", "postCode": "35400", "samplingLocationCode": "4", "horaires": null, "infos": null, "metro": null, "bus": null, "tram": null, "parking": null, "debutInfos": null, "finInfos": null, "ville": null, "id": null, "phone": null, "urlBlood": null, "urlPlasma": null, "urlPlatelets": null}
{"address1": "LA MADELEINE", "address2": "39 AVENUE DES COMPTOIRS", "city": "ST MALO", "convocationLabel": "MAISON DE QUARTIER DE LA MADELEINE", "distance": 0.0, "fullAddress": "LA MADELEINE 39 AVENUE DES COMPTOIRS 35400 ST MALO", "giveBlood": 1, "givePlasma": 0, "givePlatelet": 0, "regionCode": "016", "groupCode": "F70165", "latitude": 48.62794113, "longitude": -1.99459004, "name": "ST MALO LA MADELEINE SA JMDS", "postCode": "35400", "samplingLocationCode": "5", "horaires": null, "infos": null, "metro": null, "bus": null, "tram": null, "parking": null, "debutInfos": null, "finInfos": null, "ville": null, "id": null, "phone": null, "urlBlood": null, "urlPlasma": null, "urlPlatelets": null}
{"address1": null, "address2": "PLACE GEORGES COUDRAY", "city": "ST M ALO", "convocationLabel": "SALLE DES FETES DE LA MAIRIE", "distance": 0.0, "fullAddress": "PLACE GEORGES COUDRAY 35400 ST M ALO", "giveBlood": 1, "givePlasma": 0, "givePlatelet": 0, "regionCode": "016", "groupCode": "F70165", "latitude": 48.657706, "longitude": -1.982963, "name": "ST MALO LA MADELEINE SA Param\u00e9", "postCode": "35400", "samplingLocationCode": "6", "horaires": null, "infos": null, "metro": null, "bus": null, "tram": null, "parking": null, "debutInfos": null, "finInfos": null, "ville": null, "id": null, "phone": null, "urlBlood": null, "urlPlasma": null, "urlPlatelets": null}
{"address1": null, "address2": "39 AVENUE DES COMPTOIRS", "city": "ST MALO", "convocationLabel": "MAISON DE QUARTIER DE LA MADELEINE", "distance": 0.0, "fullAddress": "39 AVENUE DES COMPTOIRS 35400 ST MALO", "giveBlood": 1, "givePlasma": 0, "givePlatelet": 0, "regionCode": "016", "groupCode": "F70165", "latitude": 48.6268959, "longitude": -1.99380136, "name": "2 ST MALO-LA MADELEINE J+ SA", "postCode": "35400", "samplingLocationCode": "7", "horaires": null, "infos": null, "metro": null, "bus": null, "tram": null, "parking": null, "debutInfos": null, "finInfos": null, "ville": null, "id": null, "phone": null, "urlBlood": null, "urlPlasma": null, "urlPlatelets": null}
{"address1": null, "address2": "39 AVENUE DES COMPTOIRS", "city": "ST MALO", "convocationLabel": "MAISON DE QUARTIER DE LA MADELEINE", "distance": 0.0, "fullAddress": "39 AVENUE DES COMPTOIRS 35400 ST MALO", "giveBlood": 1, "givePlasma": 0, "givePlatelet": 0, "regionCode": "016", "groupCode": "F70165", "latitude": 48.6268959, "longitude": -1.99380136, "name": "2 ST MALO-LA MADELEINE AM VE", "postCode": "35400", "samplingLocationCode": "8", "horaires": null, "infos": null, "metro": null, "bus": null, "tram": null, "parking": null, "debutInfos": null, "finInfos": null, "ville": null, "id": null, "phone": null, "urlBlood": null, "urlPlasma": null, "urlPlatelets": null}
