{"address1": null, "address2": "RUE FONTAINES", "city": "CHATEAUNEUF DU FAOU", "convocationLabel": "SALLE AR STERENN", "distance": 0.0, "fullAddress": "RUE FONTAINES 29520 CHATEAUNEUF DU FAOU", "giveBlood": 1, "givePlasma": 0, "givePlatelet": 0, "regionCode": "016", "groupCode": "F50029", "latitude": 48.18898392, "longitude": -3.81505632, "name": "CHATEAUNEUF DU FAOU Matin", "postCode": "29520", "samplingLocationCode": "3", "horaires": null, "infos": null, "metro": null, "bus": null, "tram": null, "parking": null, "debutInfos": null, "finInfos": null, "ville": null, "id": null, "phone": null, "urlBlood": null, "urlPlasma": null, "urlPlatelets": null}
{"address1": null, "address2": "RUE DES FONTAINES", "city": "CHATEAUNEUF DU FAOU", "convocationLabel": "SALLE AR STERENN", "distance": 0.0, "fullAddress": "RUE DES FONTAINES 29520 CHATEAUNEUF DU FAOU", "giveBlood": 1, "givePlasma": 0, "givePlatelet": 0, "regionCode": "016", "groupCode": "F50029", "latitude": 48.187991, "longitude": -3.815133, "name": "CHATEAUNEUF DU FAOU AM", "postCode": "29520", "samplingLocationCode": "4", "horaires": null, "infos": null, "metro": null, "bus": null, "tram": null, "parking": null, "debutInfos": null, "finInfos": null, "ville": null, "id": null, "phone": null, "urlBlood": null, "urlPlasma": null, "urlPlatelets": null}
{"address1": null, "address2": "RUE DES FONTAINES", "city": "CHATEAUNEUF DU FAOU", "convocationLabel": "SALLE AR STERENN", "distance": 0.0, "fullAddress": "RUE DES FONTAINES 29520 CHATEAUNEUF DU FAOU", "giveBlood": 1, "givePlasma": 0, "givePlatelet": 0, "regionCode": "016", "groupCode": "F50029", "latitude": 48.18928909, "longitude": -3.81555438, "name": "CHATEAUNEUF DU FAOU M", "postCode": "29520", "samplingLocationCode": "5", "horaires": null, "infos": null, "metro": null, "bus": null, "tram": null, "parking": null, "debutInfos": null, "finInfos": null, "ville": null, "id": null, "phone": null, "urlBlood": null, "urlPlasma": null, "urlPlatelets": null}
{"address1": null, "address2": null, "city": null, "convocationLabel": null, "distance": 0.0, "fullAddress": "29520", "giveBlood": 1, "givePlasma": 0, "givePlatelet": 0, "regionCode": "016", "groupCode": "F50029", "latitude": 0.0, "longitude": 0.0, "name": null, "postCode": "29520", "samplingLocationCode": "712", "horaires": null, "infos": null, "metro": null, "bus": null, "tram": null, "parking": null, "debutInfos": null, "finInfos": null, "ville": null, "id": null, "phone": null, "urlBlood": null, "urlPlasma": null, "urlPlatelets": null}
{"address1": null, "address2": null, "city": null, "convocationLabel": null, "distance": 0.0, "fullAddress": "29520", "giveBlood": 1, "givePlasma": 0, "givePlatelet": 0, "regionCode": "016", "groupCode": "F50029", "latitude": 0.0, "longitude": 0.0, "name": null, "postCode": "29520", "samplingLocationCode": "879", "horaires": null, "infos": null, "metro": null, "bus": null, "tram": null, "parking": null, "debutInfos": null, "finInfos": null, "ville": null, "id": null, "phone": null, "urlBlood": null, "urlPlasma": null, "urlPlatelets": null}
