{"address1": null, "address2": "RUE DE LA CHEZE", "city": "PLELAN LE GRAND", "convocationLabel": "SALLE DES FETES", "distance": 0.0, "fullAddress": "RUE DE LA CHEZE 35380 PLELAN LE GRAND", "giveBlood": 1, "givePlasma": 0, "givePlatelet": 0, "regionCode": "016", "groupCode": "F70174", "latitude": 48.002559, "longitude": -2.092946, "name": "PLELAN LE GRAND", "postCode": "35380", "samplingLocationCode": "187", "horaires": null, "infos": null, "metro": null, "bus": null, "tram": null, "parking": null, "debutInfos": null, "finInfos": null, "ville": null, "id": null, "phone": null, "urlBlood": null, "urlPlasma": null, "urlPlatelets": null}
{"address1": null, "address2": "RUE DE LA CHEZE", "city": "PLELAN LE GRAND", "convocationLabel": "SALLE DES FETES", "distance": 0.0, "fullAddress": "RUE DE LA CHEZE 35380 PLELAN LE GRAND", "giveBlood": 1, "givePlasma": 0, "givePlatelet": 0, "regionCode": "016", "groupCode": "F70174", "latitude": 48.002559, "longitude": -2.092946, "name": "PLELAN LE GRAND SDF MAT SEM", "postCode": "35380", "samplingLocationCode": "2", "horaires": null, "infos": null, "metro": null, "bus": null, "tram": null, "parking": null, "debutInfos": null, "finInfos": null, "ville": null, "id": null, "phone": null, "urlBlood": null, "urlPlasma": null, "urlPlatelets": null}
{"address1": null, "address2": "RUE DE LA CHEZE", "city": "PLELAN LE GRAND", "convocationLabel": "SALLE DES FETES", "distance": 0.0, "fullAddress": "RUE DE LA CHEZE 35380 PLELAN LE GRAND", "giveBlood": 1, "givePlasma": 0, "givePlatelet": 0, "regionCode": "016", "groupCode": "F70174", "latitude": 48.00265884, "longitude": -2.09195209, "name": "PLELAN LE GRAND SDF SEMAINE", "postCode": "35380", "samplingLocationCode": "3", "horaires": null, "infos": null, "metro": null, "bus": null, "tram": null, "parking": null, "debutInfos": null, "finInfos": null, "ville": null, "id": null, "phone": null, "urlBlood": null, "urlPlasma": null, "urlPlatelets": null}
{"address1": null, "address2": "RUE DE LA CHEZE", "city": "PLELAN LE GRAND", "convocationLabel": "SALLE DES FETES", "distance": 0.0, "fullAddress": "RUE DE LA CHEZE 35380 PLELAN LE GRAND", "giveBlood": 1, "givePlasma": 0, "givePlatelet": 0, "regionCode": "016", "groupCode": "F70174", "latitude": 48.002559, "longitude": -2.092946, "name": "PLELAN LE GRAND SDF AM", "postCode": "35380", "samplingLocationCode": "4", "horaires": null, "infos": null, "metro": null, "bus": null, "tram": null, "parking": null, "debutInfos": null, "finInfos": null, "ville": null, "id": null, "phone": null, "urlBlood": null, "urlPlasma": null, "urlPlatelets": null}
{"address1": null, "address2": "RUE SIMONE VEIL", "city": "PLELAN LE GRAND", "convocationLabel": "LA CANOPEE", "distance": 0.0, "fullAddress": "RUE SIMONE VEIL 35380 PLELAN LE GRAND", "giveBlood": 1, "givePlasma": 0, "givePlatelet": 0, "regionCode": "016", "groupCode": "F70174", "latitude": 47.988213, "longitude": -2.098177, "name": "PLELAN LE GRAND LA CANOPEE MAT", "postCode": "35380", "samplingLocationCode": "5", "horaires": null, "infos": null, "metro": null, "bus": null, "tram": null, "parking": null, "debutInfos": null, "finInfos": null, "ville": null, "id": null, "phone": null, "urlBlood": null, "urlPlasma": null, "urlPlatelets": null}
{"address1": null, "address2": "RUE SIMONE VEIL", "city": "PLELAN LE GRAN", "convocationLabel": "LA CANOPEE", "distance": 0.0, "fullAddress": "RUE SIMONE VEIL 35380 PLELAN LE GRAN", "giveBlood": 1, "givePlasma": 0, "givePlatelet": 0, "regionCode": "016", "groupCode": "F70174", "latitude": 47.988213, "longitude": -2.098177, "name": "PLELAN LE GRAND LA CANOPEE AM", "postCode": "35380", "samplingLocationCode": "6", "horaires": null, "infos": null, "metro": null, "bus": null, "tram": null, "parking": null, "debutInfos": null, "finInfos": null, "ville": null, "id": null, "phone": null, "urlBlood": null, "urlPlasma": null, "urlPlatelets": null}
{"address1": null, "address2": "RUE DE LA CHEZE", "city": "PLELAN LE GRAND", "convocationLabel": "SALLE DES FETES", "distance": 0.0, "fullAddress": "RUE DE LA CHEZE 35380 PLELAN LE GRAND", "giveBlood": 1, "givePlasma": 0, "givePlatelet": 0, "regionCode": "016", "groupCode": "F70174", "latitude": 48.002559, "longitude": -2.092946, "name": "2 PLELAN LE GRAND-SDF MAT ", "postCode": "35380", "samplingLocationCode": "7", "horaires": null, "infos": null, "metro": null, "bus": null, "tram": null, "parking": null, "debutInfos": null, "finInfos": null, "ville": null, "id": null, "phone": null, "urlBlood": null, "urlPlasma": null, "urlPlatelets": null}
{"address1": null, "address2": "RUE DE LA CHEZE", "city": "PLELAN LE GRAND", "convocationLabel": "SALLE DES FETES", "distance": 0.0, "fullAddress": "RUE DE LA CHEZE 35380 PLELAN LE GRAND", "giveBlood": 1, "givePlasma": 0, "givePlatelet": 0, "regionCode": "016", "groupCode": "F70174", "latitude": 48.00265884, "longitude": -2.09195209, "name": "2 PLELAN LE GRAND-SDF AM ", "postCode": "35380", "samplingLocationCode": "8", "horaires": null, "infos": null, "metro": null, "bus": null, "tram": null, "parking": null, "debutInfos": null, "finInfos": null, "ville": null, "id": null, "phone": null, "urlBlood": null, "urlPlasma": null, "urlPlatelets": null}
{"address1": null, "address2": "RUE SIMONE VEIL", "city": "PLELAN LE GRAND", "convocationLabel": "LA CANOPEE", "distance": 0.0, "fullAddress": "RUE SIMONE VEIL 35380 PLELAN LE GRAND", "giveBlood": 1, "givePlasma": 0, "givePlatelet": 0, "regionCode": "016", "groupCode": "F70174", "latitude": 47.988213, "longitude": -2.098177, "name": "2 PLELAN LE GRAND-CANOPEE AM ", "postCode": "35380", "samplingLocationCode": "9", "horaires": null, "infos": null, "metro": null, "bus": null, "tram": null, "parking": null, "debutInfos": null, "finInfos": null, "ville": null, "id": null, "phone": null, "urlBlood": null, "urlPlasma": null, "urlPlatelets": null}
