{"address1": null, "address2": "10 RUE MARCEL PROUST", "city": "ST BRIEUC", "convocationLabel": null, "distance": 0.0, "fullAddress": "10 RUE MARCEL PROUST 22000 ST BRIEUC", "giveBlood": 1, "givePlasma": 0, "givePlatelet": 0, "regionCode": "016", "groupCode": "F00001", "latitude": 48.490442, "longitude": -2.747687, "name": "CABINE St-BRIEUC Lundi", "postCode": "22000", "samplingLocationCode": "1316", "horaires": null, "infos": null, "metro": null, "bus": null, "tram": null, "parking": null, "debutInfos": null, "finInfos": null, "ville": null, "id": null, "phone": null, "urlBlood": null, "urlPlasma": null, "urlPlatelets": null}
{"address1": null, "address2": "10 RUE MARCEL PROUST", "city": "ST BRIEUC", "convocationLabel": null, "distance": 0.0, "fullAddress": "10 RUE MARCEL PROUST 22000 ST BRIEUC", "giveBlood": 1, "givePlasma": 0, "givePlatelet": 0, "regionCode": "016", "groupCode": "F00001", "latitude": 48.490442, "longitude": -2.747687, "name": "CABINE St BRIEUC Samedi", "postCode": "22000", "samplingLocationCode": "2", "horaires": null, "infos": null, "metro": null, "bus": null, "tram": null, "parking": null, "debutInfos": null, "finInfos": null, "ville": null, "id": null, "phone": null, "urlBlood": null, "urlPlasma": null, "urlPlatelets": null}
{"address1": null, "address2": "10 RUE MARCEL PROUST", "city": "ST BRIEUC", "convocationLabel": null, "distance": 0.0, "fullAddress": "10 RUE MARCEL PROUST 22000 ST BRIEUC", "giveBlood": 1, "givePlasma": 0, "givePlatelet": 0, "regionCode": "016", "groupCode": "F00001", "latitude": 48.490442, "longitude": -2.747687, "name": "CABINE St BRIEUC Mardi", "postCode": "22000", "samplingLocationCode": "3", "horaires": null, "infos": null, "metro": null, "bus": null, "tram": null, "parking": null, "debutInfos": null, "finInfos": null, "ville": null, "id": null, "phone": null, "urlBlood": null, "urlPlasma": null, "urlPlatelets": null}
{"address1": null, "address2": "10 RUE MARCEL PROUST", "city": "SAINT-BRIEUC", "convocationLabel": null, "distance": 0.0, "fullAddress": "10 RUE MARCEL PROUST 22000 SAINT-BRIEUC", "giveBlood": 1, "givePlasma": 0, "givePlatelet": 0, "regionCode": "016", "groupCode": "F00001", "latitude": 48.490442, "longitude": -2.747687, "name": "action MDD", "postCode": "22000", "samplingLocationCode": "4", "horaires": null, "infos": null, "metro": null, "bus": null, "tram": null, "parking": null, "debutInfos": null, "finInfos": null, "ville": null, "id": null, "phone": null, "urlBlood": null, "urlPlasma": null, "urlPlatelets": null}
{"address1": null, "address2": "10 RUE MARCEL PROUST", "city": "ST BRIEUC", "convocationLabel": null, "distance": 0.0, "fullAddress": "10 RUE MARCEL PROUST 22000 ST BRIEUC", "giveBlood": 1, "givePlasma": 0, "givePlatelet": 0, "regionCode": "016", "groupCode": "F00001", "latitude": 48.490442, "longitude": -2.747687, "name": "CABINE St BRIEUC Jeudi", "postCode": "22000", "samplingLocationCode": "5", "horaires": null, "infos": null, "metro": null, "bus": null, "tram": null, "parking": null, "debutInfos": null, "finInfos": null, "ville": null, "id": null, "phone": null, "urlBlood": null, "urlPlasma": null, "urlPlatelets": null}
{"address1": null, "address2": "10 RUE MARCEL PROUST", "city": "ST BRIEUC", "convocationLabel": null, "distance": 0.0, "fullAddress": "10 RUE MARCEL PROUST 22000 ST BRIEUC", "giveBlood": 1, "givePlasma": 0, "givePlatelet": 0, "regionCode": "016", "groupCode": "F00001", "latitude": 48.490442, "longitude": -2.747687, "name": "ST BRIEUC - MDD Mercredi", "postCode": "22000", "samplingLocationCode": "6", "horaires": null, "infos": null, "metro": null, "bus": null, "tram": null, "parking": null, "debutInfos": null, "finInfos": null, "ville": null, "id": null, "phone": null, "urlBlood": null, "urlPlasma": null, "urlPlatelets": null}
{"address1": null, "address2": "10 RUE MARCEL PROUST", "city": "ST BRIEUC", "convocationLabel": null, "distance": 0.0, "fullAddress": "10 RUE MARCEL PROUST 22000 ST BRIEUC", "giveBlood": 1, "givePlasma": 0, "givePlatelet": 0, "regionCode": "016", "groupCode": "F00001", "latitude": 48.490442, "longitude": -2.747687, "name": "CABINE St Brieuc Vendredi", "postCode": "22000", "samplingLocationCode": "7", "horaires": null, "infos": null, "metro": null, "bus": null, "tram": null, "parking": null, "debutInfos": null, "finInfos": null, "ville": null, "id": null, "phone": null, "urlBlood": null, "urlPlasma": null, "urlPlatelets": null}
