{"address1": "SALLE ATLANTIQUE", "address2": "ROUTE COTIERE", "city": "GUIDEL", "convocationLabel": "CLUB BELAMBRA-SALLE ATLANTIQUE", "distance": 0.0, "fullAddress": "SALLE ATLANTIQUE ROUTE COTIERE 56520 GUIDEL", "giveBlood": 1, "givePlasma": 0, "givePlatelet": 0, "regionCode": "016", "groupCode": "F30199", "latitude": 47.83452, "longitude": -3.522794, "name": "GUIDEL-BELAMBRA 09 H - 13 H", "postCode": "56520", "samplingLocationCode": "10", "horaires": null, "infos": null, "metro": null, "bus": null, "tram": null, "parking": null, "debutInfos": null, "finInfos": null, "ville": null, "id": null, "phone": null, "urlBlood": null, "urlPlasma": null, "urlPlatelets": null}
{"address1": null, "address2": "ALLEE DE KERPRAT", "city": "GUIDEL", "convocationLabel": "RESTAURANT SCOLAIRE SALLE DE KERPRAT", "distance": 0.0, "fullAddress": "ALLEE DE KERPRAT 56520 GUIDEL", "giveBlood": 1, "givePlasma": 0, "givePlatelet": 0, "regionCode": "016", "groupCode": "F30199", "latitude": 47.787998, "longitude": -3.486285, "name": "GUIDEL KERPRAT 9H - 13H", "postCode": "56520", "samplingLocationCode": "11", "horaires": null, "infos": null, "metro": null, "bus": null, "tram": null, "parking": null, "debutInfos": null, "finInfos": null, "ville": null, "id": null, "phone": null, "urlBlood": null, "urlPlasma": null, "urlPlatelets": null}
{"address1": null, "address2": "KERPRAT", "city": "GUIDEL", "convocationLabel": "RESTAURANT SCOLAIRE SALLE DE KERPRAT", "distance": 0.0, "fullAddress": "KERPRAT 56520 GUIDEL", "giveBlood": 1, "givePlasma": 0, "givePlatelet": 0, "regionCode": "016", "groupCode": "F30199", "latitude": 47.787173, "longitude": -3.483908, "name": "GUIDEL SAMEDI", "postCode": "56520", "samplingLocationCode": "2", "horaires": null, "infos": null, "metro": null, "bus": null, "tram": null, "parking": null, "debutInfos": null, "finInfos": null, "ville": null, "id": null, "phone": null, "urlBlood": null, "urlPlasma": null, "urlPlatelets": null}
{"address1": null, "address2": "KERPRAT", "city": "GUIDEL", "convocationLabel": "RESTAURANT SCOLAIRE SALLE DE KERPRAT", "distance": 0.0, "fullAddress": "KERPRAT 56520 GUIDEL", "giveBlood": 1, "givePlasma": 0, "givePlatelet": 0, "regionCode": "016", "groupCode": "F30199", "latitude": 47.7868309, "longitude": -3.48308206, "name": "GUIDEL-SALLE  KERPRAT JOURNEE", "postCode": "56520", "samplingLocationCode": "3", "horaires": null, "infos": null, "metro": null, "bus": null, "tram": null, "parking": null, "debutInfos": null, "finInfos": null, "ville": null, "id": null, "phone": null, "urlBlood": null, "urlPlasma": null, "urlPlatelets": null}
{"address1": null, "address2": "KERPRAT", "city": "GUIDEL", "convocationLabel": "RESTAURANT SCOLAIRE SALLE DE KERPRAT", "distance": 0.0, "fullAddress": "KERPRAT 56520 GUIDEL", "giveBlood": 1, "givePlasma": 0, "givePlatelet": 0, "regionCode": "016", "groupCode": "F30199", "latitude": 47.7868309, "longitude": -3.48308206, "name": "GUIDEL -SALLE DE KERPRAT PM", "postCode": "56520", "samplingLocationCode": "4", "horaires": null, "infos": null, "metro": null, "bus": null, "tram": null, "parking": null, "debutInfos": null, "finInfos": null, "ville": null, "id": null, "phone": null, "urlBlood": null, "urlPlasma": null, "urlPlatelets": null}
{"address1": null, "address2": "KERPRAT", "city": "GUIDEL", "convocationLabel": "RESTAURANT SCOLAIRE SALLES DE KERPRAT", "distance": 0.0, "fullAddress": "KERPRAT 56520 GUIDEL", "giveBlood": 1, "givePlasma": 0, "givePlatelet": 0, "regionCode": "016", "groupCode": "F30199", "latitude": 47.787173, "longitude": -3.483908, "name": "GUIDEL 08h30-13h00", "postCode": "56520", "samplingLocationCode": "5", "horaires": null, "infos": null, "metro": null, "bus": null, "tram": null, "parking": null, "debutInfos": null, "finInfos": null, "ville": null, "id": null, "phone": null, "urlBlood": null, "urlPlasma": null, "urlPlatelets": null}
{"address1": null, "address2": "RUE AMIRAL FEBVRIER", "city": "GUIDEL", "convocationLabel": "CLUB DE L AMITIE", "distance": 0.0, "fullAddress": "RUE AMIRAL FEBVRIER 56520 GUIDEL", "giveBlood": 1, "givePlasma": 0, "givePlatelet": 0, "regionCode": "016", "groupCode": "F30199", "latitude": 47.79151, "longitude": -3.489125, "name": "GUIDEL ETE MATIN", "postCode": "56520", "samplingLocationCode": "6", "horaires": null, "infos": null, "metro": null, "bus": null, "tram": null, "parking": null, "debutInfos": null, "finInfos": null, "ville": null, "id": null, "phone": null, "urlBlood": null, "urlPlasma": null, "urlPlatelets": null}
{"address1": null, "address2": "KERPRAT", "city": "GUIDEL", "convocationLabel": "RESTAURANT SCOLAIRE SALLES DE KERPRAT", "distance": 0.0, "fullAddress": "KERPRAT 56520 GUIDEL", "giveBlood": 1, "givePlasma": 0, "givePlatelet": 0, "regionCode": "016", "groupCode": "F30199", "latitude": 47.7868309, "longitude": -3.48308206, "name": "GUIDEL ETE PM", "postCode": "56520", "samplingLocationCode": "7", "horaires": null, "infos": null, "metro": null, "bus": null, "tram": null, "parking": null, "debutInfos": null, "finInfos": null, "ville": null, "id": null, "phone": null, "urlBlood": null, "urlPlasma": null, "urlPlatelets": null}
{"address1": null, "address2": "KERPRAT", "city": "GUIDEL", "convocationLabel": "RESTAURANT SCOLAIRE SALLE DE KERPRAT", "distance": 0.0, "fullAddress": "KERPRAT 56520 GUIDEL", "giveBlood": 1, "givePlasma": 0, "givePlatelet": 0, "regionCode": "016", "groupCode": "F30199", "latitude": 47.7868309, "longitude": -3.48308206, "name": "GUIDEL 14 H 30 - 19  H 00", "postCode": "56520", "samplingLocationCode": "8", "horaires": null, "infos": null, "metro": null, "bus": null, "tram": null, "parking": null, "debutInfos": null, "finInfos": null, "ville": null, "id": null, "phone": null, "urlBlood": null, "urlPlasma": null, "urlPlatelets": null}
{"address1": null, "address2": "KERPRAT", "city": "GUIDEL", "convocationLabel": "RESTAURANT SCOLAIRE SALLE DE KERPRAT", "distance": 0.0, "fullAddress": "KERPRAT 56520 GUIDEL", "giveBlood": 1, "givePlasma": 0, "givePlatelet": 0, "regionCode": "016", "groupCode": "F30199", "latitude": 47.7868309, "longitude": -3.48308206, "name": "GUIDEL 12h - 16 h 30", "postCode": "56520", "samplingLocationCode": "9", "horaires": null, "infos": null, "metro": null, "bus": null, "tram": null, "parking": null, "debutInfos": null, "finInfos": null, "ville": null, "id": null, "phone": null, "urlBlood": null, "urlPlasma": null, "urlPlatelets": null}
