{"address1": null, "address2": "TRONJOLY", "city": "GOURIN", "convocationLabel": "SALLE DES FETES DE TRONJOLY", "distance": 0.0, "fullAddress": "TRONJOLY 56110 GOURIN", "giveBlood": 1, "givePlasma": 0, "givePlatelet": 0, "regionCode": "016", "groupCode": "F30190", "latitude": 48.14426041, "longitude": -3.6114099, "name": "GOURIN PM", "postCode": "56110", "samplingLocationCode": "2", "horaires": null, "infos": null, "metro": null, "bus": null, "tram": null, "parking": null, "debutInfos": null, "finInfos": null, "ville": null, "id": null, "phone": null, "urlBlood": null, "urlPlasma": null, "urlPlatelets": null}
{"address1": null, "address2": "TROJONLY", "city": "GOURIN", "convocationLabel": "SALLE DES FETES DE TRONJOLY", "distance": 0.0, "fullAddress": "TROJONLY 56110 GOURIN", "giveBlood": 1, "givePlasma": 0, "givePlatelet": 0, "regionCode": "016", "groupCode": "F30190", "latitude": 48.138412, "longitude": -3.536671, "name": "GOURIN MATIN", "postCode": "56110", "samplingLocationCode": "3", "horaires": null, "infos": null, "metro": null, "bus": null, "tram": null, "parking": null, "debutInfos": null, "finInfos": null, "ville": null, "id": null, "phone": null, "urlBlood": null, "urlPlasma": null, "urlPlatelets": null}
{"address1": null, "address2": "TRONJOLY", "city": "GOURIN", "convocationLabel": "SALLE DES FETES DE TROJONLY-LYCEE JEANNE D ARC", "distance": 0.0, "fullAddress": "TRONJOLY 56110 GOURIN", "giveBlood": 1, "givePlasma": 0, "givePlatelet": 0, "regionCode": "016", "groupCode": "F30190", "latitude": 48.144201, "longitude": -3.610732, "name": "GOURIN-LYCEE JEANNE D'ARC", "postCode": "56110", "samplingLocationCode": "4", "horaires": null, "infos": null, "metro": null, "bus": null, "tram": null, "parking": null, "debutInfos": null, "finInfos": null, "ville": null, "id": null, "phone": null, "urlBlood": null, "urlPlasma": null, "urlPlatelets": null}
{"address1": null, "address2": "TRONJOLY", "city": "GOURIN", "convocationLabel": "SALLE DES FETES DE TRONJOLY", "distance": 0.0, "fullAddress": "TRONJOLY 56110 GOURIN", "giveBlood": 1, "givePlasma": 0, "givePlatelet": 0, "regionCode": "016", "groupCode": "F30190", "latitude": 48.144201, "longitude": -3.610732, "name": "GOURIN 12 h - 16 h", "postCode": "56110", "samplingLocationCode": "5", "horaires": null, "infos": null, "metro": null, "bus": null, "tram": null, "parking": null, "debutInfos": null, "finInfos": null, "ville": null, "id": null, "phone": null, "urlBlood": null, "urlPlasma": null, "urlPlatelets": null}
{"address1": null, "address2": "307 ALLEE DU DOMAINE DE TRONJOLY", "city": "GOURIN", "convocationLabel": "SALLE DES FETES DE TRONJOLY", "distance": 0.0, "fullAddress": "307 ALLEE DU DOMAINE DE TRONJOLY 56110 GOURIN", "giveBlood": 1, "givePlasma": 0, "givePlatelet": 0, "regionCode": "016", "groupCode": "F30190", "latitude": 48.14426041, "longitude": -3.6114099, "name": "GOURIN 15-18h30", "postCode": "56110", "samplingLocationCode": "6", "horaires": null, "infos": null, "metro": null, "bus": null, "tram": null, "parking": null, "debutInfos": null, "finInfos": null, "ville": null, "id": null, "phone": null, "urlBlood": null, "urlPlasma": null, "urlPlatelets": null}
{"address1": null, "address2": "TRONJOLY", "city": "GOURIN", "convocationLabel": "SALLE DES F\u00caTES DE TRONJOLY", "distance": 0.0, "fullAddress": "TRONJOLY 56110 GOURIN", "giveBlood": 1, "givePlasma": 0, "givePlatelet": 0, "regionCode": "016", "groupCode": "F30190", "latitude": 48.144201, "longitude": -3.610732, "name": "GOURIN", "postCode": "56110", "samplingLocationCode": "960", "horaires": null, "infos": null, "metro": null, "bus": null, "tram": null, "parking": null, "debutInfos": null, "finInfos": null, "ville": null, "id": null, "phone": null, "urlBlood": null, "urlPlasma": null, "urlPlatelets": null}
