{"address1": null, "address2": "RUE DU MOULIN A VENT", "city": "RADENAC", "convocationLabel": "SALLE DES LUTINS", "distance": 0.0, "fullAddress": "RUE DU MOULIN A VENT 56500 RADENAC", "giveBlood": 1, "givePlasma": 0, "givePlatelet": 0, "regionCode": "016", "groupCode": "F30372", "latitude": 47.964786, "longitude": -2.713758, "name": "RADENAC S", "postCode": "56500", "samplingLocationCode": "1538", "horaires": null, "infos": null, "metro": null, "bus": null, "tram": null, "parking": null, "debutInfos": null, "finInfos": null, "ville": null, "id": null, "phone": null, "urlBlood": null, "urlPlasma": null, "urlPlatelets": null}
{"address1": null, "address2": "RUE DU MOULIN A VENT", "city": "RADENAC", "convocationLabel": "SALLE DES LUTINS", "distance": 0.0, "fullAddress": "RUE DU MOULIN A VENT 56500 RADENAC", "giveBlood": 1, "givePlasma": 0, "givePlatelet": 0, "regionCode": "016", "groupCode": "F30372", "latitude": 47.964786, "longitude": -2.713758, "name": "RADENAC AM", "postCode": "56500", "samplingLocationCode": "2", "horaires": null, "infos": null, "metro": null, "bus": null, "tram": null, "parking": null, "debutInfos": null, "finInfos": null, "ville": null, "id": null, "phone": null, "urlBlood": null, "urlPlasma": null, "urlPlatelets": null}
{"address1": null, "address2": "SALLE DES FETES", "city": "NAIZIN", "convocationLabel": "SALLE DES FETES", "distance": 0.0, "fullAddress": "SALLE DES FETES 56500 NAIZIN", "giveBlood": 1, "givePlasma": 0, "givePlatelet": 0, "regionCode": "016", "groupCode": "F30372", "latitude": 47.954883, "longitude": -2.856541, "name": "NAIZIN (NE PLUS UTILISER)", "postCode": "56500", "samplingLocationCode": "3", "horaires": null, "infos": null, "metro": null, "bus": null, "tram": null, "parking": null, "debutInfos": null, "finInfos": null, "ville": null, "id": null, "phone": null, "urlBlood": null, "urlPlasma": null, "urlPlatelets": null}
{"address1": null, "address2": "12 RUE DU STADE", "city": "RADENAC", "convocationLabel": "SALLE ST FIACRE", "distance": 0.0, "fullAddress": "12 RUE DU STADE 56500 RADENAC", "giveBlood": 1, "givePlasma": 0, "givePlatelet": 0, "regionCode": "016", "groupCode": "F30372", "latitude": 47.964065, "longitude": -2.713286, "name": "RADENAC S ST FIACRE", "postCode": "56500", "samplingLocationCode": "4", "horaires": null, "infos": null, "metro": null, "bus": null, "tram": null, "parking": null, "debutInfos": null, "finInfos": null, "ville": null, "id": null, "phone": null, "urlBlood": null, "urlPlasma": null, "urlPlatelets": null}
{"address1": null, "address2": "RUE DU STADE", "city": "RADENAC", "convocationLabel": "SALLE ST FIACRE", "distance": 0.0, "fullAddress": "RUE DU STADE 56500 RADENAC", "giveBlood": 1, "givePlasma": 0, "givePlatelet": 0, "regionCode": "016", "groupCode": "F30372", "latitude": 47.964451, "longitude": -2.713113, "name": "RADENAC AM ST FIACRE", "postCode": "56500", "samplingLocationCode": "5", "horaires": null, "infos": null, "metro": null, "bus": null, "tram": null, "parking": null, "debutInfos": null, "finInfos": null, "ville": null, "id": null, "phone": null, "urlBlood": null, "urlPlasma": null, "urlPlatelets": null}
