{"address1": null, "address2": null, "city": "CHATEAUBOURG", "convocationLabel": "SALLE POLYVALENTE BEL AIR", "distance": 0.0, "fullAddress": "35220 CHATEAUBOURG", "giveBlood": 1, "givePlasma": 0, "givePlatelet": 0, "regionCode": "016", "groupCode": "F70050", "latitude": 48.113502, "longitude": -1.401648, "name": "CHATEAUBOURG VEILLE FERIE MAT", "postCode": "35220", "samplingLocationCode": "2", "horaires": null, "infos": null, "metro": null, "bus": null, "tram": null, "parking": null, "debutInfos": null, "finInfos": null, "ville": null, "id": null, "phone": null, "urlBlood": null, "urlPlasma": null, "urlPlatelets": null}
{"address1": null, "address2": "RUE DENIS PAPIN", "city": "CHATEAUBOURG", "convocationLabel": "SALLE LA CLE DES CHAMPS", "distance": 0.0, "fullAddress": "RUE DENIS PAPIN 35220 CHATEAUBOURG", "giveBlood": 1, "givePlasma": 0, "givePlatelet": 0, "regionCode": "016", "groupCode": "F70050", "latitude": 48.10058212, "longitude": -1.40560424, "name": "CHATEAUBOURG MAT", "postCode": "35220", "samplingLocationCode": "3", "horaires": null, "infos": null, "metro": null, "bus": null, "tram": null, "parking": null, "debutInfos": null, "finInfos": null, "ville": null, "id": null, "phone": null, "urlBlood": null, "urlPlasma": null, "urlPlatelets": null}
{"address1": null, "address2": "RUE DENIS PAPIN", "city": "CHATEAUBOURG", "convocationLabel": "SALLE LA CLE DES CHAMPS", "distance": 0.0, "fullAddress": "RUE DENIS PAPIN 35220 CHATEAUBOURG", "giveBlood": 1, "givePlasma": 0, "givePlatelet": 0, "regionCode": "016", "groupCode": "F70050", "latitude": 48.10058212, "longitude": -1.40560424, "name": "CHATEAUBOURG AM", "postCode": "35220", "samplingLocationCode": "4", "horaires": null, "infos": null, "metro": null, "bus": null, "tram": null, "parking": null, "debutInfos": null, "finInfos": null, "ville": null, "id": null, "phone": null, "urlBlood": null, "urlPlasma": null, "urlPlatelets": null}
{"address1": null, "address2": "RUE DENIS PAPIN", "city": "CHATEAUBOURG", "convocationLabel": "SALLE LA CLE DES CHAMPS", "distance": 0.0, "fullAddress": "RUE DENIS PAPIN 35220 CHATEAUBOURG", "giveBlood": 1, "givePlasma": 0, "givePlatelet": 0, "regionCode": "016", "groupCode": "F70050", "latitude": 48.10058975, "longitude": -1.40587652, "name": "2 CHATEAUBOURG-CHAMPS AM ", "postCode": "35220", "samplingLocationCode": "5", "horaires": null, "infos": null, "metro": null, "bus": null, "tram": null, "parking": null, "debutInfos": null, "finInfos": null, "ville": null, "id": null, "phone": null, "urlBlood": null, "urlPlasma": null, "urlPlatelets": null}
{"address1": null, "address2": "RUE DENIS PAPIN", "city": "CHATEAUBOURG", "convocationLabel": "SALLE LA CLE DES CHAMPS", "distance": 0.0, "fullAddress": "RUE DENIS PAPIN 35220 CHATEAUBOURG", "giveBlood": 1, "givePlasma": 0, "givePlatelet": 0, "regionCode": "016", "groupCode": "F70050", "latitude": 48.10058975, "longitude": -1.40587652, "name": "2 CHATEAUBOURG-CHAMPS DAM J+", "postCode": "35220", "samplingLocationCode": "6", "horaires": null, "infos": null, "metro": null, "bus": null, "tram": null, "parking": null, "debutInfos": null, "finInfos": null, "ville": null, "id": null, "phone": null, "urlBlood": null, "urlPlasma": null, "urlPlatelets": null}
{"address1": null, "address2": "RUE DENIS PAPIN", "city": "CHATEAUBOURG", "convocationLabel": "SALLE LA CLE DES CHAMPS", "distance": 0.0, "fullAddress": "RUE DENIS PAPIN 35220 CHATEAUBOURG", "giveBlood": 1, "givePlasma": 0, "givePlatelet": 0, "regionCode": "016", "groupCode": "F70050", "latitude": 48.100472, "longitude": -1.406282, "name": "CHATEAUBOURG JO", "postCode": "35220", "samplingLocationCode": "63", "horaires": null, "infos": null, "metro": null, "bus": null, "tram": null, "parking": null, "debutInfos": null, "finInfos": null, "ville": null, "id": null, "phone": null, "urlBlood": null, "urlPlasma": null, "urlPlatelets": null}
{"address1": null, "address2": "RUE DENIS PAPIN", "city": "CHATEAUBOURG", "convocationLabel": "SALLE LA CLE DES CHAMPS", "distance": 0.0, "fullAddress": "RUE DENIS PAPIN 35220 CHATEAUBOURG", "giveBlood": 1, "givePlasma": 0, "givePlatelet": 0, "regionCode": "016", "groupCode": "F70050", "latitude": 48.100472, "longitude": -1.406282, "name": "2 CHATEAUBOURG-CHAMPS AM J+ ", "postCode": "35220", "samplingLocationCode": "7", "horaires": null, "infos": null, "metro": null, "bus": null, "tram": null, "parking": null, "debutInfos": null, "finInfos": null, "ville": null, "id": null, "phone": null, "urlBlood": null, "urlPlasma": null, "urlPlatelets": null}
{"address1": null, "address2": "RUE DENIS PAPIN", "city": "CHATEAUBOURG", "convocationLabel": "SALLE LA CLEF DES CHAMPS", "distance": 0.0, "fullAddress": "RUE DENIS PAPIN 35220 CHATEAUBOURG", "giveBlood": 1, "givePlasma": 0, "givePlatelet": 0, "regionCode": "016", "groupCode": "F70050", "latitude": 48.100472, "longitude": -1.406282, "name": "2 CHATEAUBOURG-CHAMPS JO", "postCode": "35220", "samplingLocationCode": "8", "horaires": null, "infos": null, "metro": null, "bus": null, "tram": null, "parking": null, "debutInfos": null, "finInfos": null, "ville": null, "id": null, "phone": null, "urlBlood": null, "urlPlasma": null, "urlPlatelets": null}
