{"address1": "RESIDENCE DU BOIS DE LA SILLANDAIS", "address2": "COURS DES VIEUX METIERS", "city": "CHAVAGNE", "convocationLabel": "SALLE DE LA MAS", "distance": 0.0, "fullAddress": "RESIDENCE DU BOIS DE LA SILLANDAIS COURS DES VIEUX METIERS 35310 CHAVAGNE", "giveBlood": 1, "givePlasma": 0, "givePlatelet": 0, "regionCode": "016", "groupCode": "F70056", "latitude": 48.050349, "longitude": -1.78519, "name": "CHAVAGNE LA MAS SA", "postCode": "35310", "samplingLocationCode": "2", "horaires": null, "infos": null, "metro": null, "bus": null, "tram": null, "parking": null, "debutInfos": null, "finInfos": null, "ville": null, "id": null, "phone": null, "urlBlood": null, "urlPlasma": null, "urlPlatelets": null}
{"address1": null, "address2": "AVENUE DE LA MAIRIE", "city": "CHAVAGNE", "convocationLabel": "SALLE POLYVALENTE L'ENTRE DEUX RIVES", "distance": 0.0, "fullAddress": "AVENUE DE LA MAIRIE 35310 CHAVAGNE", "giveBlood": 1, "givePlasma": 0, "givePlatelet": 0, "regionCode": "016", "groupCode": "F70056", "latitude": 48.052572, "longitude": -1.788396, "name": "CHAVAGNE", "postCode": "35310", "samplingLocationCode": "3", "horaires": null, "infos": null, "metro": null, "bus": null, "tram": null, "parking": null, "debutInfos": null, "finInfos": null, "ville": null, "id": null, "phone": null, "urlBlood": null, "urlPlasma": null, "urlPlatelets": null}
{"address1": null, "address2": "AVENUE DE LA MAIRIE", "city": "CHAVAGNE", "convocationLabel": "SALLE POLYVALENTE L'ENTRE DEUX RIVES", "distance": 0.0, "fullAddress": "AVENUE DE LA MAIRIE 35310 CHAVAGNE", "giveBlood": 1, "givePlasma": 0, "givePlatelet": 0, "regionCode": "016", "groupCode": "F70056", "latitude": 48.052572, "longitude": -1.788396, "name": "CHAVAGNE", "postCode": "35310", "samplingLocationCode": "4", "horaires": null, "infos": null, "metro": null, "bus": null, "tram": null, "parking": null, "debutInfos": null, "finInfos": null, "ville": null, "id": null, "phone": null, "urlBlood": null, "urlPlasma": null, "urlPlatelets": null}
{"address1": null, "address2": "AVENUE DE LA MAIRIE", "city": "CHAVAGNE", "convocationLabel": "SALLE POLYVALENTE L'ENTRE 2 RIVES", "distance": 0.0, "fullAddress": "AVENUE DE LA MAIRIE 35360 CHAVAGNE", "giveBlood": 1, "givePlasma": 0, "givePlatelet": 0, "regionCode": "016", "groupCode": "F70056", "latitude": 48.267882, "longitude": -2.067823, "name": "CHAVAGNE SA", "postCode": "35360", "samplingLocationCode": "5", "horaires": null, "infos": null, "metro": null, "bus": null, "tram": null, "parking": null, "debutInfos": null, "finInfos": null, "ville": null, "id": null, "phone": null, "urlBlood": null, "urlPlasma": null, "urlPlatelets": null}
{"address1": null, "address2": "AVENUE DE LA MAIRIE", "city": "CHAVAGNE", "convocationLabel": "SALLE POLYVALENTE L'ENTRE 2 RIVES", "distance": 0.0, "fullAddress": "AVENUE DE LA MAIRIE 35310 CHAVAGNE", "giveBlood": 1, "givePlasma": 0, "givePlatelet": 0, "regionCode": "016", "groupCode": "F70056", "latitude": 48.05273056, "longitude": -1.78807473, "name": "2 CHAVAGNE-SALLE POLY AM ", "postCode": "35310", "samplingLocationCode": "6", "horaires": null, "infos": null, "metro": null, "bus": null, "tram": null, "parking": null, "debutInfos": null, "finInfos": null, "ville": null, "id": null, "phone": null, "urlBlood": null, "urlPlasma": null, "urlPlatelets": null}
{"address1": null, "address2": "AVENUE DE LA MAIRIE", "city": "CHAVAGNE", "convocationLabel": "SALLE POLYVALENTE L'ENTRE 2 RIVES", "distance": 0.0, "fullAddress": "AVENUE DE LA MAIRIE 35310 CHAVAGNE", "giveBlood": 1, "givePlasma": 0, "givePlatelet": 0, "regionCode": "016", "groupCode": "F70056", "latitude": 48.05228424, "longitude": -1.78887904, "name": "CHAVAGNE SALLE POLY SEMAINE", "postCode": "35310", "samplingLocationCode": "69", "horaires": null, "infos": null, "metro": null, "bus": null, "tram": null, "parking": null, "debutInfos": null, "finInfos": null, "ville": null, "id": null, "phone": null, "urlBlood": null, "urlPlasma": null, "urlPlatelets": null}
{"address1": null, "address2": "AVENUE DE LA MAIRIE", "city": "CHAVAGNE", "convocationLabel": "SALLE POLYVALENTE L'ENTRE 2 RIVES", "distance": 0.0, "fullAddress": "AVENUE DE LA MAIRIE 35310 CHAVAGNE", "giveBlood": 1, "givePlasma": 0, "givePlatelet": 0, "regionCode": "016", "groupCode": "F70056", "latitude": 48.052572, "longitude": -1.788396, "name": "2 CHAVAGNE-SALLE POLY MAT", "postCode": "35310", "samplingLocationCode": "7", "horaires": null, "infos": null, "metro": null, "bus": null, "tram": null, "parking": null, "debutInfos": null, "finInfos": null, "ville": null, "id": null, "phone": null, "urlBlood": null, "urlPlasma": null, "urlPlatelets": null}
