{"address1": null, "address2": "RUE JEANNE D ARC", "city": "LESNEVEN", "convocationLabel": "L ATELIER", "distance": 0.0, "fullAddress": "RUE JEANNE D ARC 29260 LESNEVEN", "giveBlood": 1, "givePlasma": 0, "givePlatelet": 0, "regionCode": "016", "groupCode": "F50132", "latitude": 48.57017130919928, "longitude": -4.3232059478759775, "name": "LESNEVEN ATELIER J1", "postCode": "29260", "samplingLocationCode": "3", "horaires": null, "infos": null, "metro": null, "bus": null, "tram": null, "parking": null, "debutInfos": null, "finInfos": null, "ville": null, "id": null, "phone": null, "urlBlood": null, "urlPlasma": null, "urlPlatelets": null}
{"address1": null, "address2": "RUE JEANNE D ARC", "city": "LESNEVEN", "convocationLabel": "L ATELIER", "distance": 0.0, "fullAddress": "RUE JEANNE D ARC 29260 LESNEVEN", "giveBlood": 1, "givePlasma": 0, "givePlatelet": 0, "regionCode": "016", "groupCode": "F50132", "latitude": 48.57028062713752, "longitude": -4.323216676712036, "name": "LESNEVEN ATELIER J2 - J3", "postCode": "29260", "samplingLocationCode": "4", "horaires": null, "infos": null, "metro": null, "bus": null, "tram": null, "parking": null, "debutInfos": null, "finInfos": null, "ville": null, "id": null, "phone": null, "urlBlood": null, "urlPlasma": null, "urlPlatelets": null}
{"address1": null, "address2": "12 RUE DE LA MARNE", "city": "LESNEVEN", "convocationLabel": "MAISON D ACCUEIL", "distance": 0.0, "fullAddress": "12 RUE DE LA MARNE 29260 LESNEVEN", "giveBlood": 1, "givePlasma": 0, "givePlatelet": 0, "regionCode": "016", "groupCode": "F50132", "latitude": 48.571294, "longitude": -4.321847, "name": "LESNEVEN MAISON D ACCUEIL J1", "postCode": "29260", "samplingLocationCode": "5", "horaires": null, "infos": null, "metro": null, "bus": null, "tram": null, "parking": null, "debutInfos": null, "finInfos": null, "ville": null, "id": null, "phone": null, "urlBlood": null, "urlPlasma": null, "urlPlatelets": null}
{"address1": null, "address2": "12 RUE DE LA MARNE", "city": "LESNEVEN", "convocationLabel": "MAISON D ACCUEIL", "distance": 0.0, "fullAddress": "12 RUE DE LA MARNE 29260 LESNEVEN", "giveBlood": 1, "givePlasma": 0, "givePlatelet": 0, "regionCode": "016", "groupCode": "F50132", "latitude": 48.571294, "longitude": -4.321847, "name": "LESNEVEN MAISON D ACCUEIL J2", "postCode": "29260", "samplingLocationCode": "6", "horaires": null, "infos": null, "metro": null, "bus": null, "tram": null, "parking": null, "debutInfos": null, "finInfos": null, "ville": null, "id": null, "phone": null, "urlBlood": null, "urlPlasma": null, "urlPlatelets": null}
{"address1": null, "address2": "69 RUE D'ARVOR", "city": "LESNEVEN", "convocationLabel": "SALLE KERJEZEQUEL", "distance": 0.0, "fullAddress": "69 RUE D'ARVOR 29260 LESNEVEN", "giveBlood": 1, "givePlasma": 0, "givePlatelet": 0, "regionCode": "016", "groupCode": "F50132", "latitude": 48.58589, "longitude": -4.31583, "name": "LESNEVEN KERJEZEQUEL J1", "postCode": "29260", "samplingLocationCode": "694", "horaires": null, "infos": null, "metro": null, "bus": null, "tram": null, "parking": null, "debutInfos": null, "finInfos": null, "ville": null, "id": null, "phone": null, "urlBlood": null, "urlPlasma": null, "urlPlatelets": null}
{"address1": null, "address2": "RUE JEANNE D ARC", "city": "LESNEVEN", "convocationLabel": "L ATELIER", "distance": 0.0, "fullAddress": "RUE JEANNE D ARC 29260 LESNEVEN", "giveBlood": 1, "givePlasma": 0, "givePlatelet": 0, "regionCode": "016", "groupCode": "F50132", "latitude": 48.570766, "longitude": -4.323429, "name": "J1 SEPT", "postCode": "29260", "samplingLocationCode": "7", "horaires": null, "infos": null, "metro": null, "bus": null, "tram": null, "parking": null, "debutInfos": null, "finInfos": null, "ville": null, "id": null, "phone": null, "urlBlood": null, "urlPlasma": null, "urlPlatelets": null}
{"address1": null, "address2": "12 RUE DE LA MARNE", "city": "LESNEVEN", "convocationLabel": "MAISON D ACCUEIL", "distance": 0.0, "fullAddress": "12 RUE DE LA MARNE 29260 LESNEVEN", "giveBlood": 1, "givePlasma": 0, "givePlatelet": 0, "regionCode": "016", "groupCode": "F50132", "latitude": 48.571294, "longitude": -4.321847, "name": "LESNEVEN MAISON D ACCUEIL J3", "postCode": "29260", "samplingLocationCode": "797", "horaires": null, "infos": null, "metro": null, "bus": null, "tram": null, "parking": null, "debutInfos": null, "finInfos": null, "ville": null, "id": null, "phone": null, "urlBlood": null, "urlPlasma": null, "urlPlatelets": null}
{"address1": null, "address2": "RUE JEANNE D ARC", "city": "LESNEVEN", "convocationLabel": "L ATELIER", "distance": 0.0, "fullAddress": "RUE JEANNE D ARC 29260 LESNEVEN", "giveBlood": 1, "givePlasma": 0, "givePlatelet": 0, "regionCode": "016", "groupCode": "F50132", "latitude": 48.570766, "longitude": -4.323429, "name": "J2 SEPT", "postCode": "29260", "samplingLocationCode": "8", "horaires": null, "infos": null, "metro": null, "bus": null, "tram": null, "parking": null, "debutInfos": null, "finInfos": null, "ville": null, "id": null, "phone": null, "urlBlood": null, "urlPlasma": null, "urlPlatelets": null}
{"address1": null, "address2": "RUE JEANNE D ARC", "city": "LESNEVEN", "convocationLabel": "L ATELIER", "distance": 0.0, "fullAddress": "RUE JEANNE D ARC 29260 LESNEVEN", "giveBlood": 1, "givePlasma": 0, "givePlatelet": 0, "regionCode": "016", "groupCode": "F50132", "latitude": 48.58413315, "longitude": -4.31734133, "name": "LESNEVEN ATELIER J3", "postCode": "29260", "samplingLocationCode": "9", "horaires": null, "infos": null, "metro": null, "bus": null, "tram": null, "parking": null, "debutInfos": null, "finInfos": null, "ville": null, "id": null, "phone": null, "urlBlood": null, "urlPlasma": null, "urlPlatelets": null}
