{"address1": null, "address2": "RUE MSTISLAV ROSTROPOVITCH", "city": "PONT L'ABBE", "convocationLabel": "CENTRE CULTUREL 'LE TRISKELL'", "distance": 0.0, "fullAddress": "RUE MSTISLAV ROSTROPOVITCH 29120 PONT L'ABBE", "giveBlood": 1, "givePlasma": 0, "givePlatelet": 0, "regionCode": "016", "groupCode": "F50228", "latitude": 47.86856, "longitude": -4.219342, "name": "PONT L'ABBE SAMEDI", "postCode": "29120", "samplingLocationCode": "1107", "horaires": null, "infos": null, "metro": null, "bus": null, "tram": null, "parking": null, "debutInfos": null, "finInfos": null, "ville": null, "id": null, "phone": null, "urlBlood": null, "urlPlasma": null, "urlPlatelets": null}
{"address1": null, "address2": "RUE MSTISLAV ROSTROPOVITCH", "city": "PONT L'ABBE", "convocationLabel": "CENTRE CULTUREL 'LE TRISKELL'", "distance": 0.0, "fullAddress": "RUE MSTISLAV ROSTROPOVITCH 29120 PONT L'ABBE", "giveBlood": 1, "givePlasma": 0, "givePlatelet": 0, "regionCode": "016", "groupCode": "F50228", "latitude": 47.8678894, "longitude": -4.22561598, "name": "PONT L'ABBE MERCREDI", "postCode": "29120", "samplingLocationCode": "2", "horaires": null, "infos": null, "metro": null, "bus": null, "tram": null, "parking": null, "debutInfos": null, "finInfos": null, "ville": null, "id": null, "phone": null, "urlBlood": null, "urlPlasma": null, "urlPlatelets": null}
{"address1": null, "address2": "RUE MSTISLAV ROSTROPOVITCH", "city": "PONT L'ABBE", "convocationLabel": "CENTRE CULTUREL LE TRISKELL", "distance": 0.0, "fullAddress": "RUE MSTISLAV ROSTROPOVITCH 29120 PONT L'ABBE", "giveBlood": 1, "givePlasma": 0, "givePlatelet": 0, "regionCode": "016", "groupCode": "F50228", "latitude": 47.8678894, "longitude": -4.22561598, "name": "PONT L'ABBE J2", "postCode": "29120", "samplingLocationCode": "3", "horaires": null, "infos": null, "metro": null, "bus": null, "tram": null, "parking": null, "debutInfos": null, "finInfos": null, "ville": null, "id": null, "phone": null, "urlBlood": null, "urlPlasma": null, "urlPlatelets": null}
{"address1": null, "address2": "RUE MSTISLAV ROSTROPOVITCH", "city": "PONT L'ABBE", "convocationLabel": "CENTRE CULTUREL 'LE TRISKELL'", "distance": 0.0, "fullAddress": "RUE MSTISLAV ROSTROPOVITCH 29120 PONT L'ABBE", "giveBlood": 1, "givePlasma": 0, "givePlatelet": 0, "regionCode": "016", "groupCode": "F50228", "latitude": 47.86856, "longitude": -4.219342, "name": "PONT L'ABBE JEUDI", "postCode": "29120", "samplingLocationCode": "4", "horaires": null, "infos": null, "metro": null, "bus": null, "tram": null, "parking": null, "debutInfos": null, "finInfos": null, "ville": null, "id": null, "phone": null, "urlBlood": null, "urlPlasma": null, "urlPlatelets": null}
{"address1": null, "address2": "RUE DU SEQUER", "city": "PONT L ABBE", "convocationLabel": "GYMNASE COLLEGE LAENNEC", "distance": 0.0, "fullAddress": "RUE DU SEQUER 29120 PONT L ABBE", "giveBlood": 1, "givePlasma": 0, "givePlatelet": 0, "regionCode": "016", "groupCode": "F50228", "latitude": 47.857573, "longitude": -4.237404, "name": "PONT L'ABBE-GYMNASE LAENNEC J1", "postCode": "29120", "samplingLocationCode": "5", "horaires": null, "infos": null, "metro": null, "bus": null, "tram": null, "parking": null, "debutInfos": null, "finInfos": null, "ville": null, "id": null, "phone": null, "urlBlood": null, "urlPlasma": null, "urlPlatelets": null}
{"address1": null, "address2": "RUE DU SEQUER", "city": "PONT L ABBE", "convocationLabel": "GYMNASE COLLEGE LAENNEC", "distance": 0.0, "fullAddress": "RUE DU SEQUER 29720 PONT L ABBE", "giveBlood": 1, "givePlasma": 0, "givePlatelet": 0, "regionCode": "016", "groupCode": "F50228", "latitude": 47.901255, "longitude": -4.274897, "name": "PONT L'ABBE-GYMNASE LAENNEC J2", "postCode": "29720", "samplingLocationCode": "6", "horaires": null, "infos": null, "metro": null, "bus": null, "tram": null, "parking": null, "debutInfos": null, "finInfos": null, "ville": null, "id": null, "phone": null, "urlBlood": null, "urlPlasma": null, "urlPlatelets": null}
{"address1": null, "address2": "RUE MSTISLAV ROSTROPOVITCH", "city": "PONT L'ABBE", "convocationLabel": "CENTRE CULTUREL LE TRISKELL", "distance": 0.0, "fullAddress": "RUE MSTISLAV ROSTROPOVITCH 29120 PONT L'ABBE", "giveBlood": 1, "givePlasma": 0, "givePlatelet": 0, "regionCode": "016", "groupCode": "F50228", "latitude": 47.8678894, "longitude": -4.22561598, "name": "PONT L'ABBE J1", "postCode": "29120", "samplingLocationCode": "7", "horaires": null, "infos": null, "metro": null, "bus": null, "tram": null, "parking": null, "debutInfos": null, "finInfos": null, "ville": null, "id": null, "phone": null, "urlBlood": null, "urlPlasma": null, "urlPlatelets": null}
