{"address1": null, "address2": "RUE DU MENEC (\u00e0 c\u00f4t\u00e9 du stade)", "city": "CARNAC", "convocationLabel": "SALLE DU MENEC", "distance": 0.0, "fullAddress": "RUE DU MENEC (\u00e0 c\u00f4t\u00e9 du stade) 56340 CARNAC", "giveBlood": 1, "givePlasma": 0, "givePlatelet": 0, "regionCode": "016", "groupCode": "F30140", "latitude": 47.587005, "longitude": -3.083984, "name": "CARNAC  9h-13h", "postCode": "56340", "samplingLocationCode": "1504", "horaires": null, "infos": null, "metro": null, "bus": null, "tram": null, "parking": null, "debutInfos": null, "finInfos": null, "ville": null, "id": null, "phone": null, "urlBlood": null, "urlPlasma": null, "urlPlatelets": null}
{"address1": null, "address2": "RUE DU MENEC (\u00e0 c\u00f4t\u00e9 stade)", "city": "CARNAC", "convocationLabel": "SALLE DU MENEC", "distance": 0.0, "fullAddress": "RUE DU MENEC (\u00e0 c\u00f4t\u00e9 stade) 56340 CARNAC", "giveBlood": 1, "givePlasma": 0, "givePlatelet": 0, "regionCode": "016", "groupCode": "F30140", "latitude": 47.587005, "longitude": -3.083984, "name": "CARNAC  J", "postCode": "56340", "samplingLocationCode": "2", "horaires": null, "infos": null, "metro": null, "bus": null, "tram": null, "parking": null, "debutInfos": null, "finInfos": null, "ville": null, "id": null, "phone": null, "urlBlood": null, "urlPlasma": null, "urlPlatelets": null}
{"address1": null, "address2": "RUE DU MENEC (\u00e0 c\u00f4t\u00e9 du stade)", "city": "CARNAC", "convocationLabel": "SALLE DU MENEC", "distance": 0.0, "fullAddress": "RUE DU MENEC (\u00e0 c\u00f4t\u00e9 du stade) 56340 CARNAC", "giveBlood": 1, "givePlasma": 0, "givePlatelet": 0, "regionCode": "016", "groupCode": "F30140", "latitude": 47.587005, "longitude": -3.083984, "name": "CARNAC PM (LORIENT)", "postCode": "56340", "samplingLocationCode": "3", "horaires": null, "infos": null, "metro": null, "bus": null, "tram": null, "parking": null, "debutInfos": null, "finInfos": null, "ville": null, "id": null, "phone": null, "urlBlood": null, "urlPlasma": null, "urlPlatelets": null}
{"address1": null, "address2": "RUE DU MENEC( \u00e0 c\u00f4t\u00e9 du stade)", "city": "CARNAC", "convocationLabel": "SALLE DU MENEC", "distance": 0.0, "fullAddress": "RUE DU MENEC( \u00e0 c\u00f4t\u00e9 du stade) 56340 CARNAC", "giveBlood": 1, "givePlasma": 0, "givePlatelet": 0, "regionCode": "016", "groupCode": "F30140", "latitude": 47.587005, "longitude": -3.083984, "name": "CARNAC-SALLE DU MENEC AM", "postCode": "56340", "samplingLocationCode": "4", "horaires": null, "infos": null, "metro": null, "bus": null, "tram": null, "parking": null, "debutInfos": null, "finInfos": null, "ville": null, "id": null, "phone": null, "urlBlood": null, "urlPlasma": null, "urlPlatelets": null}
{"address1": null, "address2": "RUE DU MENEC (A COTE DU STADE)", "city": "CARNAC", "convocationLabel": "SALLE DU MENEC", "distance": 0.0, "fullAddress": "RUE DU MENEC (A COTE DU STADE) 56340 CARNAC", "giveBlood": 1, "givePlasma": 0, "givePlatelet": 0, "regionCode": "016", "groupCode": "F30140", "latitude": 47.58469391, "longitude": -3.07778597, "name": "CARNAC-SALLE DU MENEC 15 h ", "postCode": "56340", "samplingLocationCode": "5", "horaires": null, "infos": null, "metro": null, "bus": null, "tram": null, "parking": null, "debutInfos": null, "finInfos": null, "ville": null, "id": null, "phone": null, "urlBlood": null, "urlPlasma": null, "urlPlatelets": null}
{"address1": null, "address2": "RUE DE MENEC  (A COTE DU STADE)", "city": "CARNAC", "convocationLabel": "SALLE DU MENEC", "distance": 0.0, "fullAddress": "RUE DE MENEC  (A COTE DU STADE) 56340 CARNAC", "giveBlood": 1, "givePlasma": 0, "givePlatelet": 0, "regionCode": "016", "groupCode": "F30140", "latitude": 47.59168625, "longitude": -3.0831449, "name": "CARNAC 14 h 45 - 18 h 45", "postCode": "56340", "samplingLocationCode": "6", "horaires": null, "infos": null, "metro": null, "bus": null, "tram": null, "parking": null, "debutInfos": null, "finInfos": null, "ville": null, "id": null, "phone": null, "urlBlood": null, "urlPlasma": null, "urlPlatelets": null}
