{"address1": null, "address2": "7 PLACE VINCENT JOLLIVET", "city": "PLUNERET", "convocationLabel": "SALLE DES FETES", "distance": 0.0, "fullAddress": "7 PLACE VINCENT JOLLIVET 56400 PLUNERET", "giveBlood": 1, "givePlasma": 0, "givePlatelet": 0, "regionCode": "016", "groupCode": "F30359", "latitude": 47.67503, "longitude": -2.958198, "name": "PLUNERET J", "postCode": "56400", "samplingLocationCode": "1495", "horaires": null, "infos": null, "metro": null, "bus": null, "tram": null, "parking": null, "debutInfos": null, "finInfos": null, "ville": null, "id": null, "phone": null, "urlBlood": null, "urlPlasma": null, "urlPlatelets": null}
{"address1": null, "address2": "7 PLACE VINCENT JOLLIVET", "city": "PLUNERET", "convocationLabel": "SALLE DES FETES", "distance": 0.0, "fullAddress": "7 PLACE VINCENT JOLLIVET 56400 PLUNERET", "giveBlood": 1, "givePlasma": 0, "givePlatelet": 0, "regionCode": "016", "groupCode": "F30359", "latitude": 47.67510986, "longitude": -2.95826483, "name": "PLUNERET-15 h - 19 h", "postCode": "56400", "samplingLocationCode": "2", "horaires": null, "infos": null, "metro": null, "bus": null, "tram": null, "parking": null, "debutInfos": null, "finInfos": null, "ville": null, "id": null, "phone": null, "urlBlood": null, "urlPlasma": null, "urlPlatelets": null}
{"address1": null, "address2": "7 PLACE VINCENT JOLLIVET", "city": "PLUNERET", "convocationLabel": "SALLE DES FETES", "distance": 0.0, "fullAddress": "7 PLACE VINCENT JOLLIVET 56400 PLUNERET", "giveBlood": 1, "givePlasma": 0, "givePlatelet": 0, "regionCode": "016", "groupCode": "F30359", "latitude": 47.67503, "longitude": -2.958198, "name": "PLUNERET 08 h 30 - 12 h 30", "postCode": "56400", "samplingLocationCode": "3", "horaires": null, "infos": null, "metro": null, "bus": null, "tram": null, "parking": null, "debutInfos": null, "finInfos": null, "ville": null, "id": null, "phone": null, "urlBlood": null, "urlPlasma": null, "urlPlatelets": null}
{"address1": null, "address2": "7 PLACE VINCENT JOLLIVET", "city": "PLUNERET", "convocationLabel": "SALLE DES FETES", "distance": 0.0, "fullAddress": "7 PLACE VINCENT JOLLIVET 56400 PLUNERET", "giveBlood": 1, "givePlasma": 0, "givePlatelet": 0, "regionCode": "016", "groupCode": "F30359", "latitude": 47.67503, "longitude": -2.958198, "name": "PLUNERET 14 h 30 - 19 h", "postCode": "56400", "samplingLocationCode": "4", "horaires": null, "infos": null, "metro": null, "bus": null, "tram": null, "parking": null, "debutInfos": null, "finInfos": null, "ville": null, "id": null, "phone": null, "urlBlood": null, "urlPlasma": null, "urlPlatelets": null}
{"address1": null, "address2": "RUE JOSEPH EVENAS", "city": "PLUMERGAT", "convocationLabel": "ESPACE LES HERMINES", "distance": 0.0, "fullAddress": "RUE JOSEPH EVENAS 56400 PLUMERGAT", "giveBlood": 1, "givePlasma": 0, "givePlatelet": 0, "regionCode": "016", "groupCode": "F30359", "latitude": 47.741367, "longitude": -2.919074, "name": "PLUMERGAT 14 H 30 / 19 H 00", "postCode": "56400", "samplingLocationCode": "5", "horaires": null, "infos": null, "metro": null, "bus": null, "tram": null, "parking": null, "debutInfos": null, "finInfos": null, "ville": null, "id": null, "phone": null, "urlBlood": null, "urlPlasma": null, "urlPlatelets": null}
{"address1": null, "address2": "RUE JOSEPH EVENAS", "city": "PLUMERGAT", "convocationLabel": "ESPACE LES HERMINES", "distance": 0.0, "fullAddress": "RUE JOSEPH EVENAS 56400 PLUMERGAT", "giveBlood": 1, "givePlasma": 0, "givePlatelet": 0, "regionCode": "016", "groupCode": "F30359", "latitude": 47.741367, "longitude": -2.919074, "name": "PLUMERGAT", "postCode": "56400", "samplingLocationCode": "6", "horaires": null, "infos": null, "metro": null, "bus": null, "tram": null, "parking": null, "debutInfos": null, "finInfos": null, "ville": null, "id": null, "phone": null, "urlBlood": null, "urlPlasma": null, "urlPlatelets": null}
{"address1": null, "address2": "RUE JOSEPH EVENAS", "city": "PLUMERGAT", "convocationLabel": "ESPACE LES HERMINES", "distance": 0.0, "fullAddress": "RUE JOSEPH EVENAS 56400 PLUMERGAT", "giveBlood": 1, "givePlasma": 0, "givePlatelet": 0, "regionCode": "016", "groupCode": "F30359", "latitude": 47.74113464, "longitude": -2.91998196, "name": "PLUMERGAT  14 H 45 - 18 H 45", "postCode": "56400", "samplingLocationCode": "7", "horaires": null, "infos": null, "metro": null, "bus": null, "tram": null, "parking": null, "debutInfos": null, "finInfos": null, "ville": null, "id": null, "phone": null, "urlBlood": null, "urlPlasma": null, "urlPlatelets": null}
{"address1": null, "address2": "7 PLACE VINCENT JOLLIVET", "city": "PLUNERET", "convocationLabel": "SALLE DES FETES", "distance": 0.0, "fullAddress": "7 PLACE VINCENT JOLLIVET 56400 PLUNERET", "giveBlood": 1, "givePlasma": 0, "givePlatelet": 0, "regionCode": "016", "groupCode": "F30359", "latitude": 47.67509842, "longitude": -2.95813894, "name": "PLUNERET 14 h 45 - 18 h 45", "postCode": "56400", "samplingLocationCode": "8", "horaires": null, "infos": null, "metro": null, "bus": null, "tram": null, "parking": null, "debutInfos": null, "finInfos": null, "ville": null, "id": null, "phone": null, "urlBlood": null, "urlPlasma": null, "urlPlatelets": null}
