{"address1": null, "address2": "AVENUE DE LA CHALOTAIS", "city": "VERN SUR SEICHE", "convocationLabel": "SALLE DES FETES DE LA CHALOTAIS", "distance": 0.0, "fullAddress": "AVENUE DE LA CHALOTAIS 35770 VERN SUR SEICHE", "giveBlood": 1, "givePlasma": 0, "givePlatelet": 0, "regionCode": "016", "groupCode": "F70274", "latitude": 48.044429, "longitude": -1.603598, "name": "VERN/SEICHE SEMAINE", "postCode": "35770", "samplingLocationCode": "2", "horaires": null, "infos": null, "metro": null, "bus": null, "tram": null, "parking": null, "debutInfos": null, "finInfos": null, "ville": null, "id": null, "phone": null, "urlBlood": null, "urlPlasma": null, "urlPlatelets": null}
{"address1": null, "address2": "AVENUE DE LA CHALOTAIS", "city": "VERN SUR SEICHE", "convocationLabel": "SALLE DES FETES DE LA CHALOTAIS", "distance": 0.0, "fullAddress": "AVENUE DE LA CHALOTAIS 35770 VERN SUR SEICHE", "giveBlood": 1, "givePlasma": 0, "givePlatelet": 0, "regionCode": "016", "groupCode": "F70274", "latitude": 48.044429, "longitude": -1.603598, "name": "VERN/SEICHE SAM matin", "postCode": "35770", "samplingLocationCode": "286", "horaires": null, "infos": null, "metro": null, "bus": null, "tram": null, "parking": null, "debutInfos": null, "finInfos": null, "ville": null, "id": null, "phone": null, "urlBlood": null, "urlPlasma": null, "urlPlatelets": null}
{"address1": null, "address2": "AVENUE DE LA CHALOTAIS", "city": "VERN SUR SEICHE", "convocationLabel": "SALLE DES FETES DE LA CHALOTAIS", "distance": 0.0, "fullAddress": "AVENUE DE LA CHALOTAIS 35770 VERN SUR SEICHE", "giveBlood": 1, "givePlasma": 0, "givePlatelet": 0, "regionCode": "016", "groupCode": "F70274", "latitude": 48.0447464, "longitude": -1.60431111, "name": "VERN/SEICHE MAT SEM", "postCode": "35770", "samplingLocationCode": "3", "horaires": null, "infos": null, "metro": null, "bus": null, "tram": null, "parking": null, "debutInfos": null, "finInfos": null, "ville": null, "id": null, "phone": null, "urlBlood": null, "urlPlasma": null, "urlPlatelets": null}
{"address1": null, "address2": "AVENUE DE LA CHALOTAIS", "city": "VERN SUR SEICHE", "convocationLabel": "SALLE DES FETES DE LA CHALOTAIS", "distance": 0.0, "fullAddress": "AVENUE DE LA CHALOTAIS 35770 VERN SUR SEICHE", "giveBlood": 1, "givePlasma": 0, "givePlatelet": 0, "regionCode": "016", "groupCode": "F70274", "latitude": 48.0447464, "longitude": -1.60431111, "name": "VERN/SEICHE AM SEM", "postCode": "35770", "samplingLocationCode": "4", "horaires": null, "infos": null, "metro": null, "bus": null, "tram": null, "parking": null, "debutInfos": null, "finInfos": null, "ville": null, "id": null, "phone": null, "urlBlood": null, "urlPlasma": null, "urlPlatelets": null}
{"address1": null, "address2": "AVENUE DE LA CHALOTAIS", "city": "VERN SUR SEICHE", "convocationLabel": "SALLE DES FETES DE LA CHALOTAIS", "distance": 0.0, "fullAddress": "AVENUE DE LA CHALOTAIS 35770 VERN SUR SEICHE", "giveBlood": 1, "givePlasma": 0, "givePlatelet": 0, "regionCode": "016", "groupCode": "F70274", "latitude": 48.0447464, "longitude": -1.60431111, "name": "VERN/SEICHE SA", "postCode": "35770", "samplingLocationCode": "5", "horaires": null, "infos": null, "metro": null, "bus": null, "tram": null, "parking": null, "debutInfos": null, "finInfos": null, "ville": null, "id": null, "phone": null, "urlBlood": null, "urlPlasma": null, "urlPlatelets": null}
{"address1": null, "address2": "AVENUE DE LA CHALOTAIS", "city": "VERN SUR SEICHE", "convocationLabel": "SALLE DES FETES DE LA CHALOTAIS", "distance": 0.0, "fullAddress": "AVENUE DE LA CHALOTAIS 35770 VERN SUR SEICHE", "giveBlood": 1, "givePlasma": 0, "givePlatelet": 0, "regionCode": "016", "groupCode": "F70274", "latitude": 48.044429, "longitude": -1.603598, "name": "2 VERN/SEICHE-CHALOTAIS MAT ", "postCode": "35770", "samplingLocationCode": "6", "horaires": null, "infos": null, "metro": null, "bus": null, "tram": null, "parking": null, "debutInfos": null, "finInfos": null, "ville": null, "id": null, "phone": null, "urlBlood": null, "urlPlasma": null, "urlPlatelets": null}
{"address1": null, "address2": "AVENUE DE LA CHALOTAIS", "city": "VERN SUR SEICHE", "convocationLabel": "SALLE DES FETES DE LA CHALOTAIS", "distance": 0.0, "fullAddress": "AVENUE DE LA CHALOTAIS 35770 VERN SUR SEICHE", "giveBlood": 1, "givePlasma": 0, "givePlatelet": 0, "regionCode": "016", "groupCode": "F70274", "latitude": 48.0447464, "longitude": -1.60431111, "name": "2 VERN/SEICHE-CHALOTAIS AM", "postCode": "35770", "samplingLocationCode": "7", "horaires": null, "infos": null, "metro": null, "bus": null, "tram": null, "parking": null, "debutInfos": null, "finInfos": null, "ville": null, "id": null, "phone": null, "urlBlood": null, "urlPlasma": null, "urlPlatelets": null}
