{"address1": null, "address2": null, "city": "SAINT POL DE LEON", "convocationLabel": "SALLE MICHEL COLOMBE", "distance": 0.0, "fullAddress": "29250 SAINT POL DE LEON", "giveBlood": 1, "givePlasma": 0, "givePlatelet": 0, "regionCode": "016", "groupCode": "F50247", "latitude": 48.674484, "longitude": -3.988221, "name": "J2 OCT DEC", "postCode": "29250", "samplingLocationCode": "10", "horaires": null, "infos": null, "metro": null, "bus": null, "tram": null, "parking": null, "debutInfos": null, "finInfos": null, "ville": null, "id": null, "phone": null, "urlBlood": null, "urlPlasma": null, "urlPlatelets": null}
{"address1": null, "address2": "RUE PEN AL LIORZOU", "city": "SAINT POL DE LEON", "convocationLabel": "SALLE MICHEL COLOMBE", "distance": 0.0, "fullAddress": "RUE PEN AL LIORZOU 29250 SAINT POL DE LEON", "giveBlood": 1, "givePlasma": 0, "givePlatelet": 0, "regionCode": "016", "groupCode": "F50247", "latitude": 48.68181229, "longitude": -3.98553181, "name": "SAINT POL DE LEON J1 ", "postCode": "29250", "samplingLocationCode": "3", "horaires": null, "infos": null, "metro": null, "bus": null, "tram": null, "parking": null, "debutInfos": null, "finInfos": null, "ville": null, "id": null, "phone": null, "urlBlood": null, "urlPlasma": null, "urlPlatelets": null}
{"address1": null, "address2": "1 RUE DE PLOUENAN", "city": "SAINT POL DE LEON", "convocationLabel": "ESPACE SOCIO-CULTUREL TY KASTELLIS", "distance": 0.0, "fullAddress": "1 RUE DE PLOUENAN 29250 SAINT POL DE LEON", "giveBlood": 1, "givePlasma": 0, "givePlatelet": 0, "regionCode": "016", "groupCode": "F50247", "latitude": 48.675675, "longitude": -3.988795, "name": "ST POL DE LEON KASTELLIS J1", "postCode": "29250", "samplingLocationCode": "4", "horaires": null, "infos": null, "metro": null, "bus": null, "tram": null, "parking": null, "debutInfos": null, "finInfos": null, "ville": null, "id": null, "phone": null, "urlBlood": null, "urlPlasma": null, "urlPlatelets": null}
{"address1": null, "address2": "1 RUE DE PLOUENAN", "city": "SAINT POL DE LEON", "convocationLabel": "ESPACE SOCIO-CULTUREL TY KASTELLIS", "distance": 0.0, "fullAddress": "1 RUE DE PLOUENAN 29250 SAINT POL DE LEON", "giveBlood": 1, "givePlasma": 0, "givePlatelet": 0, "regionCode": "016", "groupCode": "F50247", "latitude": 48.675675, "longitude": -3.988795, "name": "ST POL DE LEON KASTELLIS J2", "postCode": "29250", "samplingLocationCode": "5", "horaires": null, "infos": null, "metro": null, "bus": null, "tram": null, "parking": null, "debutInfos": null, "finInfos": null, "ville": null, "id": null, "phone": null, "urlBlood": null, "urlPlasma": null, "urlPlatelets": null}
{"address1": null, "address2": "RUE PEN AL LIORZOU", "city": "SAINT POL DE LEON", "convocationLabel": "SALLE MICHEL COLOMBE", "distance": 0.0, "fullAddress": "RUE PEN AL LIORZOU 29250 SAINT POL DE LEON", "giveBlood": 1, "givePlasma": 0, "givePlatelet": 0, "regionCode": "016", "groupCode": "F50247", "latitude": 48.68181229, "longitude": -3.98553181, "name": "SAINT POL DE LEON J2 ", "postCode": "29250", "samplingLocationCode": "6", "horaires": null, "infos": null, "metro": null, "bus": null, "tram": null, "parking": null, "debutInfos": null, "finInfos": null, "ville": null, "id": null, "phone": null, "urlBlood": null, "urlPlasma": null, "urlPlatelets": null}
{"address1": null, "address2": "RUE PEN AL LIORZOU", "city": "SAINT POL DE LEON", "convocationLabel": "SALLE MICHEL COLOMBE", "distance": 0.0, "fullAddress": "RUE PEN AL LIORZOU 29250 SAINT POL DE LEON", "giveBlood": 1, "givePlasma": 0, "givePlatelet": 0, "regionCode": "016", "groupCode": "F50247", "latitude": 48.681854, "longitude": -3.985198, "name": "J1 MAI", "postCode": "29250", "samplingLocationCode": "7", "horaires": null, "infos": null, "metro": null, "bus": null, "tram": null, "parking": null, "debutInfos": null, "finInfos": null, "ville": null, "id": null, "phone": null, "urlBlood": null, "urlPlasma": null, "urlPlatelets": null}
{"address1": null, "address2": "RUE PEN AL LIORZOU", "city": "SAINT POL DE LEON", "convocationLabel": "SALLE MICHEL COLOMBE", "distance": 0.0, "fullAddress": "RUE PEN AL LIORZOU 29250 SAINT POL DE LEON", "giveBlood": 1, "givePlasma": 0, "givePlatelet": 0, "regionCode": "016", "groupCode": "F50247", "latitude": 48.681854, "longitude": -3.985198, "name": "J2 JUILLET", "postCode": "29250", "samplingLocationCode": "706", "horaires": null, "infos": null, "metro": null, "bus": null, "tram": null, "parking": null, "debutInfos": null, "finInfos": null, "ville": null, "id": null, "phone": null, "urlBlood": null, "urlPlasma": null, "urlPlatelets": null}
{"address1": null, "address2": "RUE PEN AL LIORZOU", "city": "SAINT POL DE LEON", "convocationLabel": "SALLE MICHEL COLOMBE", "distance": 0.0, "fullAddress": "RUE PEN AL LIORZOU 29250 SAINT POL DE LEON", "giveBlood": 1, "givePlasma": 0, "givePlatelet": 0, "regionCode": "016", "groupCode": "F50247", "latitude": 48.681854, "longitude": -3.985198, "name": "J2 MAI", "postCode": "29250", "samplingLocationCode": "8", "horaires": null, "infos": null, "metro": null, "bus": null, "tram": null, "parking": null, "debutInfos": null, "finInfos": null, "ville": null, "id": null, "phone": null, "urlBlood": null, "urlPlasma": null, "urlPlatelets": null}
{"address1": null, "address2": "RUE PEN AL LIORZOU", "city": "SAINT POL DE LEON", "convocationLabel": "SALLE MICHEL COLOMBE", "distance": 0.0, "fullAddress": "RUE PEN AL LIORZOU 29250 SAINT POL DE LEON", "giveBlood": 1, "givePlasma": 0, "givePlatelet": 0, "regionCode": "016", "groupCode": "F50247", "latitude": 48.681854, "longitude": -3.985198, "name": "J1 JUILLET", "postCode": "29250", "samplingLocationCode": "862", "horaires": null, "infos": null, "metro": null, "bus": null, "tram": null, "parking": null, "debutInfos": null, "finInfos": null, "ville": null, "id": null, "phone": null, "urlBlood": null, "urlPlasma": null, "urlPlatelets": null}
{"address1": null, "address2": null, "city": "SAINT POL DE LEON", "convocationLabel": "SALLE MICHEL COLOMBE", "distance": 0.0, "fullAddress": "29250 SAINT POL DE LEON", "giveBlood": 1, "givePlasma": 0, "givePlatelet": 0, "regionCode": "016", "groupCode": "F50247", "latitude": 48.674484, "longitude": -3.988221, "name": "J1 OCT DEC", "postCode": "29250", "samplingLocationCode": "9", "horaires": null, "infos": null, "metro": null, "bus": null, "tram": null, "parking": null, "debutInfos": null, "finInfos": null, "ville": null, "id": null, "phone": null, "urlBlood": null, "urlPlasma": null, "urlPlatelets": null}
