{"address1": null, "address2": "RUE JEAN JAURES", "city": "PONTIVY", "convocationLabel": "SALLE LE DROGO", "distance": 0.0, "fullAddress": "RUE JEAN JAURES 56300 PONTIVY", "giveBlood": 1, "givePlasma": 0, "givePlatelet": 0, "regionCode": "016", "groupCode": "F30362", "latitude": 48.057003, "longitude": -2.969275, "name": "PONTIVY LE DROGO PM", "postCode": "56300", "samplingLocationCode": "10", "horaires": null, "infos": null, "metro": null, "bus": null, "tram": null, "parking": null, "debutInfos": null, "finInfos": null, "ville": null, "id": null, "phone": null, "urlBlood": null, "urlPlasma": null, "urlPlatelets": null}
{"address1": null, "address2": "RUE JEAN JAURES", "city": "PONTIVY", "convocationLabel": "SALLE LE DROGO", "distance": 0.0, "fullAddress": "RUE JEAN JAURES 56300 PONTIVY", "giveBlood": 1, "givePlasma": 0, "givePlatelet": 0, "regionCode": "016", "groupCode": "F30362", "latitude": 48.057003, "longitude": -2.969275, "name": "PONTIVY LE DROGO AM", "postCode": "56300", "samplingLocationCode": "11", "horaires": null, "infos": null, "metro": null, "bus": null, "tram": null, "parking": null, "debutInfos": null, "finInfos": null, "ville": null, "id": null, "phone": null, "urlBlood": null, "urlPlasma": null, "urlPlatelets": null}
{"address1": null, "address2": "PLACE DU DUC DE ROHAN", "city": "PONTIVY", "convocationLabel": "PALAIS DES CONGRES", "distance": 0.0, "fullAddress": "PLACE DU DUC DE ROHAN 56300 PONTIVY", "giveBlood": 1, "givePlasma": 0, "givePlatelet": 0, "regionCode": "016", "groupCode": "F30362", "latitude": 48.069243, "longitude": -2.964206, "name": "PONTIVY PALAIS CONGRES PM", "postCode": "56300", "samplingLocationCode": "12", "horaires": null, "infos": null, "metro": null, "bus": null, "tram": null, "parking": null, "debutInfos": null, "finInfos": null, "ville": null, "id": null, "phone": null, "urlBlood": null, "urlPlasma": null, "urlPlatelets": null}
{"address1": null, "address2": "PLACE DU DUC DE ROHAN", "city": "PONTIVY", "convocationLabel": "PALAIS DES CONGRES", "distance": 0.0, "fullAddress": "PLACE DU DUC DE ROHAN 56300 PONTIVY", "giveBlood": 1, "givePlasma": 0, "givePlatelet": 0, "regionCode": "016", "groupCode": "F30362", "latitude": 48.07201861253844, "longitude": -2.964409589767456, "name": "PONTIVY PALAIS CONGRES 14h30", "postCode": "56300", "samplingLocationCode": "13", "horaires": null, "infos": null, "metro": null, "bus": null, "tram": null, "parking": null, "debutInfos": null, "finInfos": null, "ville": null, "id": null, "phone": null, "urlBlood": null, "urlPlasma": null, "urlPlatelets": null}
{"address1": null, "address2": "6 AVENUE DES CITES UNIES", "city": "PONTIVY", "convocationLabel": "SALLE SAFIRE", "distance": 0.0, "fullAddress": "6 AVENUE DES CITES UNIES 56300 PONTIVY", "giveBlood": 1, "givePlasma": 0, "givePlatelet": 0, "regionCode": "016", "groupCode": "F30362", "latitude": 48.053405, "longitude": -2.955714, "name": "PONTIVY-SALLE  SAFIRE PM", "postCode": "56300", "samplingLocationCode": "14", "horaires": null, "infos": null, "metro": null, "bus": null, "tram": null, "parking": null, "debutInfos": null, "finInfos": null, "ville": null, "id": null, "phone": null, "urlBlood": null, "urlPlasma": null, "urlPlatelets": null}
{"address1": null, "address2": "PLACE DU DUC DE ROHAN", "city": "PONTIVY", "convocationLabel": "PALAIS DES CONGRES", "distance": 0.0, "fullAddress": "PLACE DU DUC DE ROHAN 56300 PONTIVY", "giveBlood": 1, "givePlasma": 0, "givePlatelet": 0, "regionCode": "016", "groupCode": "F30362", "latitude": 48.07201861253844, "longitude": -2.964409589767456, "name": "PONTIVY PALAIS CONGRES 08h30", "postCode": "56300", "samplingLocationCode": "1571", "horaires": null, "infos": null, "metro": null, "bus": null, "tram": null, "parking": null, "debutInfos": null, "finInfos": null, "ville": null, "id": null, "phone": null, "urlBlood": null, "urlPlasma": null, "urlPlatelets": null}
{"address1": null, "address2": "PALAIS DES CONGRES DE PONTIVY", "city": "PONTIVY", "convocationLabel": "PALAIS DES CONGRES", "distance": 0.0, "fullAddress": "PALAIS DES CONGRES DE PONTIVY 56300 PONTIVY", "giveBlood": 1, "givePlasma": 0, "givePlatelet": 0, "regionCode": "016", "groupCode": "F30362", "latitude": 48.07160568, "longitude": -2.96437836, "name": "LYCEES / ENTREPRISE PONTIVY", "postCode": "56300", "samplingLocationCode": "16", "horaires": null, "infos": null, "metro": null, "bus": null, "tram": null, "parking": null, "debutInfos": null, "finInfos": null, "ville": null, "id": null, "phone": null, "urlBlood": null, "urlPlasma": null, "urlPlatelets": null}
{"address1": null, "address2": "PLACE DU DUC DE ROHAN", "city": "PONTIVY", "convocationLabel": "PALAIS DES CONGRES", "distance": 0.0, "fullAddress": "PLACE DU DUC DE ROHAN 56300 PONTIVY", "giveBlood": 1, "givePlasma": 0, "givePlatelet": 0, "regionCode": "016", "groupCode": "F30362", "latitude": 48.069243, "longitude": -2.964206, "name": "PONTIVY PDC 15 H - 18 H 30", "postCode": "56300", "samplingLocationCode": "17", "horaires": null, "infos": null, "metro": null, "bus": null, "tram": null, "parking": null, "debutInfos": null, "finInfos": null, "ville": null, "id": null, "phone": null, "urlBlood": null, "urlPlasma": null, "urlPlatelets": null}
{"address1": null, "address2": "PLACE DU DUC DE ROHAN", "city": "PONTIVY", "convocationLabel": "PALAIS DES CONGRES", "distance": 0.0, "fullAddress": "PLACE DU DUC DE ROHAN 56300 PONTIVY", "giveBlood": 1, "givePlasma": 0, "givePlatelet": 0, "regionCode": "016", "groupCode": "F30362", "latitude": 48.069243, "longitude": -2.964206, "name": "PONTIVY 14 H 30 - 18 H 15", "postCode": "56300", "samplingLocationCode": "18", "horaires": null, "infos": null, "metro": null, "bus": null, "tram": null, "parking": null, "debutInfos": null, "finInfos": null, "ville": null, "id": null, "phone": null, "urlBlood": null, "urlPlasma": null, "urlPlatelets": null}
{"address1": null, "address2": "PLACE DU DUC DE ROHAN", "city": "PONTIVY", "convocationLabel": "PALAIS DES CONGRES", "distance": 0.0, "fullAddress": "PLACE DU DUC DE ROHAN 56300 PONTIVY", "giveBlood": 1, "givePlasma": 0, "givePlatelet": 0, "regionCode": "016", "groupCode": "F30362", "latitude": 48.07194901, "longitude": -2.96433544, "name": "PONTIVY PDC 12h - 16h", "postCode": "56300", "samplingLocationCode": "19", "horaires": null, "infos": null, "metro": null, "bus": null, "tram": null, "parking": null, "debutInfos": null, "finInfos": null, "ville": null, "id": null, "phone": null, "urlBlood": null, "urlPlasma": null, "urlPlatelets": null}
{"address1": null, "address2": "PLACE DU DUC DE ROHAN", "city": "PONTIVY", "convocationLabel": "PALAIS DES CONGRES", "distance": 0.0, "fullAddress": "PLACE DU DUC DE ROHAN 56300 PONTIVY", "giveBlood": 1, "givePlasma": 0, "givePlatelet": 0, "regionCode": "016", "groupCode": "F30362", "latitude": 48.069243, "longitude": -2.964206, "name": "PONTIVYPAL CONGRES PM", "postCode": "56300", "samplingLocationCode": "2", "horaires": null, "infos": null, "metro": null, "bus": null, "tram": null, "parking": null, "debutInfos": null, "finInfos": null, "ville": null, "id": null, "phone": null, "urlBlood": null, "urlPlasma": null, "urlPlatelets": null}
{"address1": null, "address2": "PLACE DU DUC DE ROHAN", "city": "PONTIVY", "convocationLabel": "PALAIS DES CONGRES", "distance": 0.0, "fullAddress": "PLACE DU DUC DE ROHAN 56300 PONTIVY", "giveBlood": 1, "givePlasma": 0, "givePlatelet": 0, "regionCode": "016", "groupCode": "F30362", "latitude": 48.069243, "longitude": -2.964206, "name": "PONTIVY PDC 9 H - 13 H", "postCode": "56300", "samplingLocationCode": "20", "horaires": null, "infos": null, "metro": null, "bus": null, "tram": null, "parking": null, "debutInfos": null, "finInfos": null, "ville": null, "id": null, "phone": null, "urlBlood": null, "urlPlasma": null, "urlPlatelets": null}
{"address1": null, "address2": "PLACE DU DUC DE ROHAN", "city": "PONTIVY", "convocationLabel": "PALAIS DES CONGRES", "distance": 0.0, "fullAddress": "PLACE DU DUC DE ROHAN 56300 PONTIVY", "giveBlood": 1, "givePlasma": 0, "givePlatelet": 0, "regionCode": "016", "groupCode": "F30362", "latitude": 48.07201861253844, "longitude": -2.964409589767456, "name": "PONTIVY PDC 14 H 45 - 18 H 30", "postCode": "56300", "samplingLocationCode": "21", "horaires": null, "infos": null, "metro": null, "bus": null, "tram": null, "parking": null, "debutInfos": null, "finInfos": null, "ville": null, "id": null, "phone": null, "urlBlood": null, "urlPlasma": null, "urlPlatelets": null}
{"address1": null, "address2": "PLACE DU DUC DE ROHAN", "city": "PONTIVY", "convocationLabel": "SALLE LE NORMENT", "distance": 0.0, "fullAddress": "PLACE DU DUC DE ROHAN 56300 PONTIVY", "giveBlood": 1, "givePlasma": 0, "givePlatelet": 0, "regionCode": "016", "groupCode": "F30362", "latitude": 48.069243, "longitude": -2.964206, "name": "PONTIVY  LE NORMENT LYCEE ", "postCode": "56300", "samplingLocationCode": "22", "horaires": null, "infos": null, "metro": null, "bus": null, "tram": null, "parking": null, "debutInfos": null, "finInfos": null, "ville": null, "id": null, "phone": null, "urlBlood": null, "urlPlasma": null, "urlPlatelets": null}
{"address1": null, "address2": "PLACE DU DUC DE ROHAN", "city": "PONTIVY", "convocationLabel": "PALAIS DES CONGRES", "distance": 0.0, "fullAddress": "PLACE DU DUC DE ROHAN 56300 PONTIVY", "giveBlood": 1, "givePlasma": 0, "givePlatelet": 0, "regionCode": "016", "groupCode": "F30362", "latitude": 48.07201861253844, "longitude": -2.964409589767456, "name": "PONTIVY PALAIS DES CONGRES 14H", "postCode": "56300", "samplingLocationCode": "23", "horaires": null, "infos": null, "metro": null, "bus": null, "tram": null, "parking": null, "debutInfos": null, "finInfos": null, "ville": null, "id": null, "phone": null, "urlBlood": null, "urlPlasma": null, "urlPlatelets": null}
{"address1": null, "address2": null, "city": "PONTIVY", "convocationLabel": "NOUVELLE SALLE DE SPORT DE KERENTREE", "distance": 0.0, "fullAddress": "56300 PONTIVY", "giveBlood": 1, "givePlasma": 0, "givePlatelet": 0, "regionCode": "016", "groupCode": "F30362", "latitude": 48.064656, "longitude": -2.969934, "name": "KERENTREE  AM", "postCode": "56300", "samplingLocationCode": "3", "horaires": null, "infos": null, "metro": null, "bus": null, "tram": null, "parking": null, "debutInfos": null, "finInfos": null, "ville": null, "id": null, "phone": null, "urlBlood": null, "urlPlasma": null, "urlPlatelets": null}
{"address1": null, "address2": null, "city": "PONTIVY", "convocationLabel": "NOUVELLE SALLE DE SPORT DE KERENTREE", "distance": 0.0, "fullAddress": "56300 PONTIVY", "giveBlood": 1, "givePlasma": 0, "givePlatelet": 0, "regionCode": "016", "groupCode": "F30362", "latitude": 48.064656, "longitude": -2.969934, "name": "KERENTREE  M", "postCode": "56300", "samplingLocationCode": "4", "horaires": null, "infos": null, "metro": null, "bus": null, "tram": null, "parking": null, "debutInfos": null, "finInfos": null, "ville": null, "id": null, "phone": null, "urlBlood": null, "urlPlasma": null, "urlPlatelets": null}
{"address1": null, "address2": "PLACE DU DUC DE ROHAN", "city": "PONTIVY", "convocationLabel": "PALAIS DES CONGRES", "distance": 0.0, "fullAddress": "PLACE DU DUC DE ROHAN 56300 PONTIVY", "giveBlood": 1, "givePlasma": 0, "givePlatelet": 0, "regionCode": "016", "groupCode": "F30362", "latitude": 48.07170105, "longitude": -2.96441674, "name": "PAL CONGRES 10/13 ", "postCode": "56300", "samplingLocationCode": "5", "horaires": null, "infos": null, "metro": null, "bus": null, "tram": null, "parking": null, "debutInfos": null, "finInfos": null, "ville": null, "id": null, "phone": null, "urlBlood": null, "urlPlasma": null, "urlPlatelets": null}
{"address1": null, "address2": null, "city": "PONTIVY", "convocationLabel": "NOUVELLE SALLE DE KERENTREE", "distance": 0.0, "fullAddress": "56300 PONTIVY", "giveBlood": 1, "givePlasma": 0, "givePlatelet": 0, "regionCode": "016", "groupCode": "F30362", "latitude": 48.064656, "longitude": -2.969934, "name": "KERENTREE J", "postCode": "56300", "samplingLocationCode": "6", "horaires": null, "infos": null, "metro": null, "bus": null, "tram": null, "parking": null, "debutInfos": null, "finInfos": null, "ville": null, "id": null, "phone": null, "urlBlood": null, "urlPlasma": null, "urlPlatelets": null}
{"address1": null, "address2": null, "city": "PONTIVY", "convocationLabel": "SALLE DU PROGRES AGRICOLE", "distance": 0.0, "fullAddress": "56300 PONTIVY", "giveBlood": 1, "givePlasma": 0, "givePlatelet": 0, "regionCode": "016", "groupCode": "F30362", "latitude": 48.064656, "longitude": -2.969934, "name": "PROGRES AGRICOLE  J", "postCode": "56300", "samplingLocationCode": "7", "horaires": null, "infos": null, "metro": null, "bus": null, "tram": null, "parking": null, "debutInfos": null, "finInfos": null, "ville": null, "id": null, "phone": null, "urlBlood": null, "urlPlasma": null, "urlPlatelets": null}
