{"address1": "LYCEE MARCELLIN BERTHELOT", "address2": "AVENUE ROLAND GARROS", "city": "QUESTEMBERT", "convocationLabel": "INSCRIVEZ-VOUS A L'INFIRMERIE", "distance": 0.0, "fullAddress": "LYCEE MARCELLIN BERTHELOT AVENUE ROLAND GARROS 56230 QUESTEMBERT", "giveBlood": 1, "givePlasma": 0, "givePlatelet": 0, "regionCode": "016", "groupCode": "F30307", "latitude": 47.66365814, "longitude": -2.46512079, "name": "LYCEE MARCELLIN BERTHELOT 8h30", "postCode": "56230", "samplingLocationCode": "1513", "horaires": null, "infos": null, "metro": null, "bus": null, "tram": null, "parking": null, "debutInfos": null, "finInfos": null, "ville": null, "id": null, "phone": null, "urlBlood": null, "urlPlasma": null, "urlPlatelets": null}
{"address1": "SALLE ALAN MEUR", "address2": null, "city": "QUESTEMBERT", "convocationLabel": "INSCRIPTION AUPRES DE L'INFIRMIERE", "distance": 0.0, "fullAddress": "SALLE ALAN MEUR 56230 QUESTEMBERT", "giveBlood": 1, "givePlasma": 0, "givePlatelet": 0, "regionCode": "016", "groupCode": "F30307", "latitude": 47.661527, "longitude": -2.453611, "name": "LYCEE M. BERTHELOT- ALAN MEUR", "postCode": "56230", "samplingLocationCode": "2", "horaires": null, "infos": null, "metro": null, "bus": null, "tram": null, "parking": null, "debutInfos": null, "finInfos": null, "ville": null, "id": null, "phone": null, "urlBlood": null, "urlPlasma": null, "urlPlatelets": null}
{"address1": "SALLE ALAN MEUR", "address2": null, "city": "QUESTEMBERT", "convocationLabel": "INSCRIPTION AUPRES DE L'INFIRMIERE", "distance": 0.0, "fullAddress": "SALLE ALAN MEUR 56230 QUESTEMBERT", "giveBlood": 1, "givePlasma": 0, "givePlatelet": 0, "regionCode": "016", "groupCode": "F30307", "latitude": 47.661527, "longitude": -2.453611, "name": "LEGTP - ISSAT -  ALAN MEUR", "postCode": "56230", "samplingLocationCode": "3", "horaires": null, "infos": null, "metro": null, "bus": null, "tram": null, "parking": null, "debutInfos": null, "finInfos": null, "ville": null, "id": null, "phone": null, "urlBlood": null, "urlPlasma": null, "urlPlatelets": null}
{"address1": "LYCEE MARCELLIN BERTHELOT", "address2": "AVENUE ROLAND GARROS", "city": "QUESTEMBERT", "convocationLabel": "INSCRIVEZ VOUS A L'INFIRMERIE", "distance": 0.0, "fullAddress": "LYCEE MARCELLIN BERTHELOT AVENUE ROLAND GARROS 56230 QUESTEMBERT", "giveBlood": 1, "givePlasma": 0, "givePlatelet": 0, "regionCode": "016", "groupCode": "F30307", "latitude": 47.663067, "longitude": -2.461838, "name": "QUESTEMBERT-LYC. BERTHELOT 12H", "postCode": "56230", "samplingLocationCode": "4", "horaires": null, "infos": null, "metro": null, "bus": null, "tram": null, "parking": null, "debutInfos": null, "finInfos": null, "ville": null, "id": null, "phone": null, "urlBlood": null, "urlPlasma": null, "urlPlatelets": null}
