{"address1": null, "address2": "Place Octave Brilleaud", "city": "ST-BRIEUC", "convocationLabel": "GRANDE SALLE DE ROBIEN", "distance": 0.0, "fullAddress": "Place Octave Brilleaud 22000 ST-BRIEUC", "giveBlood": 1, "givePlasma": 0, "givePlatelet": 0, "regionCode": "016", "groupCode": "F10161", "latitude": 48.505101, "longitude": -2.762762, "name": "ROBIEN gde salle", "postCode": "22000", "samplingLocationCode": "2", "horaires": null, "infos": null, "metro": null, "bus": null, "tram": null, "parking": null, "debutInfos": null, "finInfos": null, "ville": null, "id": null, "phone": null, "urlBlood": null, "urlPlasma": null, "urlPlatelets": null}
{"address1": null, "address2": "Place Octave Brilleaud", "city": "ST-BRIEUC", "convocationLabel": "SALLE ROBIEN", "distance": 0.0, "fullAddress": "Place Octave Brilleaud 22000 ST-BRIEUC", "giveBlood": 1, "givePlasma": 0, "givePlatelet": 0, "regionCode": "016", "groupCode": "F10161", "latitude": 48.505101, "longitude": -2.762762, "name": "JMDS", "postCode": "22000", "samplingLocationCode": "4", "horaires": null, "infos": null, "metro": null, "bus": null, "tram": null, "parking": null, "debutInfos": null, "finInfos": null, "ville": null, "id": null, "phone": null, "urlBlood": null, "urlPlasma": null, "urlPlatelets": null}
{"address1": null, "address2": "9 place du G\u00e9n\u00e9ral de Gaulle", "city": "ST-BRIEUC", "convocationLabel": "CONSEIL DEPARTEMENTAL SALLE RENAN", "distance": 0.0, "fullAddress": "9 place du G\u00e9n\u00e9ral de Gaulle 22000 ST-BRIEUC", "giveBlood": 1, "givePlasma": 0, "givePlatelet": 0, "regionCode": "016", "groupCode": "F10161", "latitude": 48.513961, "longitude": -2.764912, "name": "Conseil Dptal", "postCode": "22000", "samplingLocationCode": "5", "horaires": null, "infos": null, "metro": null, "bus": null, "tram": null, "parking": null, "debutInfos": null, "finInfos": null, "ville": null, "id": null, "phone": null, "urlBlood": null, "urlPlasma": null, "urlPlatelets": null}
{"address1": null, "address2": "Place Octave Brilleaud", "city": "ST-BRIEUC", "convocationLabel": "PETITE SALLE DE ROBIEN", "distance": 0.0, "fullAddress": "Place Octave Brilleaud 22000 ST-BRIEUC", "giveBlood": 1, "givePlasma": 0, "givePlatelet": 0, "regionCode": "016", "groupCode": "F10161", "latitude": 48.505101, "longitude": -2.762762, "name": "ST-BRIEUC samedi", "postCode": "22000", "samplingLocationCode": "6", "horaires": null, "infos": null, "metro": null, "bus": null, "tram": null, "parking": null, "debutInfos": null, "finInfos": null, "ville": null, "id": null, "phone": null, "urlBlood": null, "urlPlasma": null, "urlPlatelets": null}
{"address1": null, "address2": "Place Octave Brilleaud", "city": "ST-BRIEUC", "convocationLabel": "PETITE SALLE DE ROBIEN", "distance": 0.0, "fullAddress": "Place Octave Brilleaud 22000 ST-BRIEUC", "giveBlood": 1, "givePlasma": 0, "givePlatelet": 0, "regionCode": "016", "groupCode": "F10161", "latitude": 48.505101, "longitude": -2.762762, "name": "ST-BRIEUC veille f\u00e9rie", "postCode": "22000", "samplingLocationCode": "7", "horaires": null, "infos": null, "metro": null, "bus": null, "tram": null, "parking": null, "debutInfos": null, "finInfos": null, "ville": null, "id": null, "phone": null, "urlBlood": null, "urlPlasma": null, "urlPlatelets": null}
