{"address1": null, "address2": "3 PLACE DE WEILHEIM", "city": "BADEN", "convocationLabel": "MAIRIE - SALLE DES MARIAGES", "distance": 0.0, "fullAddress": "3 PLACE DE WEILHEIM 56870 BADEN", "giveBlood": 1, "givePlasma": 0, "givePlatelet": 0, "regionCode": "016", "groupCode": "F30107", "latitude": 47.610897, "longitude": -2.901194, "name": "BADEN SALLE DES MARIAGES PM", "postCode": "56870", "samplingLocationCode": "10", "horaires": null, "infos": null, "metro": null, "bus": null, "tram": null, "parking": null, "debutInfos": null, "finInfos": null, "ville": null, "id": null, "phone": null, "urlBlood": null, "urlPlasma": null, "urlPlatelets": null}
{"address1": null, "address2": "18 RUE DE VECHELLEC", "city": "BADEN", "convocationLabel": "SALLE MUNICIPALE LE SENIZ", "distance": 0.0, "fullAddress": "18 RUE DE VECHELLEC 56870 BADEN", "giveBlood": 1, "givePlasma": 0, "givePlatelet": 0, "regionCode": "016", "groupCode": "F30107", "latitude": 47.617992, "longitude": -2.921452, "name": "BADEN LE SENIZ", "postCode": "56870", "samplingLocationCode": "1476", "horaires": null, "infos": null, "metro": null, "bus": null, "tram": null, "parking": null, "debutInfos": null, "finInfos": null, "ville": null, "id": null, "phone": null, "urlBlood": null, "urlPlasma": null, "urlPlatelets": null}
{"address1": null, "address2": "18 RUE VECHELLEC", "city": "BADEN", "convocationLabel": "SALLE MUNICIPALE", "distance": 0.0, "fullAddress": "18 RUE VECHELLEC 56870 BADEN", "giveBlood": 1, "givePlasma": 0, "givePlatelet": 0, "regionCode": "016", "groupCode": "F30107", "latitude": 47.617992, "longitude": -2.921452, "name": "BADEN J (ETE)", "postCode": "56870", "samplingLocationCode": "2", "horaires": null, "infos": null, "metro": null, "bus": null, "tram": null, "parking": null, "debutInfos": null, "finInfos": null, "ville": null, "id": null, "phone": null, "urlBlood": null, "urlPlasma": null, "urlPlatelets": null}
{"address1": null, "address2": "1 RUE DU GREO", "city": "BADEN", "convocationLabel": "SALLE DU GREO", "distance": 0.0, "fullAddress": "1 RUE DU GREO 56870 BADEN", "giveBlood": 1, "givePlasma": 0, "givePlatelet": 0, "regionCode": "016", "groupCode": "F30107", "latitude": 47.620396, "longitude": -2.914957, "name": "BADEN J GREO", "postCode": "56870", "samplingLocationCode": "3", "horaires": null, "infos": null, "metro": null, "bus": null, "tram": null, "parking": null, "debutInfos": null, "finInfos": null, "ville": null, "id": null, "phone": null, "urlBlood": null, "urlPlasma": null, "urlPlatelets": null}
{"address1": null, "address2": "3 RUE DU GREO", "city": "BADEN", "convocationLabel": "SALLE DU GREO", "distance": 0.0, "fullAddress": "3 RUE DU GREO 56870 BADEN", "giveBlood": 1, "givePlasma": 0, "givePlatelet": 0, "regionCode": "016", "groupCode": "F30107", "latitude": 47.620371, "longitude": -2.915223, "name": "BADEN SALLE DU  GREO", "postCode": "56870", "samplingLocationCode": "4", "horaires": null, "infos": null, "metro": null, "bus": null, "tram": null, "parking": null, "debutInfos": null, "finInfos": null, "ville": null, "id": null, "phone": null, "urlBlood": null, "urlPlasma": null, "urlPlatelets": null}
{"address1": null, "address2": "3 RUE DE PEN LANIC", "city": "LARMOR BADEN", "convocationLabel": "SALLE LE CAIRN", "distance": 0.0, "fullAddress": "3 RUE DE PEN LANIC 56870 LARMOR BADEN", "giveBlood": 1, "givePlasma": 0, "givePlatelet": 0, "regionCode": "016", "groupCode": "F30107", "latitude": 47.584224, "longitude": -2.89475, "name": "LARMOR BADEN", "postCode": "56870", "samplingLocationCode": "5", "horaires": null, "infos": null, "metro": null, "bus": null, "tram": null, "parking": null, "debutInfos": null, "finInfos": null, "ville": null, "id": null, "phone": null, "urlBlood": null, "urlPlasma": null, "urlPlatelets": null}
{"address1": null, "address2": "11 RUE DU PARC ER PUNS", "city": "BADEN", "convocationLabel": "SALLE PAROISSIALE ST JEAN", "distance": 0.0, "fullAddress": "11 RUE DU PARC ER PUNS 56870 BADEN", "giveBlood": 1, "givePlasma": 0, "givePlatelet": 0, "regionCode": "016", "groupCode": "F30107", "latitude": 47.619618, "longitude": -2.921031, "name": "BADEN-SALLE PAROISSIALE", "postCode": "56870", "samplingLocationCode": "6", "horaires": null, "infos": null, "metro": null, "bus": null, "tram": null, "parking": null, "debutInfos": null, "finInfos": null, "ville": null, "id": null, "phone": null, "urlBlood": null, "urlPlasma": null, "urlPlatelets": null}
{"address1": null, "address2": "18 RUE DE VECHELLEC", "city": "BADEN", "convocationLabel": "SALLE MUNICIPALE LE SENIZ", "distance": 0.0, "fullAddress": "18 RUE DE VECHELLEC 56870 BADEN", "giveBlood": 1, "givePlasma": 0, "givePlatelet": 0, "regionCode": "016", "groupCode": "F30107", "latitude": 47.61801147, "longitude": -2.92201519, "name": "BADEN LE SENIZ 14H30-18H30", "postCode": "56870", "samplingLocationCode": "7", "horaires": null, "infos": null, "metro": null, "bus": null, "tram": null, "parking": null, "debutInfos": null, "finInfos": null, "ville": null, "id": null, "phone": null, "urlBlood": null, "urlPlasma": null, "urlPlatelets": null}
{"address1": null, "address2": "18 RUE DE VECHELLEC", "city": "BADEN", "convocationLabel": "SALLE MUNICIPALE LE SENIZ", "distance": 0.0, "fullAddress": "18 RUE DE VECHELLEC 56870 BADEN", "giveBlood": 1, "givePlasma": 0, "givePlatelet": 0, "regionCode": "016", "groupCode": "F30107", "latitude": 47.610884, "longitude": -2.901101, "name": "BADEN LE SENIZ  9H-13H", "postCode": "56870", "samplingLocationCode": "8", "horaires": null, "infos": null, "metro": null, "bus": null, "tram": null, "parking": null, "debutInfos": null, "finInfos": null, "ville": null, "id": null, "phone": null, "urlBlood": null, "urlPlasma": null, "urlPlatelets": null}
{"address1": null, "address2": "3 PLACE DE WEILHEIM", "city": "BADEN", "convocationLabel": "MAIRIE - SALLE DES MARIAGES", "distance": 0.0, "fullAddress": "3 PLACE DE WEILHEIM 56870 BADEN", "giveBlood": 1, "givePlasma": 0, "givePlatelet": 0, "regionCode": "016", "groupCode": "F30107", "latitude": 47.610897, "longitude": -2.901194, "name": "BADEN SALLE DES MARIAGES matin", "postCode": "56870", "samplingLocationCode": "9", "horaires": null, "infos": null, "metro": null, "bus": null, "tram": null, "parking": null, "debutInfos": null, "finInfos": null, "ville": null, "id": null, "phone": null, "urlBlood": null, "urlPlasma": null, "urlPlatelets": null}
