{"address1": "ORANGE BUSINESS SERVICE", "address2": "RUE DE LA TOUCHE LAMBERT", "city": "CESSON SEVIGNE", "convocationLabel": "BATIMENT 7  BREHAT - SALLE 7B432", "distance": 0.0, "fullAddress": "ORANGE BUSINESS SERVICE RUE DE LA TOUCHE LAMBERT 35510 CESSON SEVIGNE", "giveBlood": 1, "givePlasma": 0, "givePlatelet": 0, "regionCode": "016", "groupCode": "F70416", "latitude": 48.133218, "longitude": -1.623838, "name": "ORANGE BUSINESS SERVICE", "postCode": "35510", "samplingLocationCode": "2", "horaires": null, "infos": null, "metro": null, "bus": null, "tram": null, "parking": null, "debutInfos": null, "finInfos": null, "ville": null, "id": null, "phone": null, "urlBlood": null, "urlPlasma": null, "urlPlatelets": null}
{"address1": null, "address2": "RUE DE LA TOUCHE LAMBERT", "city": "CESSON SEVIGNE", "convocationLabel": "BATIMENT 7 BREHAT - SALLE 7B432", "distance": 0.0, "fullAddress": "RUE DE LA TOUCHE LAMBERT 35510 CESSON SEVIGNE", "giveBlood": 1, "givePlasma": 0, "givePlatelet": 0, "regionCode": "016", "groupCode": "F70416", "latitude": 48.133218, "longitude": -1.623838, "name": "ORANGE BUSINESS SERVICE 9-13", "postCode": "35510", "samplingLocationCode": "3", "horaires": null, "infos": null, "metro": null, "bus": null, "tram": null, "parking": null, "debutInfos": null, "finInfos": null, "ville": null, "id": null, "phone": null, "urlBlood": null, "urlPlasma": null, "urlPlatelets": null}
{"address1": null, "address2": "RUE DE LA TOUCHE LAMBERT", "city": "CESSON SEVIGNE", "convocationLabel": "BATIMENT 7 BREHAT - SALLE 7B432", "distance": 0.0, "fullAddress": "RUE DE LA TOUCHE LAMBERT 35510 CESSON SEVIGNE", "giveBlood": 1, "givePlasma": 0, "givePlatelet": 0, "regionCode": "016", "groupCode": "F70416", "latitude": 48.133218, "longitude": -1.623838, "name": "ORANGE BUSINESS SERVICE AM", "postCode": "35510", "samplingLocationCode": "4", "horaires": null, "infos": null, "metro": null, "bus": null, "tram": null, "parking": null, "debutInfos": null, "finInfos": null, "ville": null, "id": null, "phone": null, "urlBlood": null, "urlPlasma": null, "urlPlatelets": null}
{"address1": "ORANGE BUSINESS SERVICES/EQUANT", "address2": null, "city": "CESSON SEVIGNE", "convocationLabel": "BAT 6 - OUESSANT", "distance": 0.0, "fullAddress": "ORANGE BUSINESS SERVICES/EQUANT 35510 CESSON SEVIGNE", "giveBlood": 1, "givePlasma": 0, "givePlatelet": 0, "regionCode": "016", "groupCode": "F70416", "latitude": 48.115186, "longitude": -1.612595, "name": "ORANGE BUSINESS SERVICESEQUANT", "postCode": "35510", "samplingLocationCode": "439", "horaires": null, "infos": null, "metro": null, "bus": null, "tram": null, "parking": null, "debutInfos": null, "finInfos": null, "ville": null, "id": null, "phone": null, "urlBlood": null, "urlPlasma": null, "urlPlatelets": null}
{"address1": "ORANGE BUSINESS SERVICE", "address2": "RUE DE LA TOUCHE LAMBERT", "city": "CESSON SEVIGNE", "convocationLabel": "BATIMENT 7 BREHAT - SALLE 7B432", "distance": 0.0, "fullAddress": "ORANGE BUSINESS SERVICE RUE DE LA TOUCHE LAMBERT 35510 CESSON SEVIGNE", "giveBlood": 1, "givePlasma": 0, "givePlatelet": 0, "regionCode": "016", "groupCode": "F70416", "latitude": 48.133218, "longitude": -1.623838, "name": "ORANGE BUSINESS SERVICE J1", "postCode": "35510", "samplingLocationCode": "5", "horaires": null, "infos": null, "metro": null, "bus": null, "tram": null, "parking": null, "debutInfos": null, "finInfos": null, "ville": null, "id": null, "phone": null, "urlBlood": null, "urlPlasma": null, "urlPlatelets": null}
