{"address1": null, "address2": "46 RUE FELIX LE DANTEC", "city": "BREST", "convocationLabel": "CABINE DE BREST", "distance": 0.0, "fullAddress": "46 RUE FELIX LE DANTEC 29200 BREST", "giveBlood": 1, "givePlasma": 0, "givePlatelet": 0, "regionCode": "016", "groupCode": "F00004", "latitude": 48.395753, "longitude": -4.485379, "name": "BREST - SAMEDI", "postCode": "29200", "samplingLocationCode": "2", "horaires": null, "infos": null, "metro": null, "bus": null, "tram": null, "parking": null, "debutInfos": null, "finInfos": null, "ville": null, "id": null, "phone": null, "urlBlood": null, "urlPlasma": null, "urlPlatelets": null}
{"address1": null, "address2": "46 RUE FELIX LE DANTEC", "city": "BREST", "convocationLabel": "CABINE DE BREST", "distance": 0.0, "fullAddress": "46 RUE FELIX LE DANTEC 29200 BREST", "giveBlood": 1, "givePlasma": 0, "givePlatelet": 0, "regionCode": "016", "groupCode": "F00004", "latitude": 48.395753, "longitude": -4.485379, "name": "BREST - MARDI", "postCode": "29200", "samplingLocationCode": "3", "horaires": null, "infos": null, "metro": null, "bus": null, "tram": null, "parking": null, "debutInfos": null, "finInfos": null, "ville": null, "id": null, "phone": null, "urlBlood": null, "urlPlasma": null, "urlPlatelets": null}
{"address1": null, "address2": "46 RUE FELIX LE DANTEC", "city": "BREST", "convocationLabel": "CABINE DE BREST", "distance": 0.0, "fullAddress": "46 RUE FELIX LE DANTEC 29200 BREST", "giveBlood": 1, "givePlasma": 0, "givePlatelet": 0, "regionCode": "016", "groupCode": "F00004", "latitude": 48.395753, "longitude": -4.485379, "name": "BREST - JEUDI", "postCode": "29200", "samplingLocationCode": "4", "horaires": null, "infos": null, "metro": null, "bus": null, "tram": null, "parking": null, "debutInfos": null, "finInfos": null, "ville": null, "id": null, "phone": null, "urlBlood": null, "urlPlasma": null, "urlPlatelets": null}
{"address1": null, "address2": "46 RUE FELIX LE DANTEC", "city": "BREST", "convocationLabel": "CABINE DE BREST", "distance": 0.0, "fullAddress": "46 RUE FELIX LE DANTEC 29200 BREST", "giveBlood": 1, "givePlasma": 0, "givePlatelet": 0, "regionCode": "016", "groupCode": "F00004", "latitude": 48.395753, "longitude": -4.485379, "name": "BREST - MERCREDI", "postCode": "29200", "samplingLocationCode": "5", "horaires": null, "infos": null, "metro": null, "bus": null, "tram": null, "parking": null, "debutInfos": null, "finInfos": null, "ville": null, "id": null, "phone": null, "urlBlood": null, "urlPlasma": null, "urlPlatelets": null}
{"address1": null, "address2": "46 RUE FELIX LE DANTEC", "city": "BREST", "convocationLabel": "CABINE DE BREST", "distance": 0.0, "fullAddress": "46 RUE FELIX LE DANTEC 29200 BREST", "giveBlood": 1, "givePlasma": 0, "givePlatelet": 0, "regionCode": "016", "groupCode": "F00004", "latitude": 48.395753, "longitude": -4.485379, "name": "BREST - VENDREDI", "postCode": "29200", "samplingLocationCode": "6", "horaires": null, "infos": null, "metro": null, "bus": null, "tram": null, "parking": null, "debutInfos": null, "finInfos": null, "ville": null, "id": null, "phone": null, "urlBlood": null, "urlPlasma": null, "urlPlatelets": null}
{"address1": null, "address2": "46 RUE FELIX LE DANTEC", "city": "BREST", "convocationLabel": "EVENEMENTIELS", "distance": 0.0, "fullAddress": "46 RUE FELIX LE DANTEC 29200 BREST", "giveBlood": 1, "givePlasma": 0, "givePlatelet": 0, "regionCode": "016", "groupCode": "F00004", "latitude": 48.395753, "longitude": -4.485379, "name": "BREST - EVEN.", "postCode": "29200", "samplingLocationCode": "7", "horaires": null, "infos": null, "metro": null, "bus": null, "tram": null, "parking": null, "debutInfos": null, "finInfos": null, "ville": null, "id": null, "phone": null, "urlBlood": null, "urlPlasma": null, "urlPlatelets": null}
{"address1": null, "address2": "46 RUE FELIX LE DANTEC", "city": "BREST", "convocationLabel": "Maison du Don", "distance": 0.0, "fullAddress": "46 RUE FELIX LE DANTEC 29200 BREST", "giveBlood": 1, "givePlasma": 0, "givePlatelet": 0, "regionCode": "016", "groupCode": "F00004", "latitude": 48.395753, "longitude": -4.485379, "name": "BREST - LUNDI ", "postCode": "29200", "samplingLocationCode": "727", "horaires": null, "infos": null, "metro": null, "bus": null, "tram": null, "parking": null, "debutInfos": null, "finInfos": null, "ville": null, "id": null, "phone": null, "urlBlood": null, "urlPlasma": null, "urlPlatelets": null}
