{"address1": null, "address2": "10 RUE FRANCOIS MITTERAND", "city": "ST JACQUES DE LA LANDE", "convocationLabel": "EPI CONDORCET SALLE DES LUMIERES", "distance": 0.0, "fullAddress": "10 RUE FRANCOIS MITTERAND 35136 ST JACQUES DE LA LANDE", "giveBlood": 1, "givePlasma": 0, "givePlatelet": 0, "regionCode": "016", "groupCode": "F70229", "latitude": 48.080278, "longitude": -1.714032, "name": "ST JACQUES DE LA LANDE MAT SEM", "postCode": "35136", "samplingLocationCode": "2", "horaires": null, "infos": null, "metro": null, "bus": null, "tram": null, "parking": null, "debutInfos": null, "finInfos": null, "ville": null, "id": null, "phone": null, "urlBlood": null, "urlPlasma": null, "urlPlatelets": null}
{"address1": null, "address2": "10 RUE FRANCOIS MITTERAND", "city": "ST JACQUES DE LA LANDE", "convocationLabel": "EPI CONDORCET SALLE DES LUMIERES", "distance": 0.0, "fullAddress": "10 RUE FRANCOIS MITTERAND 35136 ST JACQUES DE LA LANDE", "giveBlood": 1, "givePlasma": 0, "givePlatelet": 0, "regionCode": "016", "groupCode": "F70229", "latitude": 48.080278, "longitude": -1.714032, "name": "ST JACQUES DE LA LANDE SEM", "postCode": "35136", "samplingLocationCode": "241", "horaires": null, "infos": null, "metro": null, "bus": null, "tram": null, "parking": null, "debutInfos": null, "finInfos": null, "ville": null, "id": null, "phone": null, "urlBlood": null, "urlPlasma": null, "urlPlatelets": null}
{"address1": null, "address2": "10 RUE FRANCOIS MITTERAND", "city": "ST JACQUES DE LA LANDE", "convocationLabel": "EPI CONDORCET SALLE DES LUMIERES", "distance": 0.0, "fullAddress": "10 RUE FRANCOIS MITTERAND 35136 ST JACQUES DE LA LANDE", "giveBlood": 1, "givePlasma": 0, "givePlatelet": 0, "regionCode": "016", "groupCode": "F70229", "latitude": 48.080278, "longitude": -1.714032, "name": "ST JACQUES DE LA LANDE AM SEM", "postCode": "35136", "samplingLocationCode": "3", "horaires": null, "infos": null, "metro": null, "bus": null, "tram": null, "parking": null, "debutInfos": null, "finInfos": null, "ville": null, "id": null, "phone": null, "urlBlood": null, "urlPlasma": null, "urlPlatelets": null}
{"address1": "SALLE DES LUMIERES", "address2": "10 RUE FRANCOIS MITTERAND", "city": "ST JACQUES DE LA LANDE", "convocationLabel": "EPI CONDORCET", "distance": 0.0, "fullAddress": "SALLE DES LUMIERES 10 RUE FRANCOIS MITTERAND 35136 ST JACQUES DE LA LANDE", "giveBlood": 1, "givePlasma": 0, "givePlatelet": 0, "regionCode": "016", "groupCode": "F70229", "latitude": 48.080278, "longitude": -1.714032, "name": "2 ST JACQUES-CONDORCET AM ", "postCode": "35136", "samplingLocationCode": "4", "horaires": null, "infos": null, "metro": null, "bus": null, "tram": null, "parking": null, "debutInfos": null, "finInfos": null, "ville": null, "id": null, "phone": null, "urlBlood": null, "urlPlasma": null, "urlPlatelets": null}
{"address1": "SALLE DES LUMIERES", "address2": "10 RUE FRANCOIS MITTERAND", "city": "ST JACQUES DE LA LANDE", "convocationLabel": "EPI CONDORCET", "distance": 0.0, "fullAddress": "SALLE DES LUMIERES 10 RUE FRANCOIS MITTERAND 35136 ST JACQUES DE LA LANDE", "giveBlood": 1, "givePlasma": 0, "givePlatelet": 0, "regionCode": "016", "groupCode": "F70229", "latitude": 48.080278, "longitude": -1.714032, "name": "2 ST JACQUES-CONDORCET DAM ", "postCode": "35136", "samplingLocationCode": "5", "horaires": null, "infos": null, "metro": null, "bus": null, "tram": null, "parking": null, "debutInfos": null, "finInfos": null, "ville": null, "id": null, "phone": null, "urlBlood": null, "urlPlasma": null, "urlPlatelets": null}
