{"address1": null, "address2": "RUE PAUL PAINLEVE", "city": "JANZE", "convocationLabel": "SALLE DU CHENE JAUNE", "distance": 0.0, "fullAddress": "RUE PAUL PAINLEVE 35150 JANZE", "giveBlood": 1, "givePlasma": 0, "givePlatelet": 0, "regionCode": "016", "groupCode": "F70106", "latitude": 47.959488636596205, "longitude": -1.4947468042373657, "name": "2 JANZE-CHENE DAM ", "postCode": "35150", "samplingLocationCode": "10", "horaires": null, "infos": null, "metro": null, "bus": null, "tram": null, "parking": null, "debutInfos": null, "finInfos": null, "ville": null, "id": null, "phone": null, "urlBlood": null, "urlPlasma": null, "urlPlatelets": null}
{"address1": null, "address2": "RUE PAUL PAINLEVE", "city": "JANZE", "convocationLabel": "SALLE DU CHENE JAUNE", "distance": 0.0, "fullAddress": "RUE PAUL PAINLEVE 35150 JANZE", "giveBlood": 1, "givePlasma": 0, "givePlatelet": 0, "regionCode": "016", "groupCode": "F70106", "latitude": 47.95946708270708, "longitude": -1.4947736263275146, "name": "2 JANZE-CHENE MAT ", "postCode": "35150", "samplingLocationCode": "11", "horaires": null, "infos": null, "metro": null, "bus": null, "tram": null, "parking": null, "debutInfos": null, "finInfos": null, "ville": null, "id": null, "phone": null, "urlBlood": null, "urlPlasma": null, "urlPlatelets": null}
{"address1": null, "address2": "PLACE DES HALLES", "city": "JANZE", "convocationLabel": "SALLE DES HALLES", "distance": 0.0, "fullAddress": "PLACE DES HALLES 35150 JANZE", "giveBlood": 1, "givePlasma": 0, "givePlatelet": 0, "regionCode": "016", "groupCode": "F70106", "latitude": 47.960328, "longitude": -1.498032, "name": "JANZE", "postCode": "35150", "samplingLocationCode": "119", "horaires": null, "infos": null, "metro": null, "bus": null, "tram": null, "parking": null, "debutInfos": null, "finInfos": null, "ville": null, "id": null, "phone": null, "urlBlood": null, "urlPlasma": null, "urlPlatelets": null}
{"address1": null, "address2": "RUE PAUL PAINLEVE", "city": "JANZE", "convocationLabel": "SALLE DU CHENE JAUNE", "distance": 0.0, "fullAddress": "RUE PAUL PAINLEVE 35150 JANZE", "giveBlood": 1, "givePlasma": 0, "givePlatelet": 0, "regionCode": "016", "groupCode": "F70106", "latitude": 47.95948145196749, "longitude": -1.494762897491455, "name": "2 JANZE-CHENE DAM J+", "postCode": "35150", "samplingLocationCode": "12", "horaires": null, "infos": null, "metro": null, "bus": null, "tram": null, "parking": null, "debutInfos": null, "finInfos": null, "ville": null, "id": null, "phone": null, "urlBlood": null, "urlPlasma": null, "urlPlatelets": null}
{"address1": null, "address2": "RUE PAUL PAINLEVE", "city": "JANZE", "convocationLabel": "SALLE DU CHENE JAUNE", "distance": 0.0, "fullAddress": "RUE PAUL PAINLEVE 35150 JANZE", "giveBlood": 1, "givePlasma": 0, "givePlatelet": 0, "regionCode": "016", "groupCode": "F70106", "latitude": 47.958471, "longitude": -1.493205, "name": "2 JANZE-CHENE JO", "postCode": "35150", "samplingLocationCode": "13", "horaires": null, "infos": null, "metro": null, "bus": null, "tram": null, "parking": null, "debutInfos": null, "finInfos": null, "ville": null, "id": null, "phone": null, "urlBlood": null, "urlPlasma": null, "urlPlatelets": null}
{"address1": null, "address2": "PLACE DES HALLES", "city": "JANZE", "convocationLabel": "SALLE DES HALLES", "distance": 0.0, "fullAddress": "PLACE DES HALLES 35150 JANZE", "giveBlood": 1, "givePlasma": 0, "givePlatelet": 0, "regionCode": "016", "groupCode": "F70106", "latitude": 47.96046448, "longitude": -1.49757111, "name": "JANZE HALLES MAT", "postCode": "35150", "samplingLocationCode": "2", "horaires": null, "infos": null, "metro": null, "bus": null, "tram": null, "parking": null, "debutInfos": null, "finInfos": null, "ville": null, "id": null, "phone": null, "urlBlood": null, "urlPlasma": null, "urlPlatelets": null}
{"address1": null, "address2": "PLACE DES HALLES", "city": "JANZE", "convocationLabel": "SALLE DES HALLES", "distance": 0.0, "fullAddress": "PLACE DES HALLES 35150 JANZE", "giveBlood": 1, "givePlasma": 0, "givePlatelet": 0, "regionCode": "016", "groupCode": "F70106", "latitude": 47.96046448, "longitude": -1.49757111, "name": "JANZE HALLES AM", "postCode": "35150", "samplingLocationCode": "3", "horaires": null, "infos": null, "metro": null, "bus": null, "tram": null, "parking": null, "debutInfos": null, "finInfos": null, "ville": null, "id": null, "phone": null, "urlBlood": null, "urlPlasma": null, "urlPlatelets": null}
{"address1": null, "address2": "RUE NANTAISE", "city": "JANZE", "convocationLabel": "SALLE DE L'AMICALE", "distance": 0.0, "fullAddress": "RUE NANTAISE 35150 JANZE", "giveBlood": 1, "givePlasma": 0, "givePlatelet": 0, "regionCode": "016", "groupCode": "F70106", "latitude": 47.958333, "longitude": -1.498969, "name": "JANZE M  (sallle de l'amicale)", "postCode": "35150", "samplingLocationCode": "4", "horaires": null, "infos": null, "metro": null, "bus": null, "tram": null, "parking": null, "debutInfos": null, "finInfos": null, "ville": null, "id": null, "phone": null, "urlBlood": null, "urlPlasma": null, "urlPlatelets": null}
{"address1": null, "address2": "RUE NANTAISE", "city": "JANZE", "convocationLabel": "SALLE DE L'AMICALE", "distance": 0.0, "fullAddress": "RUE NANTAISE 35150 JANZE", "giveBlood": 1, "givePlasma": 0, "givePlatelet": 0, "regionCode": "016", "groupCode": "F70106", "latitude": 47.958333, "longitude": -1.498969, "name": "JANZE AM (salle de l'amicale)", "postCode": "35150", "samplingLocationCode": "5", "horaires": null, "infos": null, "metro": null, "bus": null, "tram": null, "parking": null, "debutInfos": null, "finInfos": null, "ville": null, "id": null, "phone": null, "urlBlood": null, "urlPlasma": null, "urlPlatelets": null}
{"address1": null, "address2": "RUE PAIN LEVE", "city": "JANZE", "convocationLabel": " SALLE DU CHENE JAUNE", "distance": 0.0, "fullAddress": "RUE PAIN LEVE 35150 JANZE", "giveBlood": 1, "givePlasma": 0, "givePlatelet": 0, "regionCode": "016", "groupCode": "F70106", "latitude": 47.947847, "longitude": -1.489593, "name": "JANZE CHENE JAUNE MAT", "postCode": "35150", "samplingLocationCode": "6", "horaires": null, "infos": null, "metro": null, "bus": null, "tram": null, "parking": null, "debutInfos": null, "finInfos": null, "ville": null, "id": null, "phone": null, "urlBlood": null, "urlPlasma": null, "urlPlatelets": null}
{"address1": null, "address2": "RUE PAIN LEVE", "city": "JANZE", "convocationLabel": " SALLE DU CHENE JAUNE", "distance": 0.0, "fullAddress": "RUE PAIN LEVE 35150 JANZE", "giveBlood": 1, "givePlasma": 0, "givePlatelet": 0, "regionCode": "016", "groupCode": "F70106", "latitude": 47.947847, "longitude": -1.489593, "name": "JANZE CHENE JAUNE AM", "postCode": "35150", "samplingLocationCode": "7", "horaires": null, "infos": null, "metro": null, "bus": null, "tram": null, "parking": null, "debutInfos": null, "finInfos": null, "ville": null, "id": null, "phone": null, "urlBlood": null, "urlPlasma": null, "urlPlatelets": null}
{"address1": null, "address2": "RUE PAUL PAINLEVE", "city": "JANZE", "convocationLabel": "SALLE DU CHENE JAUNE", "distance": 0.0, "fullAddress": "RUE PAUL PAINLEVE 35150 JANZE", "giveBlood": 1, "givePlasma": 0, "givePlatelet": 0, "regionCode": "016", "groupCode": "F70106", "latitude": 47.95927048, "longitude": -1.49677503, "name": "2 JANZE-CHENE AM", "postCode": "35150", "samplingLocationCode": "8", "horaires": null, "infos": null, "metro": null, "bus": null, "tram": null, "parking": null, "debutInfos": null, "finInfos": null, "ville": null, "id": null, "phone": null, "urlBlood": null, "urlPlasma": null, "urlPlatelets": null}
{"address1": null, "address2": "RUE PAUL PAINLEVE", "city": "JANZE", "convocationLabel": "SALLE DU CHENE JAUNE", "distance": 0.0, "fullAddress": "RUE PAUL PAINLEVE 35150 JANZE", "giveBlood": 1, "givePlasma": 0, "givePlatelet": 0, "regionCode": "016", "groupCode": "F70106", "latitude": 47.958471, "longitude": -1.493205, "name": "2 JANZE-CHENE AM J+", "postCode": "35150", "samplingLocationCode": "9", "horaires": null, "infos": null, "metro": null, "bus": null, "tram": null, "parking": null, "debutInfos": null, "finInfos": null, "ville": null, "id": null, "phone": null, "urlBlood": null, "urlPlasma": null, "urlPlatelets": null}
