{"address1": null, "address2": "PLACE JULES FERRY", "city": "PLOUZANE", "convocationLabel": "GYMNASE DE KERALLAN", "distance": 0.0, "fullAddress": "PLACE JULES FERRY 29280 PLOUZANE", "giveBlood": 1, "givePlasma": 0, "givePlatelet": 0, "regionCode": "016", "groupCode": "F50219", "latitude": 48.37326, "longitude": -4.590862, "name": "PLOUZANE - GYMNASE DE KERALLAN", "postCode": "29280", "samplingLocationCode": "2", "horaires": null, "infos": null, "metro": null, "bus": null, "tram": null, "parking": null, "debutInfos": null, "finInfos": null, "ville": null, "id": null, "phone": null, "urlBlood": null, "urlPlasma": null, "urlPlatelets": null}
{"address1": null, "address2": "ROUTE DE TREMAIDIC", "city": "PLOUZANE", "convocationLabel": "SALLE POLYVALENTE DE TREMAIDIC", "distance": 0.0, "fullAddress": "ROUTE DE TREMAIDIC 29280 PLOUZANE", "giveBlood": 1, "givePlasma": 0, "givePlatelet": 0, "regionCode": "016", "groupCode": "F50219", "latitude": 48.374225, "longitude": -4.603066, "name": "PLOUZANE - SALLE DE TREMAIDIC", "postCode": "29280", "samplingLocationCode": "3", "horaires": null, "infos": null, "metro": null, "bus": null, "tram": null, "parking": null, "debutInfos": null, "finInfos": null, "ville": null, "id": null, "phone": null, "urlBlood": null, "urlPlasma": null, "urlPlatelets": null}
{"address1": null, "address2": "RUE DU 8 MAI 1945", "city": "PLOUZANE", "convocationLabel": "COMPLEXE DE KROAS SALIOU", "distance": 0.0, "fullAddress": "RUE DU 8 MAI 1945 29280 PLOUZANE", "giveBlood": 1, "givePlasma": 0, "givePlatelet": 0, "regionCode": "016", "groupCode": "F50219", "latitude": 48.38001251, "longitude": -4.59993029, "name": "PLOUZANE - KROAS SALIOU", "postCode": "29280", "samplingLocationCode": "4", "horaires": null, "infos": null, "metro": null, "bus": null, "tram": null, "parking": null, "debutInfos": null, "finInfos": null, "ville": null, "id": null, "phone": null, "urlBlood": null, "urlPlasma": null, "urlPlatelets": null}
{"address1": null, "address2": "ALLEE DES AJONCS D'OR", "city": "PLOUZANE", "convocationLabel": "CENTRE SOCIAL DU BOURG", "distance": 0.0, "fullAddress": "ALLEE DES AJONCS D'OR 29280 PLOUZANE", "giveBlood": 1, "givePlasma": 0, "givePlatelet": 0, "regionCode": "016", "groupCode": "F50219", "latitude": 48.38032913, "longitude": -4.61745501, "name": "PLOUZANE - CENTRE SOCIAL", "postCode": "29280", "samplingLocationCode": "823", "horaires": null, "infos": null, "metro": null, "bus": null, "tram": null, "parking": null, "debutInfos": null, "finInfos": null, "ville": null, "id": null, "phone": null, "urlBlood": null, "urlPlasma": null, "urlPlatelets": null}
