{"address1": null, "address2": "PLACE DE ROCABEY", "city": "ST MALO ROCABEY", "convocationLabel": "PARKING DERRIERE L'EGLISE", "distance": 0.0, "fullAddress": "PLACE DE ROCABEY 35400 ST MALO ROCABEY", "giveBlood": 1, "givePlasma": 0, "givePlatelet": 0, "regionCode": "016", "groupCode": "F70164", "latitude": 48.651289, "longitude": -2.005345, "name": "ST MALO ROCABEY", "postCode": "35400", "samplingLocationCode": "177", "horaires": null, "infos": null, "metro": null, "bus": null, "tram": null, "parking": null, "debutInfos": null, "finInfos": null, "ville": null, "id": null, "phone": null, "urlBlood": null, "urlPlasma": null, "urlPlatelets": null}
{"address1": null, "address2": "RUE DE BONNEVILLE", "city": "ST MALO-PARAME", "convocationLabel": "PARKING  SALLE DU PANIER FLEURI", "distance": 0.0, "fullAddress": "RUE DE BONNEVILLE 35400 ST MALO-PARAME", "giveBlood": 1, "givePlasma": 0, "givePlatelet": 0, "regionCode": "016", "groupCode": "F70164", "latitude": 48.658865, "longitude": -1.978092, "name": "ST MALO - PARAME", "postCode": "35400", "samplingLocationCode": "2", "horaires": null, "infos": null, "metro": null, "bus": null, "tram": null, "parking": null, "debutInfos": null, "finInfos": null, "ville": null, "id": null, "phone": null, "urlBlood": null, "urlPlasma": null, "urlPlatelets": null}
{"address1": null, "address2": "RUE DE LA HULOTAIS", "city": "ST MALO BELLEVUE", "convocationLabel": "PARKING 6,  RUE DE LA HULOTAIS", "distance": 0.0, "fullAddress": "RUE DE LA HULOTAIS 35400 ST MALO BELLEVUE", "giveBlood": 1, "givePlasma": 0, "givePlatelet": 0, "regionCode": "016", "groupCode": "F70164", "latitude": 48.631846, "longitude": -1.994601, "name": "ST MALO BELLEVUE", "postCode": "35400", "samplingLocationCode": "3", "horaires": null, "infos": null, "metro": null, "bus": null, "tram": null, "parking": null, "debutInfos": null, "finInfos": null, "ville": null, "id": null, "phone": null, "urlBlood": null, "urlPlasma": null, "urlPlatelets": null}
{"address1": null, "address2": "35 RUE ERNEST RENAN", "city": "SAINT MALO", "convocationLabel": "MAISON DES ASSOCIATIONS", "distance": 0.0, "fullAddress": "35 RUE ERNEST RENAN 35400 SAINT MALO", "giveBlood": 1, "givePlasma": 0, "givePlatelet": 0, "regionCode": "016", "groupCode": "F70164", "latitude": 48.650101, "longitude": -2.003929, "name": "MAISON ASSOCIATIONS MAT", "postCode": "35400", "samplingLocationCode": "4", "horaires": null, "infos": null, "metro": null, "bus": null, "tram": null, "parking": null, "debutInfos": null, "finInfos": null, "ville": null, "id": null, "phone": null, "urlBlood": null, "urlPlasma": null, "urlPlatelets": null}
{"address1": null, "address2": "35 RUE ERNEST RENAN", "city": "SAINT MALO", "convocationLabel": "MAISON DES ASSOCIATIONS", "distance": 0.0, "fullAddress": "35 RUE ERNEST RENAN 35400 SAINT MALO", "giveBlood": 1, "givePlasma": 0, "givePlatelet": 0, "regionCode": "016", "groupCode": "F70164", "latitude": 48.650101, "longitude": -2.003929, "name": "MAISON ASSOCIATION AM", "postCode": "35400", "samplingLocationCode": "5", "horaires": null, "infos": null, "metro": null, "bus": null, "tram": null, "parking": null, "debutInfos": null, "finInfos": null, "ville": null, "id": null, "phone": null, "urlBlood": null, "urlPlasma": null, "urlPlatelets": null}
{"address1": null, "address2": "35 RUE ERNEST RENAN", "city": "SAINT MALO", "convocationLabel": "MAISON DES ASSOCIATIONS", "distance": 0.0, "fullAddress": "35 RUE ERNEST RENAN 35400 SAINT MALO", "giveBlood": 1, "givePlasma": 0, "givePlatelet": 0, "regionCode": "016", "groupCode": "F70164", "latitude": 48.650101, "longitude": -2.003929, "name": "MAISON ASSOCIATION SAM AM", "postCode": "35400", "samplingLocationCode": "6", "horaires": null, "infos": null, "metro": null, "bus": null, "tram": null, "parking": null, "debutInfos": null, "finInfos": null, "ville": null, "id": null, "phone": null, "urlBlood": null, "urlPlasma": null, "urlPlatelets": null}
{"address1": null, "address2": "35 RUE ERNEST RENAN", "city": "SAINT MALO", "convocationLabel": "MAISON DES ASSOCIATIONS", "distance": 0.0, "fullAddress": "35 RUE ERNEST RENAN 35400 SAINT MALO", "giveBlood": 1, "givePlasma": 0, "givePlatelet": 0, "regionCode": "016", "groupCode": "F70164", "latitude": 48.650101, "longitude": -2.003929, "name": "MAISON ASSOCIATION SAM MAT", "postCode": "35400", "samplingLocationCode": "7", "horaires": null, "infos": null, "metro": null, "bus": null, "tram": null, "parking": null, "debutInfos": null, "finInfos": null, "ville": null, "id": null, "phone": null, "urlBlood": null, "urlPlasma": null, "urlPlatelets": null}
