{"address1": null, "address2": "ALLEE  MORVAN LEBESQUE", "city": "RENNES", "convocationLabel": "C. COMMERCIAL LONGS CHAMPS Salle Guernesey", "distance": 0.0, "fullAddress": "ALLEE  MORVAN LEBESQUE 35700 RENNES", "giveBlood": 1, "givePlasma": 0, "givePlatelet": 0, "regionCode": "016", "groupCode": "F70532", "latitude": 48.131068, "longitude": -1.63302, "name": "RENNES LONGS CHAMPS (entrepr)", "postCode": "35700", "samplingLocationCode": "2", "horaires": null, "infos": null, "metro": null, "bus": null, "tram": null, "parking": null, "debutInfos": null, "finInfos": null, "ville": null, "id": null, "phone": null, "urlBlood": null, "urlPlasma": null, "urlPlatelets": null}
{"address1": "SALLE GUERNESEY", "address2": "ALLEE MORVAN LEBESQUE", "city": "RENNES", "convocationLabel": "C. COMMERCIAL LONGS CHAMPS", "distance": 0.0, "fullAddress": "SALLE GUERNESEY ALLEE MORVAN LEBESQUE 35700 RENNES", "giveBlood": 1, "givePlasma": 0, "givePlatelet": 0, "regionCode": "016", "groupCode": "F70532", "latitude": 48.131068, "longitude": -1.63302, "name": "2 RENNES-LONGS CHAMPS-CC DAM", "postCode": "35700", "samplingLocationCode": "3", "horaires": null, "infos": null, "metro": null, "bus": null, "tram": null, "parking": null, "debutInfos": null, "finInfos": null, "ville": null, "id": null, "phone": null, "urlBlood": null, "urlPlasma": null, "urlPlatelets": null}
{"address1": "SALLE GUERNESEY", "address2": "ALLEE MORVAN LEBESQUE", "city": "RENNES", "convocationLabel": "C. COMMERCIAL LONGS CHAMPS", "distance": 0.0, "fullAddress": "SALLE GUERNESEY ALLEE MORVAN LEBESQUE 35700 RENNES", "giveBlood": 1, "givePlasma": 0, "givePlatelet": 0, "regionCode": "016", "groupCode": "F70532", "latitude": 48.13084412, "longitude": -1.63312149, "name": "2 RENNES-LONGS CHAMPS-CC MAT ", "postCode": "35700", "samplingLocationCode": "4", "horaires": null, "infos": null, "metro": null, "bus": null, "tram": null, "parking": null, "debutInfos": null, "finInfos": null, "ville": null, "id": null, "phone": null, "urlBlood": null, "urlPlasma": null, "urlPlatelets": null}
{"address1": "SALLE GUERNESEY", "address2": "ALLEE MORVAN LEBESQUE", "city": "RENNES", "convocationLabel": "C. COMMERCIAL LONGS CHAMPS", "distance": 0.0, "fullAddress": "SALLE GUERNESEY ALLEE MORVAN LEBESQUE 35700 RENNES", "giveBlood": 1, "givePlasma": 0, "givePlatelet": 0, "regionCode": "016", "groupCode": "F70532", "latitude": 48.13084412, "longitude": -1.63312149, "name": "2 RENNES-LONGS CHAMPS-CC AM", "postCode": "35700", "samplingLocationCode": "5", "horaires": null, "infos": null, "metro": null, "bus": null, "tram": null, "parking": null, "debutInfos": null, "finInfos": null, "ville": null, "id": null, "phone": null, "urlBlood": null, "urlPlasma": null, "urlPlatelets": null}
{"address1": "RENNES LONGS CHAMPS", "address2": "60 RUE DES DOYENS ALBERT ET PIERRE BOUZAT", "city": "RENNES", "convocationLabel": "C. COMMERCIAL LONGS CHAMPS Salle Guernesey", "distance": 0.0, "fullAddress": "RENNES LONGS CHAMPS 60 RUE DES DOYENS ALBERT ET PIERRE BOUZAT 35700 RENNES", "giveBlood": 1, "givePlasma": 0, "givePlatelet": 0, "regionCode": "016", "groupCode": "F70532", "latitude": 48.13005829, "longitude": -1.63247561, "name": "RENNES LONGS CHAMPS", "postCode": "35700", "samplingLocationCode": "556", "horaires": null, "infos": null, "metro": null, "bus": null, "tram": null, "parking": null, "debutInfos": null, "finInfos": null, "ville": null, "id": null, "phone": null, "urlBlood": null, "urlPlasma": null, "urlPlatelets": null}
