{"address1": null, "address2": "RUE JEAN MARIE JAVOURAY", "city": "SARZEAU", "convocationLabel": "BATIMENT POULMENACH ", "distance": 0.0, "fullAddress": "RUE JEAN MARIE JAVOURAY 56370 SARZEAU", "giveBlood": 1, "givePlasma": 0, "givePlatelet": 0, "regionCode": "016", "groupCode": "F30389", "latitude": 47.5268631, "longitude": -2.76675129, "name": "SARZEAU POULMENACH 12 - 16 H", "postCode": "56370", "samplingLocationCode": "10", "horaires": null, "infos": null, "metro": null, "bus": null, "tram": null, "parking": null, "debutInfos": null, "finInfos": null, "ville": null, "id": null, "phone": null, "urlBlood": null, "urlPlasma": null, "urlPlatelets": null}
{"address1": null, "address2": "RUE DU PERE COUDRIN", "city": "SARZEAU", "convocationLabel": "ESPACE CULTUREL SALLE ARMORIQUE", "distance": 0.0, "fullAddress": "RUE DU PERE COUDRIN 56370 SARZEAU", "giveBlood": 1, "givePlasma": 0, "givePlatelet": 0, "regionCode": "016", "groupCode": "F30389", "latitude": 47.525343, "longitude": -2.769685, "name": "SARZEAU - ARMORIQUE 09 H30 ", "postCode": "56370", "samplingLocationCode": "11", "horaires": null, "infos": null, "metro": null, "bus": null, "tram": null, "parking": null, "debutInfos": null, "finInfos": null, "ville": null, "id": null, "phone": null, "urlBlood": null, "urlPlasma": null, "urlPlatelets": null}
{"address1": null, "address2": "RUE SAINT VINCENT", "city": "SARZEAU", "convocationLabel": "RESTAURANT SCOLAIRE**", "distance": 0.0, "fullAddress": "RUE SAINT VINCENT 56370 SARZEAU", "giveBlood": 1, "givePlasma": 0, "givePlatelet": 0, "regionCode": "016", "groupCode": "F30389", "latitude": 47.52765, "longitude": -2.766385, "name": "RESTAU SCOLAIRE AM (ETE)", "postCode": "56370", "samplingLocationCode": "1473", "horaires": null, "infos": null, "metro": null, "bus": null, "tram": null, "parking": null, "debutInfos": null, "finInfos": null, "ville": null, "id": null, "phone": null, "urlBlood": null, "urlPlasma": null, "urlPlatelets": null}
{"address1": null, "address2": "RUE SAINT VINCENT", "city": "SARZEAU", "convocationLabel": "RESTAURANT SCOLAIRE*", "distance": 0.0, "fullAddress": "RUE SAINT VINCENT 56370 SARZEAU", "giveBlood": 1, "givePlasma": 0, "givePlatelet": 0, "regionCode": "016", "groupCode": "F30389", "latitude": 47.52765, "longitude": -2.766385, "name": "RESTAU SCOLAIRE AM (HIVER)", "postCode": "56370", "samplingLocationCode": "2", "horaires": null, "infos": null, "metro": null, "bus": null, "tram": null, "parking": null, "debutInfos": null, "finInfos": null, "ville": null, "id": null, "phone": null, "urlBlood": null, "urlPlasma": null, "urlPlatelets": null}
{"address1": "SALLE ARMORIQUE", "address2": "RUE DU PERE COUDRIN", "city": "SARZEAU", "convocationLabel": "ESPACE CULTUREL ", "distance": 0.0, "fullAddress": "SALLE ARMORIQUE RUE DU PERE COUDRIN 56370 SARZEAU", "giveBlood": 1, "givePlasma": 0, "givePlatelet": 0, "regionCode": "016", "groupCode": "F30389", "latitude": 47.525343, "longitude": -2.769685, "name": "SARZEAU-SALLE ARMORIQUE 09h13h", "postCode": "56370", "samplingLocationCode": "3", "horaires": null, "infos": null, "metro": null, "bus": null, "tram": null, "parking": null, "debutInfos": null, "finInfos": null, "ville": null, "id": null, "phone": null, "urlBlood": null, "urlPlasma": null, "urlPlatelets": null}
{"address1": null, "address2": "RUE SAINT VINCENT", "city": "SARZEAU", "convocationLabel": "RESTAURANT SCOLAIRE**", "distance": 0.0, "fullAddress": "RUE SAINT VINCENT 56370 SARZEAU", "giveBlood": 1, "givePlasma": 0, "givePlatelet": 0, "regionCode": "016", "groupCode": "F30389", "latitude": 47.52765, "longitude": -2.766385, "name": "RESTAU SCOLAIRE S", "postCode": "56370", "samplingLocationCode": "4", "horaires": null, "infos": null, "metro": null, "bus": null, "tram": null, "parking": null, "debutInfos": null, "finInfos": null, "ville": null, "id": null, "phone": null, "urlBlood": null, "urlPlasma": null, "urlPlatelets": null}
{"address1": null, "address2": "RUE DU PERE COUDRIN", "city": "SARZEAU", "convocationLabel": "ESPACE CULTUREL - SALLE ARMORIQUE", "distance": 0.0, "fullAddress": "RUE DU PERE COUDRIN 56370 SARZEAU", "giveBlood": 1, "givePlasma": 0, "givePlatelet": 0, "regionCode": "016", "groupCode": "F30389", "latitude": 47.525343, "longitude": -2.769685, "name": "SARZEAU-ESPACE CULTUREL 09 h", "postCode": "56370", "samplingLocationCode": "5", "horaires": null, "infos": null, "metro": null, "bus": null, "tram": null, "parking": null, "debutInfos": null, "finInfos": null, "ville": null, "id": null, "phone": null, "urlBlood": null, "urlPlasma": null, "urlPlatelets": null}
{"address1": null, "address2": "RUE DU PERE COUDRIN", "city": "SARZEAU", "convocationLabel": "ESPACE CULTUREL - SALLE ARMORIQUE", "distance": 0.0, "fullAddress": "RUE DU PERE COUDRIN 56370 SARZEAU", "giveBlood": 1, "givePlasma": 0, "givePlatelet": 0, "regionCode": "016", "groupCode": "F30389", "latitude": 47.52503204, "longitude": -2.76974726, "name": "SARZEAU-SALLE ARMORIQUE 15 h", "postCode": "56370", "samplingLocationCode": "6", "horaires": null, "infos": null, "metro": null, "bus": null, "tram": null, "parking": null, "debutInfos": null, "finInfos": null, "ville": null, "id": null, "phone": null, "urlBlood": null, "urlPlasma": null, "urlPlatelets": null}
{"address1": null, "address2": "RUE JEAN MARIE JAVOURAY", "city": "SARZEAU", "convocationLabel": "BATIMENT POULMENACH", "distance": 0.0, "fullAddress": "RUE JEAN MARIE JAVOURAY 56370 SARZEAU", "giveBlood": 1, "givePlasma": 0, "givePlatelet": 0, "regionCode": "016", "groupCode": "F30389", "latitude": 47.527013, "longitude": -2.766858, "name": "SARZEAU- POULMENACH 15h-19h", "postCode": "56370", "samplingLocationCode": "7", "horaires": null, "infos": null, "metro": null, "bus": null, "tram": null, "parking": null, "debutInfos": null, "finInfos": null, "ville": null, "id": null, "phone": null, "urlBlood": null, "urlPlasma": null, "urlPlatelets": null}
{"address1": null, "address2": "RUE JEAN MARIE JAVOURAY", "city": "SARZEAU", "convocationLabel": "BATIMENT POULMENACH", "distance": 0.0, "fullAddress": "RUE JEAN MARIE JAVOURAY 56370 SARZEAU", "giveBlood": 1, "givePlasma": 0, "givePlatelet": 0, "regionCode": "016", "groupCode": "F30389", "latitude": 47.5268631, "longitude": -2.76675129, "name": "SARZEAU-BATIMENT POUMENACH 09h", "postCode": "56370", "samplingLocationCode": "8", "horaires": null, "infos": null, "metro": null, "bus": null, "tram": null, "parking": null, "debutInfos": null, "finInfos": null, "ville": null, "id": null, "phone": null, "urlBlood": null, "urlPlasma": null, "urlPlatelets": null}
{"address1": "SALLE ARMORIQUE", "address2": "RUE DU PERE COUDRIN", "city": "SARZEAU", "convocationLabel": "ESPACE CULTUREL", "distance": 0.0, "fullAddress": "SALLE ARMORIQUE RUE DU PERE COUDRIN 56370 SARZEAU", "giveBlood": 1, "givePlasma": 0, "givePlatelet": 0, "regionCode": "016", "groupCode": "F30389", "latitude": 47.525343, "longitude": -2.769685, "name": "SARZEAU  ARMORIQUE 12 H- 16 H", "postCode": "56370", "samplingLocationCode": "9", "horaires": null, "infos": null, "metro": null, "bus": null, "tram": null, "parking": null, "debutInfos": null, "finInfos": null, "ville": null, "id": null, "phone": null, "urlBlood": null, "urlPlasma": null, "urlPlatelets": null}
