{"address1": null, "address2": "35 RUE DU CALVAIRE", "city": "ELVEN", "convocationLabel": "SALLE POLYVALENTE", "distance": 0.0, "fullAddress": "35 RUE DU CALVAIRE 56250 ELVEN", "giveBlood": 1, "givePlasma": 0, "givePlatelet": 0, "regionCode": "016", "groupCode": "F30174", "latitude": 47.734327, "longitude": -2.587801, "name": "ELVEN AM", "postCode": "56250", "samplingLocationCode": "1483", "horaires": null, "infos": null, "metro": null, "bus": null, "tram": null, "parking": null, "debutInfos": null, "finInfos": null, "ville": null, "id": null, "phone": null, "urlBlood": null, "urlPlasma": null, "urlPlatelets": null}
{"address1": null, "address2": "35 RUE DU CALVAIRE", "city": "ELVEN", "convocationLabel": "SALLE POLYVALENTE", "distance": 0.0, "fullAddress": "35 RUE DU CALVAIRE 56250 ELVEN", "giveBlood": 1, "givePlasma": 0, "givePlatelet": 0, "regionCode": "016", "groupCode": "F30174", "latitude": 47.73554611, "longitude": -2.5852437, "name": "ELVEN- 15 h 19 h", "postCode": "56250", "samplingLocationCode": "2", "horaires": null, "infos": null, "metro": null, "bus": null, "tram": null, "parking": null, "debutInfos": null, "finInfos": null, "ville": null, "id": null, "phone": null, "urlBlood": null, "urlPlasma": null, "urlPlatelets": null}
{"address1": null, "address2": "35 RUE DU CALVAIRE", "city": "ELVEN", "convocationLabel": "SALLE POLYVALENTE", "distance": 0.0, "fullAddress": "35 RUE DU CALVAIRE 56250 ELVEN", "giveBlood": 1, "givePlasma": 0, "givePlatelet": 0, "regionCode": "016", "groupCode": "F30174", "latitude": 47.734327, "longitude": -2.587801, "name": "ELVEN J", "postCode": "56250", "samplingLocationCode": "3", "horaires": null, "infos": null, "metro": null, "bus": null, "tram": null, "parking": null, "debutInfos": null, "finInfos": null, "ville": null, "id": null, "phone": null, "urlBlood": null, "urlPlasma": null, "urlPlatelets": null}
{"address1": null, "address2": "35 RUE DU CALVAIRE", "city": "ELVEN", "convocationLabel": "SALLE POLYVALENTE", "distance": 0.0, "fullAddress": "35 RUE DU CALVAIRE 56250 ELVEN", "giveBlood": 1, "givePlasma": 0, "givePlatelet": 0, "regionCode": "016", "groupCode": "F30174", "latitude": 47.734327, "longitude": -2.587801, "name": "ELVEN J (Lorient)", "postCode": "56250", "samplingLocationCode": "4", "horaires": null, "infos": null, "metro": null, "bus": null, "tram": null, "parking": null, "debutInfos": null, "finInfos": null, "ville": null, "id": null, "phone": null, "urlBlood": null, "urlPlasma": null, "urlPlatelets": null}
{"address1": null, "address2": "35 RUE DU CALVAIRE", "city": "ELVEN", "convocationLabel": "SALLE POLYVALENTE", "distance": 0.0, "fullAddress": "35 RUE DU CALVAIRE 56250 ELVEN", "giveBlood": 1, "givePlasma": 0, "givePlatelet": 0, "regionCode": "016", "groupCode": "F30174", "latitude": 47.734327, "longitude": -2.587801, "name": "ELVEN S (Lorient)", "postCode": "56250", "samplingLocationCode": "5", "horaires": null, "infos": null, "metro": null, "bus": null, "tram": null, "parking": null, "debutInfos": null, "finInfos": null, "ville": null, "id": null, "phone": null, "urlBlood": null, "urlPlasma": null, "urlPlatelets": null}
{"address1": null, "address2": "ZA DU GOHELIS", "city": "ELVEN", "convocationLabel": "SALLE SNOOPY", "distance": 0.0, "fullAddress": "ZA DU GOHELIS 56250 ELVEN", "giveBlood": 1, "givePlasma": 0, "givePlatelet": 0, "regionCode": "016", "groupCode": "F30174", "latitude": 47.733359, "longitude": -2.594579, "name": "ENTREPRISE DIANA PET FOOD", "postCode": "56250", "samplingLocationCode": "6", "horaires": null, "infos": null, "metro": null, "bus": null, "tram": null, "parking": null, "debutInfos": null, "finInfos": null, "ville": null, "id": null, "phone": null, "urlBlood": null, "urlPlasma": null, "urlPlatelets": null}
