{"address1": null, "address2": "PLACE DU DOCTEUR GUYADER", "city": "SAINT RENAN", "convocationLabel": "ESPACE CULTUREL", "distance": 0.0, "fullAddress": "PLACE DU DOCTEUR GUYADER 29290 SAINT RENAN", "giveBlood": 1, "givePlasma": 0, "givePlatelet": 0, "regionCode": "016", "groupCode": "F50248", "latitude": 48.4337883, "longitude": -4.62023735, "name": "SAINT RENAN Midi", "postCode": "29290", "samplingLocationCode": "2", "horaires": null, "infos": null, "metro": null, "bus": null, "tram": null, "parking": null, "debutInfos": null, "finInfos": null, "ville": null, "id": null, "phone": null, "urlBlood": null, "urlPlasma": null, "urlPlatelets": null}
{"address1": null, "address2": "2 VOIE ROMAINE", "city": "SAINT RENAN", "convocationLabel": "SALLE DE SPORT COLLEGE SAINT STANISLAS", "distance": 0.0, "fullAddress": "2 VOIE ROMAINE 29290 SAINT RENAN", "giveBlood": 1, "givePlasma": 0, "givePlatelet": 0, "regionCode": "016", "groupCode": "F50248", "latitude": 48.42974008995477, "longitude": -4.626579247405036, "name": "SAINT RENAN ST STANISLAS 1", "postCode": "29290", "samplingLocationCode": "3", "horaires": null, "infos": null, "metro": null, "bus": null, "tram": null, "parking": null, "debutInfos": null, "finInfos": null, "ville": null, "id": null, "phone": null, "urlBlood": null, "urlPlasma": null, "urlPlatelets": null}
{"address1": null, "address2": "PLACE DOCTEUR  GUYADER", "city": "SAINT RENAN", "convocationLabel": "ESPACE CULTUREL", "distance": 0.0, "fullAddress": "PLACE DOCTEUR  GUYADER 29290 SAINT RENAN", "giveBlood": 1, "givePlasma": 0, "givePlatelet": 0, "regionCode": "016", "groupCode": "F50248", "latitude": 48.4337883, "longitude": -4.62023735, "name": "SAINT RENAN J2", "postCode": "29290", "samplingLocationCode": "4", "horaires": null, "infos": null, "metro": null, "bus": null, "tram": null, "parking": null, "debutInfos": null, "finInfos": null, "ville": null, "id": null, "phone": null, "urlBlood": null, "urlPlasma": null, "urlPlatelets": null}
{"address1": null, "address2": "2 VOIE ROMAINE", "city": "SAINT RENAN", "convocationLabel": "SALLE DE SPORT COLLEGE SAINT STANISLAS", "distance": 0.0, "fullAddress": "2 VOIE ROMAINE 29290 SAINT RENAN", "giveBlood": 1, "givePlasma": 0, "givePlatelet": 0, "regionCode": "016", "groupCode": "F50248", "latitude": 48.42974008995477, "longitude": -4.626579247405036, "name": "SAINT RENAN ST STANISLAS 2", "postCode": "29290", "samplingLocationCode": "5", "horaires": null, "infos": null, "metro": null, "bus": null, "tram": null, "parking": null, "debutInfos": null, "finInfos": null, "ville": null, "id": null, "phone": null, "urlBlood": null, "urlPlasma": null, "urlPlatelets": null}
{"address1": null, "address2": "PLACE DOCTEUR  GUYADER", "city": "SAINT RENAN", "convocationLabel": "ESPACE CULTUREL", "distance": 0.0, "fullAddress": "PLACE DOCTEUR  GUYADER 29290 SAINT RENAN", "giveBlood": 1, "givePlasma": 0, "givePlatelet": 0, "regionCode": "016", "groupCode": "F50248", "latitude": 48.4337883, "longitude": -4.62023735, "name": "SAINT RENAN J1", "postCode": "29290", "samplingLocationCode": "815", "horaires": null, "infos": null, "metro": null, "bus": null, "tram": null, "parking": null, "debutInfos": null, "finInfos": null, "ville": null, "id": null, "phone": null, "urlBlood": null, "urlPlasma": null, "urlPlatelets": null}
