{"address1": null, "address2": "2 RUE FREZIER", "city": "BREST", "convocationLabel": "MAIRIE DE BREST, SALON RICHELIEU", "distance": 0.0, "fullAddress": "2 RUE FREZIER 29200 BREST", "giveBlood": 1, "givePlasma": 0, "givePlatelet": 0, "regionCode": "016", "groupCode": "F50171", "latitude": 48.391693, "longitude": -4.484541, "name": "MAIRIE DE BREST JUIN", "postCode": "29200", "samplingLocationCode": "2", "horaires": null, "infos": null, "metro": null, "bus": null, "tram": null, "parking": null, "debutInfos": null, "finInfos": null, "ville": null, "id": null, "phone": null, "urlBlood": null, "urlPlasma": null, "urlPlatelets": null}
{"address1": null, "address2": "MAIRIE DE BREST", "city": "BREST", "convocationLabel": "SALON RICHELIEU", "distance": 0.0, "fullAddress": "MAIRIE DE BREST 29200 BREST", "giveBlood": 1, "givePlasma": 0, "givePlatelet": 0, "regionCode": "016", "groupCode": "F50171", "latitude": 48.431096, "longitude": -4.496428, "name": "MAIRIE DE BREST 14 JUIN 2011", "postCode": "29200", "samplingLocationCode": "3", "horaires": null, "infos": null, "metro": null, "bus": null, "tram": null, "parking": null, "debutInfos": null, "finInfos": null, "ville": null, "id": null, "phone": null, "urlBlood": null, "urlPlasma": null, "urlPlatelets": null}
{"address1": null, "address2": "2 RUE FREZIER", "city": "BREST", "convocationLabel": "MAIRIE, SALLE DES CONFERENCES", "distance": 0.0, "fullAddress": "2 RUE FREZIER 29200 BREST", "giveBlood": 1, "givePlasma": 0, "givePlatelet": 0, "regionCode": "016", "groupCode": "F50171", "latitude": 48.391693, "longitude": -4.484541, "name": "MAIRIE DE BREST J1 JMDS", "postCode": "29200", "samplingLocationCode": "4", "horaires": null, "infos": null, "metro": null, "bus": null, "tram": null, "parking": null, "debutInfos": null, "finInfos": null, "ville": null, "id": null, "phone": null, "urlBlood": null, "urlPlasma": null, "urlPlatelets": null}
{"address1": null, "address2": "2 RUE FREZIER", "city": "BREST", "convocationLabel": "MAIRIE, SALLE DES CONFERENCES", "distance": 0.0, "fullAddress": "2 RUE FREZIER 29200 BREST", "giveBlood": 1, "givePlasma": 0, "givePlatelet": 0, "regionCode": "016", "groupCode": "F50171", "latitude": 48.391693, "longitude": -4.484541, "name": "MAIRIE DE BREST J2 JMDS", "postCode": "29200", "samplingLocationCode": "5", "horaires": null, "infos": null, "metro": null, "bus": null, "tram": null, "parking": null, "debutInfos": null, "finInfos": null, "ville": null, "id": null, "phone": null, "urlBlood": null, "urlPlasma": null, "urlPlatelets": null}
{"address1": null, "address2": "MAIRIE DE BREST", "city": "BREST", "convocationLabel": "MAIRIE, SALLE DES CONFERENCES", "distance": 0.0, "fullAddress": "MAIRIE DE BREST 29200 BREST", "giveBlood": 1, "givePlasma": 0, "givePlatelet": 0, "regionCode": "016", "groupCode": "F50171", "latitude": 48.39146042, "longitude": -4.48482609, "name": "MAIRIE DE BREST J3 JMDS", "postCode": "29200", "samplingLocationCode": "6", "horaires": null, "infos": null, "metro": null, "bus": null, "tram": null, "parking": null, "debutInfos": null, "finInfos": null, "ville": null, "id": null, "phone": null, "urlBlood": null, "urlPlasma": null, "urlPlatelets": null}
{"address1": null, "address2": "2 RUE FREZIER", "city": "BREST", "convocationLabel": "MAIRIE -  SALON RICHELIEU", "distance": 0.0, "fullAddress": "2 RUE FREZIER 29200 BREST", "giveBlood": 1, "givePlasma": 0, "givePlatelet": 0, "regionCode": "016", "groupCode": "F50171", "latitude": 48.391693, "longitude": -4.484541, "name": "MAIRIE DE BREST SEPT", "postCode": "29200", "samplingLocationCode": "778", "horaires": null, "infos": null, "metro": null, "bus": null, "tram": null, "parking": null, "debutInfos": null, "finInfos": null, "ville": null, "id": null, "phone": null, "urlBlood": null, "urlPlasma": null, "urlPlatelets": null}
