{"address1": null, "address2": "RUE DE LOUVAIN", "city": "PONT REAN", "convocationLabel": "SALLE POLYVALENTE HENRI BROUILLARD", "distance": 0.0, "fullAddress": "RUE DE LOUVAIN 35580 PONT REAN", "giveBlood": 1, "givePlasma": 0, "givePlatelet": 0, "regionCode": "016", "groupCode": "F70097", "latitude": 47.99954224, "longitude": -1.78130841, "name": "2 GUICHEN-PONT REAN AM ", "postCode": "35580", "samplingLocationCode": "10", "horaires": null, "infos": null, "metro": null, "bus": null, "tram": null, "parking": null, "debutInfos": null, "finInfos": null, "ville": null, "id": null, "phone": null, "urlBlood": null, "urlPlasma": null, "urlPlatelets": null}
{"address1": null, "address2": "RUE DU CD CHARCOT", "city": "GUICHEN", "convocationLabel": "ESPACE GALATEE", "distance": 0.0, "fullAddress": "RUE DU CD CHARCOT 35580 GUICHEN", "giveBlood": 1, "givePlasma": 0, "givePlatelet": 0, "regionCode": "016", "groupCode": "F70097", "latitude": 47.963534, "longitude": -1.796941, "name": "2 GUICHEN-GALATEE MAT", "postCode": "35580", "samplingLocationCode": "11", "horaires": null, "infos": null, "metro": null, "bus": null, "tram": null, "parking": null, "debutInfos": null, "finInfos": null, "ville": null, "id": null, "phone": null, "urlBlood": null, "urlPlasma": null, "urlPlatelets": null}
{"address1": null, "address2": "RUE DU CD CHARCOT", "city": "GUICHEN", "convocationLabel": "CENTRE CULTUREL ESPACE GALATEE", "distance": 0.0, "fullAddress": "RUE DU CD CHARCOT 35580 GUICHEN", "giveBlood": 1, "givePlasma": 0, "givePlatelet": 0, "regionCode": "016", "groupCode": "F70097", "latitude": 47.964725, "longitude": -1.796626, "name": "GUICHEN", "postCode": "35580", "samplingLocationCode": "110", "horaires": null, "infos": null, "metro": null, "bus": null, "tram": null, "parking": null, "debutInfos": null, "finInfos": null, "ville": null, "id": null, "phone": null, "urlBlood": null, "urlPlasma": null, "urlPlatelets": null}
{"address1": null, "address2": "RUE DU CD CHARCOT", "city": "GUICHEN", "convocationLabel": "ESPACE GALATEE", "distance": 0.0, "fullAddress": "RUE DU CD CHARCOT 35580 GUICHEN", "giveBlood": 1, "givePlasma": 0, "givePlatelet": 0, "regionCode": "016", "groupCode": "F70097", "latitude": 47.96487045, "longitude": -1.79656172, "name": "GUICHEN GALATEE MAT", "postCode": "35580", "samplingLocationCode": "2", "horaires": null, "infos": null, "metro": null, "bus": null, "tram": null, "parking": null, "debutInfos": null, "finInfos": null, "ville": null, "id": null, "phone": null, "urlBlood": null, "urlPlasma": null, "urlPlatelets": null}
{"address1": null, "address2": "RUE DU CD CHARCOT", "city": "GUICHEN", "convocationLabel": "ESPACE GALATEE", "distance": 0.0, "fullAddress": "RUE DU CD CHARCOT 35580 GUICHEN", "giveBlood": 1, "givePlasma": 0, "givePlatelet": 0, "regionCode": "016", "groupCode": "F70097", "latitude": 47.96487045, "longitude": -1.79656172, "name": "GUICHEN GALATEE AM", "postCode": "35580", "samplingLocationCode": "3", "horaires": null, "infos": null, "metro": null, "bus": null, "tram": null, "parking": null, "debutInfos": null, "finInfos": null, "ville": null, "id": null, "phone": null, "urlBlood": null, "urlPlasma": null, "urlPlatelets": null}
{"address1": null, "address2": "RUE DU 11 NOVEMBRE", "city": "GUICHEN", "convocationLabel": "SALLE DES HALLES", "distance": 0.0, "fullAddress": "RUE DU 11 NOVEMBRE 35580 GUICHEN", "giveBlood": 1, "givePlasma": 0, "givePlatelet": 0, "regionCode": "016", "groupCode": "F70097", "latitude": 47.967365, "longitude": -1.795612, "name": "GUICHEN SALLE HALLES MAT", "postCode": "35580", "samplingLocationCode": "4", "horaires": null, "infos": null, "metro": null, "bus": null, "tram": null, "parking": null, "debutInfos": null, "finInfos": null, "ville": null, "id": null, "phone": null, "urlBlood": null, "urlPlasma": null, "urlPlatelets": null}
{"address1": null, "address2": "RUE DU 11 NOVEMBRE", "city": "GUICHEN", "convocationLabel": "SALLE LES HALLES", "distance": 0.0, "fullAddress": "RUE DU 11 NOVEMBRE 35580 GUICHEN", "giveBlood": 1, "givePlasma": 0, "givePlatelet": 0, "regionCode": "016", "groupCode": "F70097", "latitude": 47.967365, "longitude": -1.795612, "name": "GUICHEN SALLE DES HALLES AM", "postCode": "35580", "samplingLocationCode": "5", "horaires": null, "infos": null, "metro": null, "bus": null, "tram": null, "parking": null, "debutInfos": null, "finInfos": null, "ville": null, "id": null, "phone": null, "urlBlood": null, "urlPlasma": null, "urlPlatelets": null}
{"address1": null, "address2": "RUE DE LOUVAIN", "city": "PONT REAN", "convocationLabel": "SALLE POLYVALENTE HENRI BROUILLARD", "distance": 0.0, "fullAddress": "RUE DE LOUVAIN 35580 PONT REAN", "giveBlood": 1, "givePlasma": 0, "givePlatelet": 0, "regionCode": "016", "groupCode": "F70097", "latitude": 47.999578, "longitude": -1.779122, "name": "GUICHEN REAN MAT", "postCode": "35580", "samplingLocationCode": "6", "horaires": null, "infos": null, "metro": null, "bus": null, "tram": null, "parking": null, "debutInfos": null, "finInfos": null, "ville": null, "id": null, "phone": null, "urlBlood": null, "urlPlasma": null, "urlPlatelets": null}
{"address1": null, "address2": "RUE DE LOUVAIN", "city": "PONT REAN", "convocationLabel": "SALLE POLYVALENTE HENRI BROUILLARD", "distance": 0.0, "fullAddress": "RUE DE LOUVAIN 35580 PONT REAN", "giveBlood": 1, "givePlasma": 0, "givePlatelet": 0, "regionCode": "016", "groupCode": "F70097", "latitude": 47.999578, "longitude": -1.779122, "name": "GUICHEN REAN AM", "postCode": "35580", "samplingLocationCode": "7", "horaires": null, "infos": null, "metro": null, "bus": null, "tram": null, "parking": null, "debutInfos": null, "finInfos": null, "ville": null, "id": null, "phone": null, "urlBlood": null, "urlPlasma": null, "urlPlatelets": null}
{"address1": null, "address2": "RUE DU CD CHARCOT", "city": "GUICHEN", "convocationLabel": "ESPACE GALATEE", "distance": 0.0, "fullAddress": "RUE DU CD CHARCOT 35580 GUICHEN", "giveBlood": 1, "givePlasma": 0, "givePlatelet": 0, "regionCode": "016", "groupCode": "F70097", "latitude": 47.96347427, "longitude": -1.79707325, "name": "2 GUICHEN-GALATEE AM ", "postCode": "35580", "samplingLocationCode": "8", "horaires": null, "infos": null, "metro": null, "bus": null, "tram": null, "parking": null, "debutInfos": null, "finInfos": null, "ville": null, "id": null, "phone": null, "urlBlood": null, "urlPlasma": null, "urlPlatelets": null}
{"address1": null, "address2": "RUE DU 11 NOVEMBRE", "city": "GUICHEN", "convocationLabel": "SALLE DES HALLES", "distance": 0.0, "fullAddress": "RUE DU 11 NOVEMBRE 35580 GUICHEN", "giveBlood": 1, "givePlasma": 0, "givePlatelet": 0, "regionCode": "016", "groupCode": "F70097", "latitude": 47.967365, "longitude": -1.795612, "name": "2 GUICHEN AM HALLES", "postCode": "35580", "samplingLocationCode": "9", "horaires": null, "infos": null, "metro": null, "bus": null, "tram": null, "parking": null, "debutInfos": null, "finInfos": null, "ville": null, "id": null, "phone": null, "urlBlood": null, "urlPlasma": null, "urlPlatelets": null}
