{"address1": null, "address2": "29 RUE LOUIS LOMENECH", "city": "PONT AVEN", "convocationLabel": "ESPACE QUEINEC", "distance": 0.0, "fullAddress": "29 RUE LOUIS LOMENECH 29930 PONT AVEN", "giveBlood": 1, "givePlasma": 0, "givePlatelet": 0, "regionCode": "016", "groupCode": "F50225", "latitude": 47.855162, "longitude": -3.744628, "name": "PONT AVEN - M", "postCode": "29930", "samplingLocationCode": "1096", "horaires": null, "infos": null, "metro": null, "bus": null, "tram": null, "parking": null, "debutInfos": null, "finInfos": null, "ville": null, "id": null, "phone": null, "urlBlood": null, "urlPlasma": null, "urlPlatelets": null}
{"address1": null, "address2": "29 RUE LOUIS LOMENECH", "city": "PONT AVEN", "convocationLabel": "ESPACE QUEINEC", "distance": 0.0, "fullAddress": "29 RUE LOUIS LOMENECH 29930 PONT AVEN", "giveBlood": 1, "givePlasma": 0, "givePlatelet": 0, "regionCode": "016", "groupCode": "F50225", "latitude": 47.855162, "longitude": -3.744628, "name": "PONT AVEN  - S", "postCode": "29930", "samplingLocationCode": "2", "horaires": null, "infos": null, "metro": null, "bus": null, "tram": null, "parking": null, "debutInfos": null, "finInfos": null, "ville": null, "id": null, "phone": null, "urlBlood": null, "urlPlasma": null, "urlPlatelets": null}
{"address1": null, "address2": "2 PLACE DE L EGLISE DE NIZON", "city": "PONT AVEN", "convocationLabel": "CHEZ COUSIN", "distance": 0.0, "fullAddress": "2 PLACE DE L EGLISE DE NIZON 29930 PONT AVEN", "giveBlood": 1, "givePlasma": 0, "givePlatelet": 0, "regionCode": "016", "groupCode": "F50225", "latitude": 47.86630249, "longitude": -3.77447557, "name": "PONT AVEN - NIZON", "postCode": "29930", "samplingLocationCode": "3", "horaires": null, "infos": null, "metro": null, "bus": null, "tram": null, "parking": null, "debutInfos": null, "finInfos": null, "ville": null, "id": null, "phone": null, "urlBlood": null, "urlPlasma": null, "urlPlatelets": null}
{"address1": null, "address2": "RUE DE PENANROS", "city": "PONT AVEN", "convocationLabel": "GYMNASE COMPLEXE SPORTIF DE PENANROZ", "distance": 0.0, "fullAddress": "RUE DE PENANROS 29930 PONT AVEN", "giveBlood": 1, "givePlasma": 0, "givePlatelet": 0, "regionCode": "016", "groupCode": "F50225", "latitude": 47.859031, "longitude": -3.751838, "name": "PONT AVEN GYMNASE DE PENANROZ", "postCode": "29930", "samplingLocationCode": "4", "horaires": null, "infos": null, "metro": null, "bus": null, "tram": null, "parking": null, "debutInfos": null, "finInfos": null, "ville": null, "id": null, "phone": null, "urlBlood": null, "urlPlasma": null, "urlPlatelets": null}
{"address1": null, "address2": "PLACE JULIA", "city": "PONT AVEN", "convocationLabel": "MUSEE ", "distance": 0.0, "fullAddress": "PLACE JULIA 29930 PONT AVEN", "giveBlood": 1, "givePlasma": 0, "givePlatelet": 0, "regionCode": "016", "groupCode": "F50225", "latitude": 47.855435, "longitude": -3.747133, "name": "PONT AVEN - MUSEE", "postCode": "29930", "samplingLocationCode": "5", "horaires": null, "infos": null, "metro": null, "bus": null, "tram": null, "parking": null, "debutInfos": null, "finInfos": null, "ville": null, "id": null, "phone": null, "urlBlood": null, "urlPlasma": null, "urlPlatelets": null}
