{"address1": null, "address2": "ROUTE DU CRANOU", "city": "LE FAOU", "convocationLabel": "MAISON FAMILIALE RURALE DE RUMENGOL", "distance": 0.0, "fullAddress": "ROUTE DU CRANOU 29590 LE FAOU", "giveBlood": 1, "givePlasma": 0, "givePlatelet": 0, "regionCode": "016", "groupCode": "F50128", "latitude": 48.29898834, "longitude": -4.16988516, "name": "LE FAOU MFR", "postCode": "29590", "samplingLocationCode": "2", "horaires": null, "infos": null, "metro": null, "bus": null, "tram": null, "parking": null, "debutInfos": null, "finInfos": null, "ville": null, "id": null, "phone": null, "urlBlood": null, "urlPlasma": null, "urlPlatelets": null}
{"address1": null, "address2": "PLACE ARMAND HERRY", "city": "HANVEC", "convocationLabel": "SALLE POLYVALENTE ESPACE ANNE PERON", "distance": 0.0, "fullAddress": "PLACE ARMAND HERRY 29460 HANVEC", "giveBlood": 1, "givePlasma": 0, "givePlatelet": 0, "regionCode": "016", "groupCode": "F50128", "latitude": 48.327476, "longitude": -4.161615, "name": "HANVEC", "postCode": "29460", "samplingLocationCode": "3", "horaires": null, "infos": null, "metro": null, "bus": null, "tram": null, "parking": null, "debutInfos": null, "finInfos": null, "ville": null, "id": null, "phone": null, "urlBlood": null, "urlPlasma": null, "urlPlatelets": null}
{"address1": null, "address2": "ROUTE DE TERENEZ", "city": "LE FAOU", "convocationLabel": "SALLE MULTIFONCTION", "distance": 0.0, "fullAddress": "ROUTE DE TERENEZ 29590 LE FAOU", "giveBlood": 1, "givePlasma": 0, "givePlatelet": 0, "regionCode": "016", "groupCode": "F50128", "latitude": 48.29242706, "longitude": -4.18348503, "name": "LE FAOU MULTIFONCTION", "postCode": "29590", "samplingLocationCode": "4", "horaires": null, "infos": null, "metro": null, "bus": null, "tram": null, "parking": null, "debutInfos": null, "finInfos": null, "ville": null, "id": null, "phone": null, "urlBlood": null, "urlPlasma": null, "urlPlatelets": null}
{"address1": null, "address2": "ZONE ARTISANALE QUIELLA", "city": "LE FAOU", "convocationLabel": "LOCAUX DE LA C.C.A.M.", "distance": 0.0, "fullAddress": "ZONE ARTISANALE QUIELLA 29590 LE FAOU", "giveBlood": 1, "givePlasma": 0, "givePlatelet": 0, "regionCode": "016", "groupCode": "F50128", "latitude": 48.29771042, "longitude": -4.1706028, "name": "LE FAOU CCAM AM", "postCode": "29590", "samplingLocationCode": "875", "horaires": null, "infos": null, "metro": null, "bus": null, "tram": null, "parking": null, "debutInfos": null, "finInfos": null, "ville": null, "id": null, "phone": null, "urlBlood": null, "urlPlasma": null, "urlPlatelets": null}
