{"address1": "SALLE DE LA RIVE", "address2": "RUE VICTOR BALTAR", "city": "VITRE", "convocationLabel": "SVA JEAN ROZE", "distance": 0.0, "fullAddress": "SALLE DE LA RIVE RUE VICTOR BALTAR 35500 VITRE", "giveBlood": 1, "givePlasma": 0, "givePlatelet": 0, "regionCode": "016", "groupCode": "F70418", "latitude": 48.122157, "longitude": -1.223766, "name": "SVA JEAN ROZE JOURNEE", "postCode": "35500", "samplingLocationCode": "2", "horaires": null, "infos": null, "metro": null, "bus": null, "tram": null, "parking": null, "debutInfos": null, "finInfos": null, "ville": null, "id": null, "phone": null, "urlBlood": null, "urlPlasma": null, "urlPlatelets": null}
{"address1": null, "address2": "RUE VICTOR BALTAR", "city": "VITRE", "convocationLabel": "SALLE DE LA RIVE", "distance": 0.0, "fullAddress": "RUE VICTOR BALTAR 35500 VITRE", "giveBlood": 1, "givePlasma": 0, "givePlatelet": 0, "regionCode": "016", "groupCode": "F70418", "latitude": 48.122157, "longitude": -1.223766, "name": "SVA JEAN ROZE AM", "postCode": "35500", "samplingLocationCode": "3", "horaires": null, "infos": null, "metro": null, "bus": null, "tram": null, "parking": null, "debutInfos": null, "finInfos": null, "ville": null, "id": null, "phone": null, "urlBlood": null, "urlPlasma": null, "urlPlatelets": null}
{"address1": "SVA JEAN ROZE", "address2": "RUE VICTOR BALTAR", "city": "VITRE", "convocationLabel": "SALLE DE LA RIVE", "distance": 0.0, "fullAddress": "SVA JEAN ROZE RUE VICTOR BALTAR 35500 VITRE", "giveBlood": 1, "givePlasma": 0, "givePlatelet": 0, "regionCode": "016", "groupCode": "F70418", "latitude": 48.122157, "longitude": -1.223766, "name": "SVA JEAN ROZE", "postCode": "35500", "samplingLocationCode": "441", "horaires": null, "infos": null, "metro": null, "bus": null, "tram": null, "parking": null, "debutInfos": null, "finInfos": null, "ville": null, "id": null, "phone": null, "urlBlood": null, "urlPlasma": null, "urlPlatelets": null}
