{"address1": null, "address2": "ROUTE DE ROMILLE", "city": "GEVEZE", "convocationLabel": "SALLE POLYVALENTE", "distance": 0.0, "fullAddress": "ROUTE DE ROMILLE 35850 GEVEZE", "giveBlood": 1, "givePlasma": 0, "givePlatelet": 0, "regionCode": "016", "groupCode": "F70091", "latitude": 48.221486, "longitude": -1.795667, "name": "GEVEZE SALLE PLOY SA", "postCode": "35850", "samplingLocationCode": "2", "horaires": null, "infos": null, "metro": null, "bus": null, "tram": null, "parking": null, "debutInfos": null, "finInfos": null, "ville": null, "id": null, "phone": null, "urlBlood": null, "urlPlasma": null, "urlPlatelets": null}
{"address1": null, "address2": "ESPLANADE DES DROITS DE L'HOMME", "city": "GEVEZE", "convocationLabel": "MAISON DE L'ENFANCE (HALL RESTAURATION)", "distance": 0.0, "fullAddress": "ESPLANADE DES DROITS DE L'HOMME 35850 GEVEZE", "giveBlood": 1, "givePlasma": 0, "givePlatelet": 0, "regionCode": "016", "groupCode": "F70091", "latitude": 48.22090149, "longitude": -1.78887606, "name": "GEVEZE MAISON ENFANCE SA", "postCode": "35850", "samplingLocationCode": "3", "horaires": null, "infos": null, "metro": null, "bus": null, "tram": null, "parking": null, "debutInfos": null, "finInfos": null, "ville": null, "id": null, "phone": null, "urlBlood": null, "urlPlasma": null, "urlPlatelets": null}
{"address1": null, "address2": "RUE DU CALVAIRE", "city": "GEVEZE", "convocationLabel": null, "distance": 0.0, "fullAddress": "RUE DU CALVAIRE 35850 GEVEZE", "giveBlood": 1, "givePlasma": 0, "givePlatelet": 0, "regionCode": "016", "groupCode": "F70091", "latitude": 48.21978378, "longitude": -1.78959465, "name": "GEVEZE MAISON DES FAMILLES SEM", "postCode": "35850", "samplingLocationCode": "4", "horaires": null, "infos": null, "metro": null, "bus": null, "tram": null, "parking": null, "debutInfos": null, "finInfos": null, "ville": null, "id": null, "phone": null, "urlBlood": null, "urlPlasma": null, "urlPlatelets": null}
{"address1": null, "address2": "ESPLANADE DES DROITS DE L'HOMME", "city": "GEVEZE", "convocationLabel": "MAISON DE L'ENFANCE (HALL RESTAURATION)", "distance": 0.0, "fullAddress": "ESPLANADE DES DROITS DE L'HOMME 35850 GEVEZE", "giveBlood": 1, "givePlasma": 0, "givePlatelet": 0, "regionCode": "016", "groupCode": "F70091", "latitude": 48.220636, "longitude": -1.789168, "name": "GEVEZE MAISON ENFANCE SEM", "postCode": "35850", "samplingLocationCode": "5", "horaires": null, "infos": null, "metro": null, "bus": null, "tram": null, "parking": null, "debutInfos": null, "finInfos": null, "ville": null, "id": null, "phone": null, "urlBlood": null, "urlPlasma": null, "urlPlatelets": null}
{"address1": "HALL RESTAURATION", "address2": "ESPLANADE DES DROITS DE L'HOMME", "city": "GEVEZE", "convocationLabel": "MAISON DE L'ENFANCE ", "distance": 0.0, "fullAddress": "HALL RESTAURATION ESPLANADE DES DROITS DE L'HOMME 35850 GEVEZE", "giveBlood": 1, "givePlasma": 0, "givePlatelet": 0, "regionCode": "016", "groupCode": "F70091", "latitude": 48.22061157, "longitude": -1.78862906, "name": "2 GEVEZE-HALL RESTAURATION AM", "postCode": "35850", "samplingLocationCode": "6", "horaires": null, "infos": null, "metro": null, "bus": null, "tram": null, "parking": null, "debutInfos": null, "finInfos": null, "ville": null, "id": null, "phone": null, "urlBlood": null, "urlPlasma": null, "urlPlatelets": null}
{"address1": "HALL RESTAURATION", "address2": "ESPLANADE DES DROITS DE L'HOMME", "city": "GEVEZE", "convocationLabel": "MAISON DE L'ENFANCE", "distance": 0.0, "fullAddress": "HALL RESTAURATION ESPLANADE DES DROITS DE L'HOMME 35850 GEVEZE", "giveBlood": 1, "givePlasma": 0, "givePlatelet": 0, "regionCode": "016", "groupCode": "F70091", "latitude": 48.220636, "longitude": -1.789168, "name": "2 GEVEZE-HALL RESTAURATION DAM", "postCode": "35850", "samplingLocationCode": "7", "horaires": null, "infos": null, "metro": null, "bus": null, "tram": null, "parking": null, "debutInfos": null, "finInfos": null, "ville": null, "id": null, "phone": null, "urlBlood": null, "urlPlasma": null, "urlPlatelets": null}
