{"address1": null, "address2": "RUE AR POUL GLEUT VIAN - KERANDOURET", "city": "LOCTUDY", "convocationLabel": "CENTRE CULTUREL -  KERANDOURET", "distance": 0.0, "fullAddress": "RUE AR POUL GLEUT VIAN - KERANDOURET 29750 LOCTUDY", "giveBlood": 1, "givePlasma": 0, "givePlatelet": 0, "regionCode": "016", "groupCode": "F50136", "latitude": 47.828565, "longitude": -4.171812, "name": "LOCTUDY  HIVER", "postCode": "29750", "samplingLocationCode": "1115", "horaires": null, "infos": null, "metro": null, "bus": null, "tram": null, "parking": null, "debutInfos": null, "finInfos": null, "ville": null, "id": null, "phone": null, "urlBlood": null, "urlPlasma": null, "urlPlatelets": null}
{"address1": null, "address2": "RUE AR POUL GLEUT VIAN - KERANDOURET", "city": "LOCTUDY", "convocationLabel": "CENTRE CULTUREL - KERANDOURET", "distance": 0.0, "fullAddress": "RUE AR POUL GLEUT VIAN - KERANDOURET 29750 LOCTUDY", "giveBlood": 1, "givePlasma": 0, "givePlatelet": 0, "regionCode": "016", "groupCode": "F50136", "latitude": 47.82801437, "longitude": -4.17194986, "name": "LOCTUDY JUILLET", "postCode": "29750", "samplingLocationCode": "2", "horaires": null, "infos": null, "metro": null, "bus": null, "tram": null, "parking": null, "debutInfos": null, "finInfos": null, "ville": null, "id": null, "phone": null, "urlBlood": null, "urlPlasma": null, "urlPlatelets": null}
{"address1": null, "address2": "RUE AR POUL GLEUT VIAN - KERANDOURET", "city": "LOCTUDY", "convocationLabel": "CENTRE CULTUREL - KERANDOURET", "distance": 0.0, "fullAddress": "RUE AR POUL GLEUT VIAN - KERANDOURET 29750 LOCTUDY", "giveBlood": 1, "givePlasma": 0, "givePlatelet": 0, "regionCode": "016", "groupCode": "F50136", "latitude": 47.82801437, "longitude": -4.17194986, "name": "LOCTUDY", "postCode": "29750", "samplingLocationCode": "3", "horaires": null, "infos": null, "metro": null, "bus": null, "tram": null, "parking": null, "debutInfos": null, "finInfos": null, "ville": null, "id": null, "phone": null, "urlBlood": null, "urlPlasma": null, "urlPlatelets": null}
{"address1": null, "address2": "7 RUE DE POULPEYE", "city": "LOCTUDY", "convocationLabel": "FOYER DE L AMITIE", "distance": 0.0, "fullAddress": "7 RUE DE POULPEYE 29750 LOCTUDY", "giveBlood": 1, "givePlasma": 0, "givePlatelet": 0, "regionCode": "016", "groupCode": "F50136", "latitude": 47.830334, "longitude": -4.175404, "name": "LOCTUDY FOYER DE L AMITIE", "postCode": "29750", "samplingLocationCode": "4", "horaires": null, "infos": null, "metro": null, "bus": null, "tram": null, "parking": null, "debutInfos": null, "finInfos": null, "ville": null, "id": null, "phone": null, "urlBlood": null, "urlPlasma": null, "urlPlatelets": null}
