{"address1": null, "address2": "RUE NOTRE DAME", "city": "LOCMINE", "convocationLabel": "SALLE DES FETES", "distance": 0.0, "fullAddress": "RUE NOTRE DAME 56500 LOCMINE", "giveBlood": 1, "givePlasma": 0, "givePlatelet": 0, "regionCode": "016", "groupCode": "F30265", "latitude": 47.888016, "longitude": -2.835547, "name": "LOCMINE PM", "postCode": "56500", "samplingLocationCode": "1528", "horaires": null, "infos": null, "metro": null, "bus": null, "tram": null, "parking": null, "debutInfos": null, "finInfos": null, "ville": null, "id": null, "phone": null, "urlBlood": null, "urlPlasma": null, "urlPlatelets": null}
{"address1": null, "address2": "RUE NOTRE DAME", "city": "LOCMINE", "convocationLabel": "SALLE DES FETES", "distance": 0.0, "fullAddress": "RUE NOTRE DAME 56500 LOCMINE", "giveBlood": 1, "givePlasma": 0, "givePlatelet": 0, "regionCode": "016", "groupCode": "F30265", "latitude": 47.888016, "longitude": -2.835547, "name": "LOCMINE-SALLE DES FETES AM", "postCode": "56500", "samplingLocationCode": "2", "horaires": null, "infos": null, "metro": null, "bus": null, "tram": null, "parking": null, "debutInfos": null, "finInfos": null, "ville": null, "id": null, "phone": null, "urlBlood": null, "urlPlasma": null, "urlPlatelets": null}
{"address1": null, "address2": "RUE NOTRE DAME", "city": "LOCMINE", "convocationLabel": "SALLE DES FETES", "distance": 0.0, "fullAddress": "RUE NOTRE DAME 56500 LOCMINE", "giveBlood": 1, "givePlasma": 0, "givePlatelet": 0, "regionCode": "016", "groupCode": "F30265", "latitude": 47.88787842, "longitude": -2.83547187, "name": "LOCMINE-SALLE DES FETES PM", "postCode": "56500", "samplingLocationCode": "3", "horaires": null, "infos": null, "metro": null, "bus": null, "tram": null, "parking": null, "debutInfos": null, "finInfos": null, "ville": null, "id": null, "phone": null, "urlBlood": null, "urlPlasma": null, "urlPlatelets": null}
{"address1": null, "address2": "RUE NOTRE DAME", "city": "LOCMINE", "convocationLabel": "SALLE DES FETES", "distance": 0.0, "fullAddress": "RUE NOTRE DAME 56500 LOCMINE", "giveBlood": 1, "givePlasma": 0, "givePlatelet": 0, "regionCode": "016", "groupCode": "F30265", "latitude": 47.888016, "longitude": -2.835547, "name": "LOCMINE (LORIENT)", "postCode": "56500", "samplingLocationCode": "4", "horaires": null, "infos": null, "metro": null, "bus": null, "tram": null, "parking": null, "debutInfos": null, "finInfos": null, "ville": null, "id": null, "phone": null, "urlBlood": null, "urlPlasma": null, "urlPlatelets": null}
{"address1": null, "address2": "RUE DES VENETES", "city": "LOCMINE", "convocationLabel": "ESPACE MULTIFONCTIONS LA MAILLETTE", "distance": 0.0, "fullAddress": "RUE DES VENETES 56500 LOCMINE", "giveBlood": 1, "givePlasma": 0, "givePlatelet": 0, "regionCode": "016", "groupCode": "F30265", "latitude": 47.87598, "longitude": -2.826936, "name": "LOCMINE S (La Maillette)", "postCode": "56500", "samplingLocationCode": "5", "horaires": null, "infos": null, "metro": null, "bus": null, "tram": null, "parking": null, "debutInfos": null, "finInfos": null, "ville": null, "id": null, "phone": null, "urlBlood": null, "urlPlasma": null, "urlPlatelets": null}
{"address1": null, "address2": "RUE DES VENETES", "city": "LOCMINE", "convocationLabel": "ESPACE MULTIFONCTION LA MAILLETTE", "distance": 0.0, "fullAddress": "RUE DES VENETES 56500 LOCMINE", "giveBlood": 1, "givePlasma": 0, "givePlatelet": 0, "regionCode": "016", "groupCode": "F30265", "latitude": 47.87598, "longitude": -2.826936, "name": "LOCMINE MAILLETTE 14h45-18h45", "postCode": "56500", "samplingLocationCode": "6", "horaires": null, "infos": null, "metro": null, "bus": null, "tram": null, "parking": null, "debutInfos": null, "finInfos": null, "ville": null, "id": null, "phone": null, "urlBlood": null, "urlPlasma": null, "urlPlatelets": null}
{"address1": null, "address2": "RUE NOTRE DAME", "city": "LOCMINE", "convocationLabel": "SALLE DES FETES", "distance": 0.0, "fullAddress": "RUE NOTRE DAME 56500 LOCMINE", "giveBlood": 1, "givePlasma": 0, "givePlatelet": 0, "regionCode": "016", "groupCode": "F30265", "latitude": 47.888016, "longitude": -2.835547, "name": "LOCMINE 14 h 30 - 18 h 30", "postCode": "56500", "samplingLocationCode": "7", "horaires": null, "infos": null, "metro": null, "bus": null, "tram": null, "parking": null, "debutInfos": null, "finInfos": null, "ville": null, "id": null, "phone": null, "urlBlood": null, "urlPlasma": null, "urlPlatelets": null}
{"address1": null, "address2": "RUE NOTRE DAME", "city": "LOCMINE", "convocationLabel": "SALLE DES FETES", "distance": 0.0, "fullAddress": "RUE NOTRE DAME 56500 LOCMINE", "giveBlood": 1, "givePlasma": 0, "givePlatelet": 0, "regionCode": "016", "groupCode": "F30265", "latitude": 47.88787842, "longitude": -2.83547187, "name": "LOCMINE 14 h 45 - 18 h 45", "postCode": "56500", "samplingLocationCode": "8", "horaires": null, "infos": null, "metro": null, "bus": null, "tram": null, "parking": null, "debutInfos": null, "finInfos": null, "ville": null, "id": null, "phone": null, "urlBlood": null, "urlPlasma": null, "urlPlatelets": null}
{"address1": null, "address2": "6 BIS RUE DE LA MAIRIE", "city": "PLUMELIN", "convocationLabel": "SALLE POLYVALENTE LEON LE TUTOUR", "distance": 0.0, "fullAddress": "6 BIS RUE DE LA MAIRIE 56500 PLUMELIN", "giveBlood": 1, "givePlasma": 0, "givePlatelet": 0, "regionCode": "016", "groupCode": "F30265", "latitude": 47.861441, "longitude": -2.887228, "name": "PLUMELIN SALLE POLYVALENTE", "postCode": "56500", "samplingLocationCode": "9", "horaires": null, "infos": null, "metro": null, "bus": null, "tram": null, "parking": null, "debutInfos": null, "finInfos": null, "ville": null, "id": null, "phone": null, "urlBlood": null, "urlPlasma": null, "urlPlatelets": null}
