{"address1": null, "address2": "PLACE DU GENERAL DE GAULLE", "city": "QUESTEMBERT", "convocationLabel": "SALLE ALAN MEUR", "distance": 0.0, "fullAddress": "PLACE DU GENERAL DE GAULLE 56230 QUESTEMBERT", "giveBlood": 1, "givePlasma": 0, "givePlatelet": 0, "regionCode": "016", "groupCode": "F30368", "latitude": 47.660005, "longitude": -2.451332, "name": "QUESTEMBERT 14h45-18h30", "postCode": "56230", "samplingLocationCode": "10", "horaires": null, "infos": null, "metro": null, "bus": null, "tram": null, "parking": null, "debutInfos": null, "finInfos": null, "ville": null, "id": null, "phone": null, "urlBlood": null, "urlPlasma": null, "urlPlatelets": null}
{"address1": null, "address2": "PLACE DU GENERAL DE GAULLE", "city": "QUESTEMBERT", "convocationLabel": "SALLE ALAN MEUR", "distance": 0.0, "fullAddress": "PLACE DU GENERAL DE GAULLE 56230 QUESTEMBERT", "giveBlood": 1, "givePlasma": 0, "givePlatelet": 0, "regionCode": "016", "groupCode": "F30368", "latitude": 47.65991211, "longitude": -2.45157886, "name": "QUESTEMBERT-SALLE ALAN MEUR AM", "postCode": "56230", "samplingLocationCode": "1500", "horaires": null, "infos": null, "metro": null, "bus": null, "tram": null, "parking": null, "debutInfos": null, "finInfos": null, "ville": null, "id": null, "phone": null, "urlBlood": null, "urlPlasma": null, "urlPlatelets": null}
{"address1": null, "address2": "PLACE DU GENERAL DE GAULLE", "city": "QUESTEMBERT", "convocationLabel": "SALLE ALAN MEUR", "distance": 0.0, "fullAddress": "PLACE DU GENERAL DE GAULLE 56230 QUESTEMBERT", "giveBlood": 1, "givePlasma": 0, "givePlatelet": 0, "regionCode": "016", "groupCode": "F30368", "latitude": 47.66000366, "longitude": -2.45120382, "name": "QUESTEMBERT-SALLE ALAN MEUR PM", "postCode": "56230", "samplingLocationCode": "2", "horaires": null, "infos": null, "metro": null, "bus": null, "tram": null, "parking": null, "debutInfos": null, "finInfos": null, "ville": null, "id": null, "phone": null, "urlBlood": null, "urlPlasma": null, "urlPlatelets": null}
{"address1": null, "address2": "PLACE DU GENERAL DE GAULLE", "city": "QUESTEMBERT", "convocationLabel": "SALLE ALAN MEUR", "distance": 0.0, "fullAddress": "PLACE DU GENERAL DE GAULLE 56230 QUESTEMBERT", "giveBlood": 1, "givePlasma": 0, "givePlatelet": 0, "regionCode": "016", "groupCode": "F30368", "latitude": 47.660053, "longitude": -2.451331, "name": "QUESTEMBERT S", "postCode": "56230", "samplingLocationCode": "3", "horaires": null, "infos": null, "metro": null, "bus": null, "tram": null, "parking": null, "debutInfos": null, "finInfos": null, "ville": null, "id": null, "phone": null, "urlBlood": null, "urlPlasma": null, "urlPlatelets": null}
{"address1": null, "address2": "PLACE DU GENERAL DE GAULLE", "city": "QUESTEMBERT", "convocationLabel": "SALLE ALAN MEUR", "distance": 0.0, "fullAddress": "PLACE DU GENERAL DE GAULLE 56230 QUESTEMBERT", "giveBlood": 1, "givePlasma": 0, "givePlatelet": 0, "regionCode": "016", "groupCode": "F30368", "latitude": 47.660053, "longitude": -2.451331, "name": "QUESTEMBERT J", "postCode": "56230", "samplingLocationCode": "4", "horaires": null, "infos": null, "metro": null, "bus": null, "tram": null, "parking": null, "debutInfos": null, "finInfos": null, "ville": null, "id": null, "phone": null, "urlBlood": null, "urlPlasma": null, "urlPlatelets": null}
{"address1": null, "address2": "PLACE DU GENERAL DE GAULLE", "city": "QUESTEMBERT", "convocationLabel": "SALLE ALAN MEUR", "distance": 0.0, "fullAddress": "PLACE DU GENERAL DE GAULLE 56230 QUESTEMBERT", "giveBlood": 1, "givePlasma": 0, "givePlatelet": 0, "regionCode": "016", "groupCode": "F30368", "latitude": 47.660053, "longitude": -2.451331, "name": "QUESTEMBERT LYC M. BERTHELOT", "postCode": "56230", "samplingLocationCode": "5", "horaires": null, "infos": null, "metro": null, "bus": null, "tram": null, "parking": null, "debutInfos": null, "finInfos": null, "ville": null, "id": null, "phone": null, "urlBlood": null, "urlPlasma": null, "urlPlatelets": null}
{"address1": null, "address2": "PLACE DU GENERAL DE GAULLE", "city": "QUESTEMBERT", "convocationLabel": "SALLE ALAN MEUR", "distance": 0.0, "fullAddress": "PLACE DU GENERAL DE GAULLE 56230 QUESTEMBERT", "giveBlood": 1, "givePlasma": 0, "givePlatelet": 0, "regionCode": "016", "groupCode": "F30368", "latitude": 47.65991211, "longitude": -2.45157886, "name": "QUESTEMBERT 14 h 45 - 18 h 45", "postCode": "56230", "samplingLocationCode": "6", "horaires": null, "infos": null, "metro": null, "bus": null, "tram": null, "parking": null, "debutInfos": null, "finInfos": null, "ville": null, "id": null, "phone": null, "urlBlood": null, "urlPlasma": null, "urlPlatelets": null}
{"address1": null, "address2": "PLACE DU GENERAL DE GAULLE", "city": "QUESTEMBERT", "convocationLabel": "SALLE ALAN MEUR", "distance": 0.0, "fullAddress": "PLACE DU GENERAL DE GAULLE 56230 QUESTEMBERT", "giveBlood": 1, "givePlasma": 0, "givePlatelet": 0, "regionCode": "016", "groupCode": "F30368", "latitude": 47.660053, "longitude": -2.451331, "name": "QUESTEMBERT 12 h - 16 h", "postCode": "56230", "samplingLocationCode": "7", "horaires": null, "infos": null, "metro": null, "bus": null, "tram": null, "parking": null, "debutInfos": null, "finInfos": null, "ville": null, "id": null, "phone": null, "urlBlood": null, "urlPlasma": null, "urlPlatelets": null}
{"address1": null, "address2": "PLACE DU GENERAL DE GAULLE", "city": "QUESTEMBERT", "convocationLabel": "SALLE ALAN MEUR", "distance": 0.0, "fullAddress": "PLACE DU GENERAL DE GAULLE 56230 QUESTEMBERT", "giveBlood": 1, "givePlasma": 0, "givePlatelet": 0, "regionCode": "016", "groupCode": "F30368", "latitude": 47.660053, "longitude": -2.451331, "name": "QUESTEMBERT 14h-18h", "postCode": "56230", "samplingLocationCode": "8", "horaires": null, "infos": null, "metro": null, "bus": null, "tram": null, "parking": null, "debutInfos": null, "finInfos": null, "ville": null, "id": null, "phone": null, "urlBlood": null, "urlPlasma": null, "urlPlatelets": null}
{"address1": null, "address2": "PLACE DU GENERAL DE GAULLE", "city": "QUESTEMBERT", "convocationLabel": "SALLE ALAN MEUR", "distance": 0.0, "fullAddress": "PLACE DU GENERAL DE GAULLE 56230 QUESTEMBERT", "giveBlood": 1, "givePlasma": 0, "givePlatelet": 0, "regionCode": "016", "groupCode": "F30368", "latitude": 47.65991211, "longitude": -2.45157886, "name": "QUESTEMBERT 14 h - 18 h", "postCode": "56230", "samplingLocationCode": "9", "horaires": null, "infos": null, "metro": null, "bus": null, "tram": null, "parking": null, "debutInfos": null, "finInfos": null, "ville": null, "id": null, "phone": null, "urlBlood": null, "urlPlasma": null, "urlPlatelets": null}
