{"address1": "SALLE POLYVALENTE DE SAINT BRANDAN", "address2": "RUE DU PLESSIX", "city": "SAINT-BRANDAN", "convocationLabel": "SALLE POLYVALENTE ST BRANDAN", "distance": 0.0, "fullAddress": "SALLE POLYVALENTE DE SAINT BRANDAN RUE DU PLESSIX 22800 SAINT-BRANDAN", "giveBlood": 1, "givePlasma": 0, "givePlatelet": 0, "regionCode": "016", "groupCode": "F18008", "latitude": 48.389491, "longitude": -2.868263, "name": "Salle POLYVALENTE St-Brandan", "postCode": "22800", "samplingLocationCode": "2", "horaires": null, "infos": null, "metro": null, "bus": null, "tram": null, "parking": null, "debutInfos": null, "finInfos": null, "ville": null, "id": null, "phone": null, "urlBlood": null, "urlPlasma": null, "urlPlatelets": null}
{"address1": null, "address2": null, "city": "SAINT-BRANDAN", "convocationLabel": "Salle des F\u00eates Saint-Brandan", "distance": 0.0, "fullAddress": "22800 SAINT-BRANDAN", "giveBlood": 1, "givePlasma": 0, "givePlatelet": 0, "regionCode": "016", "groupCode": "F18008", "latitude": 48.387634, "longitude": -2.87597, "name": "Salle des f\u00eates Saint-Brandan", "postCode": "22800", "samplingLocationCode": "4", "horaires": null, "infos": null, "metro": null, "bus": null, "tram": null, "parking": null, "debutInfos": null, "finInfos": null, "ville": null, "id": null, "phone": null, "urlBlood": null, "urlPlasma": null, "urlPlatelets": null}
{"address1": null, "address2": "Rue du Plessix", "city": "QUINTIN", "convocationLabel": "Salle des F\u00eates de Quintin", "distance": 0.0, "fullAddress": "Rue du Plessix 22800 QUINTIN", "giveBlood": 1, "givePlasma": 0, "givePlatelet": 0, "regionCode": "016", "groupCode": "F18008", "latitude": 48.389491, "longitude": -2.868263, "name": "QUINTIN PLASMA", "postCode": "22800", "samplingLocationCode": "5", "horaires": null, "infos": null, "metro": null, "bus": null, "tram": null, "parking": null, "debutInfos": null, "finInfos": null, "ville": null, "id": null, "phone": null, "urlBlood": null, "urlPlasma": null, "urlPlatelets": null}
