{"address1": null, "address2": "20 RUE DE LA PISCINE", "city": "REGUINY", "convocationLabel": "SALLE MULTI FONCTIONS", "distance": 0.0, "fullAddress": "20 RUE DE LA PISCINE 56500 REGUINY", "giveBlood": 1, "givePlasma": 0, "givePlatelet": 0, "regionCode": "016", "groupCode": "F30373", "latitude": 47.969949, "longitude": -2.739774, "name": "REGUINY AM", "postCode": "56500", "samplingLocationCode": "1543", "horaires": null, "infos": null, "metro": null, "bus": null, "tram": null, "parking": null, "debutInfos": null, "finInfos": null, "ville": null, "id": null, "phone": null, "urlBlood": null, "urlPlasma": null, "urlPlatelets": null}
{"address1": null, "address2": "RUE DE LA PAIX", "city": "NAIZIN", "convocationLabel": "SALLE MULTIFONCTION 'AVEL DRO'", "distance": 0.0, "fullAddress": "RUE DE LA PAIX 56500 NAIZIN", "giveBlood": 1, "givePlasma": 0, "givePlatelet": 0, "regionCode": "016", "groupCode": "F30373", "latitude": 47.990492, "longitude": -2.834377, "name": "NAIZIN S", "postCode": "56500", "samplingLocationCode": "2", "horaires": null, "infos": null, "metro": null, "bus": null, "tram": null, "parking": null, "debutInfos": null, "finInfos": null, "ville": null, "id": null, "phone": null, "urlBlood": null, "urlPlasma": null, "urlPlatelets": null}
{"address1": null, "address2": "20 RUE DE LA PISCINE", "city": "REGUINY", "convocationLabel": "SALLE MULTIFONCTIONS", "distance": 0.0, "fullAddress": "20 RUE DE LA PISCINE 56500 REGUINY", "giveBlood": 1, "givePlasma": 0, "givePlatelet": 0, "regionCode": "016", "groupCode": "F30373", "latitude": 47.96990204, "longitude": -2.73938465, "name": "REGUINY (S)", "postCode": "56500", "samplingLocationCode": "3", "horaires": null, "infos": null, "metro": null, "bus": null, "tram": null, "parking": null, "debutInfos": null, "finInfos": null, "ville": null, "id": null, "phone": null, "urlBlood": null, "urlPlasma": null, "urlPlatelets": null}
{"address1": null, "address2": "RUE DE LA PAIX", "city": "56500 NAIZIN", "convocationLabel": "SALLE DES FETES", "distance": 0.0, "fullAddress": "RUE DE LA PAIX 56500 56500 NAIZIN", "giveBlood": 1, "givePlasma": 0, "givePlatelet": 0, "regionCode": "016", "groupCode": "F30373", "latitude": 47.990492, "longitude": -2.834377, "name": "NAIZIN AM", "postCode": "56500", "samplingLocationCode": "4", "horaires": null, "infos": null, "metro": null, "bus": null, "tram": null, "parking": null, "debutInfos": null, "finInfos": null, "ville": null, "id": null, "phone": null, "urlBlood": null, "urlPlasma": null, "urlPlatelets": null}
{"address1": null, "address2": "RUE DE LA PAIX", "city": "NAIZIN", "convocationLabel": "SALLE MULTIFONCTION AVEL DRO", "distance": 0.0, "fullAddress": "RUE DE LA PAIX 56500 NAIZIN", "giveBlood": 1, "givePlasma": 0, "givePlatelet": 0, "regionCode": "016", "groupCode": "F30373", "latitude": 47.9909668, "longitude": -2.83541894, "name": "NAIZIN 14 h 30 - 18 h 30", "postCode": "56500", "samplingLocationCode": "5", "horaires": null, "infos": null, "metro": null, "bus": null, "tram": null, "parking": null, "debutInfos": null, "finInfos": null, "ville": null, "id": null, "phone": null, "urlBlood": null, "urlPlasma": null, "urlPlatelets": null}
{"address1": null, "address2": "20 RUE DE LA PISCINE", "city": "REGUINY", "convocationLabel": "SALLE MULTIFONCTIONS", "distance": 0.0, "fullAddress": "20 RUE DE LA PISCINE 56500 REGUINY", "giveBlood": 1, "givePlasma": 0, "givePlatelet": 0, "regionCode": "016", "groupCode": "F30373", "latitude": 47.96952057, "longitude": -2.73833609, "name": "REGUINY 14h30-18h30", "postCode": "56500", "samplingLocationCode": "6", "horaires": null, "infos": null, "metro": null, "bus": null, "tram": null, "parking": null, "debutInfos": null, "finInfos": null, "ville": null, "id": null, "phone": null, "urlBlood": null, "urlPlasma": null, "urlPlatelets": null}
