{"address1": null, "address2": "PLACE DES DROITS DE L'HOMME", "city": "CARHAIX PLOUGUER", "convocationLabel": "SALLE DES HALLES", "distance": 0.0, "fullAddress": "PLACE DES DROITS DE L'HOMME 29270 CARHAIX PLOUGUER", "giveBlood": 1, "givePlasma": 0, "givePlatelet": 0, "regionCode": "016", "groupCode": "F50020", "latitude": 48.27748108, "longitude": -3.57404423, "name": "CARHAIX J1", "postCode": "29270", "samplingLocationCode": "4", "horaires": null, "infos": null, "metro": null, "bus": null, "tram": null, "parking": null, "debutInfos": null, "finInfos": null, "ville": null, "id": null, "phone": null, "urlBlood": null, "urlPlasma": null, "urlPlatelets": null}
{"address1": null, "address2": "PLACE DES DROITS DE L'HOMME", "city": "CARHAIX PLOUGUER", "convocationLabel": "SALLE DES HALLES", "distance": 0.0, "fullAddress": "PLACE DES DROITS DE L'HOMME 29270 CARHAIX PLOUGUER", "giveBlood": 1, "givePlasma": 0, "givePlatelet": 0, "regionCode": "016", "groupCode": "F50020", "latitude": 48.27748108, "longitude": -3.57404423, "name": "CARHAIX J2", "postCode": "29270", "samplingLocationCode": "5", "horaires": null, "infos": null, "metro": null, "bus": null, "tram": null, "parking": null, "debutInfos": null, "finInfos": null, "ville": null, "id": null, "phone": null, "urlBlood": null, "urlPlasma": null, "urlPlatelets": null}
{"address1": null, "address2": "RUE JEAN MONNET", "city": "CARHAIX PLOUGUER", "convocationLabel": "ESPACE GLENMOR", "distance": 0.0, "fullAddress": "RUE JEAN MONNET 29270 CARHAIX PLOUGUER", "giveBlood": 1, "givePlasma": 0, "givePlatelet": 0, "regionCode": "016", "groupCode": "F50020", "latitude": 48.273646, "longitude": -3.560219, "name": "CARHAIX GLENMOR J1", "postCode": "29270", "samplingLocationCode": "6", "horaires": null, "infos": null, "metro": null, "bus": null, "tram": null, "parking": null, "debutInfos": null, "finInfos": null, "ville": null, "id": null, "phone": null, "urlBlood": null, "urlPlasma": null, "urlPlatelets": null}
{"address1": null, "address2": "RUE JEAN MONNET", "city": "CARHAIX PLOUGUER", "convocationLabel": "ESPACE GLENMOR", "distance": 0.0, "fullAddress": "RUE JEAN MONNET 29270 CARHAIX PLOUGUER", "giveBlood": 1, "givePlasma": 0, "givePlatelet": 0, "regionCode": "016", "groupCode": "F50020", "latitude": 48.273646, "longitude": -3.560219, "name": "CARHAIX GLENMOR J2", "postCode": "29270", "samplingLocationCode": "7", "horaires": null, "infos": null, "metro": null, "bus": null, "tram": null, "parking": null, "debutInfos": null, "finInfos": null, "ville": null, "id": null, "phone": null, "urlBlood": null, "urlPlasma": null, "urlPlatelets": null}
{"address1": null, "address2": "RUE AR PITI GUEGUEN", "city": "CARHAIX PLOUGUER", "convocationLabel": "KARAEZ PARK", "distance": 0.0, "fullAddress": "RUE AR PITI GUEGUEN 29270 CARHAIX PLOUGUER", "giveBlood": 1, "givePlasma": 0, "givePlatelet": 0, "regionCode": "016", "groupCode": "F50020", "latitude": 48.27748108, "longitude": -3.57404423, "name": "CARHAIX KARAEZ PARK J2", "postCode": "29270", "samplingLocationCode": "710", "horaires": null, "infos": null, "metro": null, "bus": null, "tram": null, "parking": null, "debutInfos": null, "finInfos": null, "ville": null, "id": null, "phone": null, "urlBlood": null, "urlPlasma": null, "urlPlatelets": null}
{"address1": null, "address2": "PLACE DES DROITS DE L'HOMME", "city": "CARHAIX PLOUGUER", "convocationLabel": "SALLE DES HALLES", "distance": 0.0, "fullAddress": "PLACE DES DROITS DE L'HOMME 29270 CARHAIX PLOUGUER", "giveBlood": 1, "givePlasma": 0, "givePlatelet": 0, "regionCode": "016", "groupCode": "F50020", "latitude": 48.277443, "longitude": -3.573887, "name": "J1 SEPT", "postCode": "29270", "samplingLocationCode": "8", "horaires": null, "infos": null, "metro": null, "bus": null, "tram": null, "parking": null, "debutInfos": null, "finInfos": null, "ville": null, "id": null, "phone": null, "urlBlood": null, "urlPlasma": null, "urlPlatelets": null}
{"address1": null, "address2": "RUE AR PITI GUEGUEN", "city": "CARHAIX PLOUGUER", "convocationLabel": "KARAEZ PARK", "distance": 0.0, "fullAddress": "RUE AR PITI GUEGUEN 29270 CARHAIX PLOUGUER", "giveBlood": 1, "givePlasma": 0, "givePlatelet": 0, "regionCode": "016", "groupCode": "F50020", "latitude": 48.27748108, "longitude": -3.57404423, "name": "CARHAIX KARAEZ PARK J1", "postCode": "29270", "samplingLocationCode": "872", "horaires": null, "infos": null, "metro": null, "bus": null, "tram": null, "parking": null, "debutInfos": null, "finInfos": null, "ville": null, "id": null, "phone": null, "urlBlood": null, "urlPlasma": null, "urlPlatelets": null}
{"address1": null, "address2": "PLACE DES DROITS DE L'HOMME", "city": "CARHAIX PLOUGUER", "convocationLabel": "SALLE DES HALLES", "distance": 0.0, "fullAddress": "PLACE DES DROITS DE L'HOMME 29270 CARHAIX PLOUGUER", "giveBlood": 1, "givePlasma": 0, "givePlatelet": 0, "regionCode": "016", "groupCode": "F50020", "latitude": 48.277443, "longitude": -3.573887, "name": "J2 SEPT", "postCode": "29270", "samplingLocationCode": "9", "horaires": null, "infos": null, "metro": null, "bus": null, "tram": null, "parking": null, "debutInfos": null, "finInfos": null, "ville": null, "id": null, "phone": null, "urlBlood": null, "urlPlasma": null, "urlPlatelets": null}
