{"address1": null, "address2": "ROGUENNIC", "city": "CLEDER", "convocationLabel": "SALLE D'ANIMATION DU CAMPING - ROGUENNIC", "distance": 0.0, "fullAddress": "ROGUENNIC 29233 CLEDER", "giveBlood": 1, "givePlasma": 0, "givePlatelet": 0, "regionCode": "016", "groupCode": "F50031", "latitude": 48.689664, "longitude": -4.13515, "name": "CLEDER - ETE J2", "postCode": "29233", "samplingLocationCode": "3", "horaires": null, "infos": null, "metro": null, "bus": null, "tram": null, "parking": null, "debutInfos": null, "finInfos": null, "ville": null, "id": null, "phone": null, "urlBlood": null, "urlPlasma": null, "urlPlatelets": null}
{"address1": null, "address2": null, "city": "CLEDER", "convocationLabel": "SALLE LE CHANEL", "distance": 0.0, "fullAddress": "29233 CLEDER", "giveBlood": 1, "givePlasma": 0, "givePlatelet": 0, "regionCode": "016", "groupCode": "F50031", "latitude": 48.660125, "longitude": -4.124958, "name": "CLEDER - PLASMA", "postCode": "29233", "samplingLocationCode": "4", "horaires": null, "infos": null, "metro": null, "bus": null, "tram": null, "parking": null, "debutInfos": null, "finInfos": null, "ville": null, "id": null, "phone": null, "urlBlood": null, "urlPlasma": null, "urlPlatelets": null}
{"address1": null, "address2": "SALLE KAN AR MOR", "city": "CLEDER", "convocationLabel": "SALLE KAN AR MOR", "distance": 0.0, "fullAddress": "SALLE KAN AR MOR 29233 CLEDER", "giveBlood": 1, "givePlasma": 0, "givePlatelet": 0, "regionCode": "016", "groupCode": "F50031", "latitude": 48.66412735, "longitude": -4.10344076, "name": "CLEDER FEV", "postCode": "29233", "samplingLocationCode": "5", "horaires": null, "infos": null, "metro": null, "bus": null, "tram": null, "parking": null, "debutInfos": null, "finInfos": null, "ville": null, "id": null, "phone": null, "urlBlood": null, "urlPlasma": null, "urlPlatelets": null}
{"address1": null, "address2": "1 B PLACE CHARLES DE GAULLE", "city": "CLEDER", "convocationLabel": "SALLE KAN AR MOR", "distance": 0.0, "fullAddress": "1 B PLACE CHARLES DE GAULLE 29233 CLEDER", "giveBlood": 1, "givePlasma": 0, "givePlatelet": 0, "regionCode": "016", "groupCode": "F50031", "latitude": 48.66300583, "longitude": -4.10301018, "name": "CLEDER - KAN AR MOR", "postCode": "29233", "samplingLocationCode": "705", "horaires": null, "infos": null, "metro": null, "bus": null, "tram": null, "parking": null, "debutInfos": null, "finInfos": null, "ville": null, "id": null, "phone": null, "urlBlood": null, "urlPlasma": null, "urlPlatelets": null}
{"address1": null, "address2": "1 PLACE CHARLES DE GAULLE", "city": "CLEDER", "convocationLabel": "MAISON DES ASSOCIATIONS", "distance": 0.0, "fullAddress": "1 PLACE CHARLES DE GAULLE 29233 CLEDER", "giveBlood": 1, "givePlasma": 0, "givePlatelet": 0, "regionCode": "016", "groupCode": "F50031", "latitude": 48.689664, "longitude": -4.13515, "name": "CLEDER - MAISON ASSOCIATIONS", "postCode": "29233", "samplingLocationCode": "859", "horaires": null, "infos": null, "metro": null, "bus": null, "tram": null, "parking": null, "debutInfos": null, "finInfos": null, "ville": null, "id": null, "phone": null, "urlBlood": null, "urlPlasma": null, "urlPlatelets": null}
