{"address1": null, "address2": "34 rue de Moncontour", "city": "LOUDEAC", "convocationLabel": "FOYER MUNICIPAL", "distance": 0.0, "fullAddress": "34 rue de Moncontour 22600 LOUDEAC", "giveBlood": 1, "givePlasma": 0, "givePlatelet": 0, "regionCode": "016", "groupCode": "F10123", "latitude": 48.17858505, "longitude": -2.75546789, "name": "LOUDEAC F Mun AM1", "postCode": "22600", "samplingLocationCode": "1270", "horaires": null, "infos": null, "metro": null, "bus": null, "tram": null, "parking": null, "debutInfos": null, "finInfos": null, "ville": null, "id": null, "phone": null, "urlBlood": null, "urlPlasma": null, "urlPlatelets": null}
{"address1": null, "address2": "Bd des Priteaux", "city": "LOUDEAC", "convocationLabel": "GYMNASE DE LA ROCADE", "distance": 0.0, "fullAddress": "Bd des Priteaux 22600 LOUDEAC", "giveBlood": 1, "givePlasma": 0, "givePlatelet": 0, "regionCode": "016", "groupCode": "F10123", "latitude": 48.182783, "longitude": -2.753466, "name": "Loudeac RocAM", "postCode": "22600", "samplingLocationCode": "2", "horaires": null, "infos": null, "metro": null, "bus": null, "tram": null, "parking": null, "debutInfos": null, "finInfos": null, "ville": null, "id": null, "phone": null, "urlBlood": null, "urlPlasma": null, "urlPlatelets": null}
{"address1": null, "address2": "Bd des Priteaux", "city": "LOUDEAC", "convocationLabel": "GYMNASE DE LA ROCADE", "distance": 0.0, "fullAddress": "Bd des Priteaux 22600 LOUDEAC", "giveBlood": 1, "givePlasma": 0, "givePlatelet": 0, "regionCode": "016", "groupCode": "F10123", "latitude": 48.182783, "longitude": -2.753466, "name": "Loudeac RocDAM", "postCode": "22600", "samplingLocationCode": "3", "horaires": null, "infos": null, "metro": null, "bus": null, "tram": null, "parking": null, "debutInfos": null, "finInfos": null, "ville": null, "id": null, "phone": null, "urlBlood": null, "urlPlasma": null, "urlPlatelets": null}
{"address1": null, "address2": "34 rue de Moncontour", "city": "LOUDEAC", "convocationLabel": "FOYER MUNICIPAL", "distance": 0.0, "fullAddress": "34 rue de Moncontour 22600 LOUDEAC", "giveBlood": 1, "givePlasma": 0, "givePlatelet": 0, "regionCode": "016", "groupCode": "F10123", "latitude": 48.17858505, "longitude": -2.75546789, "name": "LOUDEAC F Mun AM2", "postCode": "22600", "samplingLocationCode": "4", "horaires": null, "infos": null, "metro": null, "bus": null, "tram": null, "parking": null, "debutInfos": null, "finInfos": null, "ville": null, "id": null, "phone": null, "urlBlood": null, "urlPlasma": null, "urlPlatelets": null}
{"address1": null, "address2": "Boulevard des Priteaux", "city": "LOUDEAC", "convocationLabel": "PALAIS DES CONGRES", "distance": 0.0, "fullAddress": "Boulevard des Priteaux 22600 LOUDEAC", "giveBlood": 1, "givePlasma": 0, "givePlatelet": 0, "regionCode": "016", "groupCode": "F10123", "latitude": 48.182783, "longitude": -2.753466, "name": "Loudeac pcAM", "postCode": "22600", "samplingLocationCode": "5", "horaires": null, "infos": null, "metro": null, "bus": null, "tram": null, "parking": null, "debutInfos": null, "finInfos": null, "ville": null, "id": null, "phone": null, "urlBlood": null, "urlPlasma": null, "urlPlatelets": null}
{"address1": null, "address2": "Boulevard des Priteaux", "city": "LOUDEAC", "convocationLabel": "PALAIS DES CONGRES", "distance": 0.0, "fullAddress": "Boulevard des Priteaux 22600 LOUDEAC", "giveBlood": 1, "givePlasma": 0, "givePlatelet": 0, "regionCode": "016", "groupCode": "F10123", "latitude": 48.182783, "longitude": -2.753466, "name": "Loudeac pcDAM", "postCode": "22600", "samplingLocationCode": "6", "horaires": null, "infos": null, "metro": null, "bus": null, "tram": null, "parking": null, "debutInfos": null, "finInfos": null, "ville": null, "id": null, "phone": null, "urlBlood": null, "urlPlasma": null, "urlPlatelets": null}
{"address1": null, "address2": "34 rue de Moncontour", "city": "LOUDEAC", "convocationLabel": "FOYER MUNICIPAL", "distance": 0.0, "fullAddress": "34 rue de Moncontour 22600 LOUDEAC", "giveBlood": 1, "givePlasma": 0, "givePlatelet": 0, "regionCode": "016", "groupCode": "F10123", "latitude": 48.17858505, "longitude": -2.75546789, "name": "LOUDEAC F Mun DAM3", "postCode": "22600", "samplingLocationCode": "7", "horaires": null, "infos": null, "metro": null, "bus": null, "tram": null, "parking": null, "debutInfos": null, "finInfos": null, "ville": null, "id": null, "phone": null, "urlBlood": null, "urlPlasma": null, "urlPlatelets": null}
