{"address1": null, "address2": "20 rue Guinefort", "city": "LEHON", "convocationLabel": "SALLE DU CLOS GASTEL", "distance": 0.0, "fullAddress": "20 rue Guinefort 22100 LEHON", "giveBlood": 1, "givePlasma": 0, "givePlatelet": 0, "regionCode": "016", "groupCode": "F10110", "latitude": 48.44346619, "longitude": -2.07030249, "name": "LEHON Clos Gastel AM1", "postCode": "22100", "samplingLocationCode": "10", "horaires": null, "infos": null, "metro": null, "bus": null, "tram": null, "parking": null, "debutInfos": null, "finInfos": null, "ville": null, "id": null, "phone": null, "urlBlood": null, "urlPlasma": null, "urlPlatelets": null}
{"address1": null, "address2": "20 rue Guinefort", "city": "LEHON", "convocationLabel": "SALLE DU CLOS GASTEL", "distance": 0.0, "fullAddress": "20 rue Guinefort 22100 LEHON", "giveBlood": 1, "givePlasma": 0, "givePlatelet": 0, "regionCode": "016", "groupCode": "F10110", "latitude": 48.44346619, "longitude": -2.07030249, "name": "LEHON Clos Gastel AM2", "postCode": "22100", "samplingLocationCode": "11", "horaires": null, "infos": null, "metro": null, "bus": null, "tram": null, "parking": null, "debutInfos": null, "finInfos": null, "ville": null, "id": null, "phone": null, "urlBlood": null, "urlPlasma": null, "urlPlatelets": null}
{"address1": null, "address2": "20 rue Guinefort", "city": "LEHON", "convocationLabel": "SALLE DU CLOS GASTEL", "distance": 0.0, "fullAddress": "20 rue Guinefort 22100 LEHON", "giveBlood": 1, "givePlasma": 0, "givePlatelet": 0, "regionCode": "016", "groupCode": "F10110", "latitude": 48.44346619, "longitude": -2.07030249, "name": "LEHON Clos Gastel DAM3", "postCode": "22100", "samplingLocationCode": "12", "horaires": null, "infos": null, "metro": null, "bus": null, "tram": null, "parking": null, "debutInfos": null, "finInfos": null, "ville": null, "id": null, "phone": null, "urlBlood": null, "urlPlasma": null, "urlPlatelets": null}
{"address1": null, "address2": "20 rue Guinefort", "city": "LEHON", "convocationLabel": "SALLE DU CLOS GASTEL", "distance": 0.0, "fullAddress": "20 rue Guinefort 22100 LEHON", "giveBlood": 1, "givePlasma": 0, "givePlatelet": 0, "regionCode": "016", "groupCode": "F10110", "latitude": 48.444611, "longitude": -2.070056, "name": "LEHON Clos Gastel", "postCode": "22100", "samplingLocationCode": "13", "horaires": null, "infos": null, "metro": null, "bus": null, "tram": null, "parking": null, "debutInfos": null, "finInfos": null, "ville": null, "id": null, "phone": null, "urlBlood": null, "urlPlasma": null, "urlPlatelets": null}
{"address1": null, "address2": "20 rue Guinefort", "city": "LEHON", "convocationLabel": "SALLE DU CLOS GASTEL", "distance": 0.0, "fullAddress": "20 rue Guinefort 22100 LEHON", "giveBlood": 1, "givePlasma": 0, "givePlatelet": 0, "regionCode": "016", "groupCode": "F10110", "latitude": 48.444611, "longitude": -2.070056, "name": "LEHON Clos Gastel VEN", "postCode": "22100", "samplingLocationCode": "14", "horaires": null, "infos": null, "metro": null, "bus": null, "tram": null, "parking": null, "debutInfos": null, "finInfos": null, "ville": null, "id": null, "phone": null, "urlBlood": null, "urlPlasma": null, "urlPlatelets": null}
{"address1": null, "address2": "20 RUE GUINEFORT", "city": "LEHON", "convocationLabel": "SALLE DU CLOS GASTEL", "distance": 0.0, "fullAddress": "20 RUE GUINEFORT 22100 LEHON", "giveBlood": 1, "givePlasma": 0, "givePlatelet": 0, "regionCode": "016", "groupCode": "F10110", "latitude": 48.44346619, "longitude": -2.07030249, "name": "2 DINAN-GASTEL AM J1", "postCode": "22100", "samplingLocationCode": "15", "horaires": null, "infos": null, "metro": null, "bus": null, "tram": null, "parking": null, "debutInfos": null, "finInfos": null, "ville": null, "id": null, "phone": null, "urlBlood": null, "urlPlasma": null, "urlPlatelets": null}
{"address1": null, "address2": "20 RUE GUINEFORT", "city": "LEHON", "convocationLabel": "SALLE DU CLOS GASTEL", "distance": 0.0, "fullAddress": "20 RUE GUINEFORT 22100 LEHON", "giveBlood": 1, "givePlasma": 0, "givePlatelet": 0, "regionCode": "016", "groupCode": "F10110", "latitude": 48.44346619, "longitude": -2.07030249, "name": "2 DINAN-GASTEL DAM J3", "postCode": "22100", "samplingLocationCode": "16", "horaires": null, "infos": null, "metro": null, "bus": null, "tram": null, "parking": null, "debutInfos": null, "finInfos": null, "ville": null, "id": null, "phone": null, "urlBlood": null, "urlPlasma": null, "urlPlatelets": null}
{"address1": null, "address2": "20 RUE GUINEFORT", "city": "LEHON", "convocationLabel": "SALLE DU CLOS GASTEL", "distance": 0.0, "fullAddress": "20 RUE GUINEFORT 22100 LEHON", "giveBlood": 1, "givePlasma": 0, "givePlatelet": 0, "regionCode": "016", "groupCode": "F10110", "latitude": 48.44346619, "longitude": -2.07030249, "name": "2 DINAN-GASTEL MAT J+ ", "postCode": "22100", "samplingLocationCode": "17", "horaires": null, "infos": null, "metro": null, "bus": null, "tram": null, "parking": null, "debutInfos": null, "finInfos": null, "ville": null, "id": null, "phone": null, "urlBlood": null, "urlPlasma": null, "urlPlatelets": null}
{"address1": null, "address2": "20 RUE GUINEFORT", "city": "LEHON", "convocationLabel": "SALLE DU CLOS GASTEL", "distance": 0.0, "fullAddress": "20 RUE GUINEFORT 22100 LEHON", "giveBlood": 1, "givePlasma": 0, "givePlatelet": 0, "regionCode": "016", "groupCode": "F10110", "latitude": 48.44351959501432, "longitude": -2.0703220367431636, "name": "2 DINAN-GASTEL AM J2", "postCode": "22100", "samplingLocationCode": "18", "horaires": null, "infos": null, "metro": null, "bus": null, "tram": null, "parking": null, "debutInfos": null, "finInfos": null, "ville": null, "id": null, "phone": null, "urlBlood": null, "urlPlasma": null, "urlPlatelets": null}
{"address1": null, "address2": "20 rue Guinefort", "city": "LEHON", "convocationLabel": "SALLE DU CLOS GASTEL", "distance": 0.0, "fullAddress": "20 rue Guinefort 22100 LEHON", "giveBlood": 1, "givePlasma": 0, "givePlatelet": 0, "regionCode": "016", "groupCode": "F10110", "latitude": 48.44326019, "longitude": -2.07065487, "name": "LEHON Clos Gastel mat", "postCode": "22100", "samplingLocationCode": "2", "horaires": null, "infos": null, "metro": null, "bus": null, "tram": null, "parking": null, "debutInfos": null, "finInfos": null, "ville": null, "id": null, "phone": null, "urlBlood": null, "urlPlasma": null, "urlPlatelets": null}
{"address1": null, "address2": null, "city": "DINAN", "convocationLabel": "Au Th\u00e9\u00e2tre des Jacobins", "distance": 0.0, "fullAddress": "22100 DINAN", "giveBlood": 1, "givePlasma": 0, "givePlatelet": 0, "regionCode": "016", "groupCode": "F10110", "latitude": 48.445894, "longitude": -2.053212, "name": "Th\u00e9\u00e2tre des Jacobins", "postCode": "22100", "samplingLocationCode": "4", "horaires": null, "infos": null, "metro": null, "bus": null, "tram": null, "parking": null, "debutInfos": null, "finInfos": null, "ville": null, "id": null, "phone": null, "urlBlood": null, "urlPlasma": null, "urlPlatelets": null}
{"address1": null, "address2": "20  rue Guinefort", "city": "LEHON", "convocationLabel": "SALLE DU CLOS GASTEL", "distance": 0.0, "fullAddress": "20  rue Guinefort 22100 LEHON", "giveBlood": 1, "givePlasma": 0, "givePlatelet": 0, "regionCode": "016", "groupCode": "F10110", "latitude": 48.444611, "longitude": -2.070056, "name": "LEHON CLOS GASTEL J2", "postCode": "22100", "samplingLocationCode": "6", "horaires": null, "infos": null, "metro": null, "bus": null, "tram": null, "parking": null, "debutInfos": null, "finInfos": null, "ville": null, "id": null, "phone": null, "urlBlood": null, "urlPlasma": null, "urlPlatelets": null}
