{"address1": null, "address2": "10 bd Gal de Gaulle", "city": "ST-QUAY", "convocationLabel": "CENTRE DE CONGRES", "distance": 0.0, "fullAddress": "10 bd Gal de Gaulle 22410 ST-QUAY", "giveBlood": 1, "givePlasma": 0, "givePlatelet": 0, "regionCode": "016", "groupCode": "F10148", "latitude": 48.6566925, "longitude": -2.83974695, "name": "ST QUAY C Congr\u00e8s AM1", "postCode": "22410", "samplingLocationCode": "1295", "horaires": null, "infos": null, "metro": null, "bus": null, "tram": null, "parking": null, "debutInfos": null, "finInfos": null, "ville": null, "id": null, "phone": null, "urlBlood": null, "urlPlasma": null, "urlPlatelets": null}
{"address1": null, "address2": "10 bd Gal de Gaulle", "city": "ST-QUAY", "convocationLabel": "CENTRE DE CONGRES", "distance": 0.0, "fullAddress": "10 bd Gal de Gaulle 22410 ST-QUAY", "giveBlood": 1, "givePlasma": 0, "givePlatelet": 0, "regionCode": "016", "groupCode": "F10148", "latitude": 48.6566925, "longitude": -2.83974695, "name": "ST QUAY C Congr\u00e8s AM2", "postCode": "22410", "samplingLocationCode": "3", "horaires": null, "infos": null, "metro": null, "bus": null, "tram": null, "parking": null, "debutInfos": null, "finInfos": null, "ville": null, "id": null, "phone": null, "urlBlood": null, "urlPlasma": null, "urlPlatelets": null}
{"address1": null, "address2": "10 bd Gal de Gaulle", "city": "ST-QUAY", "convocationLabel": "CENTRE DE CONGRES", "distance": 0.0, "fullAddress": "10 bd Gal de Gaulle 22410 ST-QUAY", "giveBlood": 1, "givePlasma": 0, "givePlatelet": 0, "regionCode": "016", "groupCode": "F10148", "latitude": 48.656802, "longitude": -2.840051, "name": "ST QUAY C Congr\u00e8s MAT1", "postCode": "22410", "samplingLocationCode": "4", "horaires": null, "infos": null, "metro": null, "bus": null, "tram": null, "parking": null, "debutInfos": null, "finInfos": null, "ville": null, "id": null, "phone": null, "urlBlood": null, "urlPlasma": null, "urlPlatelets": null}
{"address1": null, "address2": "Rue Pierre Le Cornec", "city": "ETABLES/MER", "convocationLabel": "SALLE DES LOISIRS", "distance": 0.0, "fullAddress": "Rue Pierre Le Cornec 22680 ETABLES/MER", "giveBlood": 1, "givePlasma": 0, "givePlatelet": 0, "regionCode": "016", "groupCode": "F10148", "latitude": 48.62472916, "longitude": -2.8365941, "name": "ETABLES S Loisirs AM", "postCode": "22680", "samplingLocationCode": "5", "horaires": null, "infos": null, "metro": null, "bus": null, "tram": null, "parking": null, "debutInfos": null, "finInfos": null, "ville": null, "id": null, "phone": null, "urlBlood": null, "urlPlasma": null, "urlPlatelets": null}
{"address1": null, "address2": "Rue Pierre Le Cornec", "city": "ETABLES/MER", "convocationLabel": "SALLE DES LOISIRS", "distance": 0.0, "fullAddress": "Rue Pierre Le Cornec 22680 ETABLES/MER", "giveBlood": 1, "givePlasma": 0, "givePlatelet": 0, "regionCode": "016", "groupCode": "F10148", "latitude": 48.625102, "longitude": -2.837638, "name": "ETABLES S Loisirs VEN", "postCode": "22680", "samplingLocationCode": "6", "horaires": null, "infos": null, "metro": null, "bus": null, "tram": null, "parking": null, "debutInfos": null, "finInfos": null, "ville": null, "id": null, "phone": null, "urlBlood": null, "urlPlasma": null, "urlPlatelets": null}
{"address1": null, "address2": "10 bd Gal de Gaulle", "city": "ST-QUAY", "convocationLabel": "CENTRE DES CONGRES", "distance": 0.0, "fullAddress": "10 bd Gal de Gaulle 22410 ST-QUAY", "giveBlood": 1, "givePlasma": 0, "givePlatelet": 0, "regionCode": "016", "groupCode": "F10148", "latitude": 48.656802, "longitude": -2.840051, "name": "ST QUAY C Congr\u00e8s VEN", "postCode": "22410", "samplingLocationCode": "7", "horaires": null, "infos": null, "metro": null, "bus": null, "tram": null, "parking": null, "debutInfos": null, "finInfos": null, "ville": null, "id": null, "phone": null, "urlBlood": null, "urlPlasma": null, "urlPlatelets": null}
