{"address1": null, "address2": "10 RUE DU TREGOR", "city": "BETTON", "convocationLabel": "ESPACE ANITA CONTI", "distance": 0.0, "fullAddress": "10 RUE DU TREGOR 35830 BETTON", "giveBlood": 1, "givePlasma": 0, "givePlatelet": 0, "regionCode": "016", "groupCode": "F70019", "latitude": 48.183586, "longitude": -1.649547, "name": "2 BETTON-ANITA SA ", "postCode": "35830", "samplingLocationCode": "10", "horaires": null, "infos": null, "metro": null, "bus": null, "tram": null, "parking": null, "debutInfos": null, "finInfos": null, "ville": null, "id": null, "phone": null, "urlBlood": null, "urlPlasma": null, "urlPlatelets": null}
{"address1": null, "address2": "10 RUE DU TREGOR", "city": "BETTON", "convocationLabel": "ESPACE ANITA CONTI", "distance": 0.0, "fullAddress": "10 RUE DU TREGOR 35830 BETTON", "giveBlood": 1, "givePlasma": 0, "givePlatelet": 0, "regionCode": "016", "groupCode": "F70019", "latitude": 48.18331909, "longitude": -1.64755523, "name": "2 BETTON-ANITA VE AM", "postCode": "35830", "samplingLocationCode": "11", "horaires": null, "infos": null, "metro": null, "bus": null, "tram": null, "parking": null, "debutInfos": null, "finInfos": null, "ville": null, "id": null, "phone": null, "urlBlood": null, "urlPlasma": null, "urlPlatelets": null}
{"address1": null, "address2": "PLACE CHARLES DE GAULLE", "city": "BETTON", "convocationLabel": "GALERIE DE L'ILLET", "distance": 0.0, "fullAddress": "PLACE CHARLES DE GAULLE 35830 BETTON", "giveBlood": 1, "givePlasma": 0, "givePlatelet": 0, "regionCode": "016", "groupCode": "F70019", "latitude": 48.182191, "longitude": -1.640895, "name": "2 BETTON-ILLET VE JO", "postCode": "35830", "samplingLocationCode": "12", "horaires": null, "infos": null, "metro": null, "bus": null, "tram": null, "parking": null, "debutInfos": null, "finInfos": null, "ville": null, "id": null, "phone": null, "urlBlood": null, "urlPlasma": null, "urlPlatelets": null}
{"address1": null, "address2": "PLACE CHARLES DE GAULLE", "city": "BETTON", "convocationLabel": "GALERIE DE L'ILLET", "distance": 0.0, "fullAddress": "PLACE CHARLES DE GAULLE 35830 BETTON", "giveBlood": 1, "givePlasma": 0, "givePlatelet": 0, "regionCode": "016", "groupCode": "F70019", "latitude": 48.182191, "longitude": -1.640895, "name": "2 BETTON-ILLET SA J+", "postCode": "35830", "samplingLocationCode": "13", "horaires": null, "infos": null, "metro": null, "bus": null, "tram": null, "parking": null, "debutInfos": null, "finInfos": null, "ville": null, "id": null, "phone": null, "urlBlood": null, "urlPlasma": null, "urlPlatelets": null}
{"address1": null, "address2": "10 RUE DU TREGOR", "city": "BETTON", "convocationLabel": "ESPACE ANITA CONTI", "distance": 0.0, "fullAddress": "10 RUE DU TREGOR 35830 BETTON", "giveBlood": 1, "givePlasma": 0, "givePlatelet": 0, "regionCode": "016", "groupCode": "F70019", "latitude": 48.18332672, "longitude": -1.6475476, "name": "2 BETTON-ANITA VE JO", "postCode": "35830", "samplingLocationCode": "14", "horaires": null, "infos": null, "metro": null, "bus": null, "tram": null, "parking": null, "debutInfos": null, "finInfos": null, "ville": null, "id": null, "phone": null, "urlBlood": null, "urlPlasma": null, "urlPlatelets": null}
{"address1": null, "address2": "10 RUE DU TREGOR", "city": "BETTON", "convocationLabel": "ESPACE ANITA CONTI", "distance": 0.0, "fullAddress": "10 RUE DU TREGOR 35830 BETTON", "giveBlood": 1, "givePlasma": 0, "givePlatelet": 0, "regionCode": "016", "groupCode": "F70019", "latitude": 48.183586, "longitude": -1.649547, "name": "BETTON ANITA SEMAINE", "postCode": "35830", "samplingLocationCode": "3", "horaires": null, "infos": null, "metro": null, "bus": null, "tram": null, "parking": null, "debutInfos": null, "finInfos": null, "ville": null, "id": null, "phone": null, "urlBlood": null, "urlPlasma": null, "urlPlatelets": null}
{"address1": null, "address2": "10 RUE DU TREGOR", "city": "BETTON", "convocationLabel": "ESPACE ANITA CONTI (pr\u00e8s de centre C. du Tr\u00e9gor)", "distance": 0.0, "fullAddress": "10 RUE DU TREGOR 35830 BETTON", "giveBlood": 1, "givePlasma": 0, "givePlatelet": 0, "regionCode": "016", "groupCode": "F70019", "latitude": 48.183586, "longitude": -1.649547, "name": "BETTON", "postCode": "35830", "samplingLocationCode": "32", "horaires": null, "infos": null, "metro": null, "bus": null, "tram": null, "parking": null, "debutInfos": null, "finInfos": null, "ville": null, "id": null, "phone": null, "urlBlood": null, "urlPlasma": null, "urlPlatelets": null}
{"address1": null, "address2": "10 RUE DU TREGOR", "city": "BETTON", "convocationLabel": "ESPACE ANITA CONTI", "distance": 0.0, "fullAddress": "10 RUE DU TREGOR 35830 BETTON", "giveBlood": 1, "givePlasma": 0, "givePlatelet": 0, "regionCode": "016", "groupCode": "F70019", "latitude": 48.183586, "longitude": -1.649547, "name": "BETTON samedi mat", "postCode": "35830", "samplingLocationCode": "4", "horaires": null, "infos": null, "metro": null, "bus": null, "tram": null, "parking": null, "debutInfos": null, "finInfos": null, "ville": null, "id": null, "phone": null, "urlBlood": null, "urlPlasma": null, "urlPlatelets": null}
{"address1": null, "address2": "10 RUE DU TREGOR", "city": "BETTON", "convocationLabel": "ESPACE ANITA CONTI", "distance": 0.0, "fullAddress": "10 RUE DU TREGOR 35830 BETTON", "giveBlood": 1, "givePlasma": 0, "givePlatelet": 0, "regionCode": "016", "groupCode": "F70019", "latitude": 48.18323898, "longitude": -1.64749515, "name": "BETTON ANITA SA", "postCode": "35830", "samplingLocationCode": "5", "horaires": null, "infos": null, "metro": null, "bus": null, "tram": null, "parking": null, "debutInfos": null, "finInfos": null, "ville": null, "id": null, "phone": null, "urlBlood": null, "urlPlasma": null, "urlPlatelets": null}
{"address1": null, "address2": "10 RUE DU TREGOR", "city": "BETTON", "convocationLabel": "ESPACE ANITA CONTI", "distance": 0.0, "fullAddress": "10 RUE DU TREGOR 35830 BETTON", "giveBlood": 1, "givePlasma": 0, "givePlatelet": 0, "regionCode": "016", "groupCode": "F70019", "latitude": 48.183586, "longitude": -1.649547, "name": "BETTON VEILLE FERIE ANITA MAT", "postCode": "35830", "samplingLocationCode": "6", "horaires": null, "infos": null, "metro": null, "bus": null, "tram": null, "parking": null, "debutInfos": null, "finInfos": null, "ville": null, "id": null, "phone": null, "urlBlood": null, "urlPlasma": null, "urlPlatelets": null}
{"address1": null, "address2": "PLACE CHARLES DE GAULLE", "city": "BETTON", "convocationLabel": "GALERIE DE L'ILLET", "distance": 0.0, "fullAddress": "PLACE CHARLES DE GAULLE 35830 BETTON", "giveBlood": 1, "givePlasma": 0, "givePlatelet": 0, "regionCode": "016", "groupCode": "F70019", "latitude": 48.182191, "longitude": -1.640895, "name": "BETTON GALERIE SAM", "postCode": "35830", "samplingLocationCode": "7", "horaires": null, "infos": null, "metro": null, "bus": null, "tram": null, "parking": null, "debutInfos": null, "finInfos": null, "ville": null, "id": null, "phone": null, "urlBlood": null, "urlPlasma": null, "urlPlatelets": null}
{"address1": null, "address2": "10 RUE DU TREGOR", "city": "BETTON", "convocationLabel": "ESPACE ANITA CONTI", "distance": 0.0, "fullAddress": "10 RUE DU TREGOR 35830 BETTON", "giveBlood": 1, "givePlasma": 0, "givePlatelet": 0, "regionCode": "016", "groupCode": "F70019", "latitude": 48.183586, "longitude": -1.649547, "name": "2 BETTON-ANITA DAM ", "postCode": "35830", "samplingLocationCode": "8", "horaires": null, "infos": null, "metro": null, "bus": null, "tram": null, "parking": null, "debutInfos": null, "finInfos": null, "ville": null, "id": null, "phone": null, "urlBlood": null, "urlPlasma": null, "urlPlatelets": null}
{"address1": null, "address2": "10 RUE DU TREGOR", "city": "BETTON", "convocationLabel": "ESPACE ANITA CONTI", "distance": 0.0, "fullAddress": "10 RUE DU TREGOR 35830 BETTON", "giveBlood": 1, "givePlasma": 0, "givePlatelet": 0, "regionCode": "016", "groupCode": "F70019", "latitude": 48.18331909, "longitude": -1.64755523, "name": "2 BETTON-ANITA SA J+", "postCode": "35830", "samplingLocationCode": "9", "horaires": null, "infos": null, "metro": null, "bus": null, "tram": null, "parking": null, "debutInfos": null, "finInfos": null, "ville": null, "id": null, "phone": null, "urlBlood": null, "urlPlasma": null, "urlPlatelets": null}
