{"address1": null, "address2": "2 RUE DU CHANOINE DREANO", "city": "ALLAIRE", "convocationLabel": "COLLEGE SAINT HILAIRE", "distance": 0.0, "fullAddress": "2 RUE DU CHANOINE DREANO 56350 ALLAIRE", "giveBlood": 1, "givePlasma": 0, "givePlatelet": 0, "regionCode": "016", "groupCode": "F30101", "latitude": 47.635754, "longitude": -2.165894, "name": "ALLAIRE ST HILAIRE AM", "postCode": "56350", "samplingLocationCode": "1550", "horaires": null, "infos": null, "metro": null, "bus": null, "tram": null, "parking": null, "debutInfos": null, "finInfos": null, "ville": null, "id": null, "phone": null, "urlBlood": null, "urlPlasma": null, "urlPlatelets": null}
{"address1": null, "address2": "RUE SAINT HILAIRE", "city": "ALLAIRE", "convocationLabel": "MAISON DU TEMPS LIBRE SALLE SCOLAIRE", "distance": 0.0, "fullAddress": "RUE SAINT HILAIRE 56350 ALLAIRE", "giveBlood": 1, "givePlasma": 0, "givePlatelet": 0, "regionCode": "016", "groupCode": "F30101", "latitude": 47.6329689, "longitude": -2.16422987, "name": "ALLAIRE MAISON DU TEMPS LIBRE", "postCode": "56350", "samplingLocationCode": "2", "horaires": null, "infos": null, "metro": null, "bus": null, "tram": null, "parking": null, "debutInfos": null, "finInfos": null, "ville": null, "id": null, "phone": null, "urlBlood": null, "urlPlasma": null, "urlPlatelets": null}
{"address1": null, "address2": "RUE SAINT HILAIRE", "city": "ALLAIRE", "convocationLabel": "MAISON DU TEMPS LIBRE", "distance": 0.0, "fullAddress": "RUE SAINT HILAIRE 56350 ALLAIRE", "giveBlood": 1, "givePlasma": 0, "givePlatelet": 0, "regionCode": "016", "groupCode": "F30101", "latitude": 47.633627, "longitude": -2.164302, "name": "ALLAIRE S", "postCode": "56350", "samplingLocationCode": "3", "horaires": null, "infos": null, "metro": null, "bus": null, "tram": null, "parking": null, "debutInfos": null, "finInfos": null, "ville": null, "id": null, "phone": null, "urlBlood": null, "urlPlasma": null, "urlPlatelets": null}
{"address1": null, "address2": "2 RUE DU CHANOINE DREANO", "city": "ALLAIRE", "convocationLabel": "COLLEGE SAINT HILAIRE", "distance": 0.0, "fullAddress": "2 RUE DU CHANOINE DREANO 56350 ALLAIRE", "giveBlood": 1, "givePlasma": 0, "givePlatelet": 0, "regionCode": "016", "groupCode": "F30101", "latitude": 47.635754, "longitude": -2.165894, "name": "ALLAIRE ST HILAIRE  J", "postCode": "56350", "samplingLocationCode": "4", "horaires": null, "infos": null, "metro": null, "bus": null, "tram": null, "parking": null, "debutInfos": null, "finInfos": null, "ville": null, "id": null, "phone": null, "urlBlood": null, "urlPlasma": null, "urlPlatelets": null}
{"address1": null, "address2": "2 RUE DU CHANOINE DREANO", "city": "ALLAIRE", "convocationLabel": "COLLEGE SAINT HILAIRE", "distance": 0.0, "fullAddress": "2 RUE DU CHANOINE DREANO 56350 ALLAIRE", "giveBlood": 1, "givePlasma": 0, "givePlatelet": 0, "regionCode": "016", "groupCode": "F30101", "latitude": 47.635754, "longitude": -2.165894, "name": "ALLAIRE ST HILAIRE S", "postCode": "56350", "samplingLocationCode": "5", "horaires": null, "infos": null, "metro": null, "bus": null, "tram": null, "parking": null, "debutInfos": null, "finInfos": null, "ville": null, "id": null, "phone": null, "urlBlood": null, "urlPlasma": null, "urlPlatelets": null}
{"address1": null, "address2": "COUESLE", "city": "ALLAIRE", "convocationLabel": "FERME DE COUESLE", "distance": 0.0, "fullAddress": "COUESLE 56350 ALLAIRE", "giveBlood": 1, "givePlasma": 0, "givePlatelet": 0, "regionCode": "016", "groupCode": "F30101", "latitude": 47.638398, "longitude": -2.15771, "name": "ALLAIRE FERME DE COUESLE", "postCode": "56350", "samplingLocationCode": "6", "horaires": null, "infos": null, "metro": null, "bus": null, "tram": null, "parking": null, "debutInfos": null, "finInfos": null, "ville": null, "id": null, "phone": null, "urlBlood": null, "urlPlasma": null, "urlPlatelets": null}
