{"address1": null, "address2": "BOULEVARD PIERRE ET JULIEN GOURDEL", "city": "CHATEAUGIRON", "convocationLabel": "AU CHATEAU SALLE LEPRESTRE", "distance": 0.0, "fullAddress": "BOULEVARD PIERRE ET JULIEN GOURDEL 35410 CHATEAUGIRON", "giveBlood": 1, "givePlasma": 0, "givePlatelet": 0, "regionCode": "016", "groupCode": "F70051", "latitude": 48.04906, "longitude": -1.501247, "name": "2 CHATEAUGIRON-CHATEAU DAM", "postCode": "35410", "samplingLocationCode": "10", "horaires": null, "infos": null, "metro": null, "bus": null, "tram": null, "parking": null, "debutInfos": null, "finInfos": null, "ville": null, "id": null, "phone": null, "urlBlood": null, "urlPlasma": null, "urlPlatelets": null}
{"address1": null, "address2": "BOULEVARD PIERRE ET JULIEN GOURDEL", "city": "CHATEAUGIRON", "convocationLabel": "AU CHATEAU SALLE LEPRESTRE", "distance": 0.0, "fullAddress": "BOULEVARD PIERRE ET JULIEN GOURDEL 35410 CHATEAUGIRON", "giveBlood": 1, "givePlasma": 0, "givePlatelet": 0, "regionCode": "016", "groupCode": "F70051", "latitude": 48.04906, "longitude": -1.501247, "name": "2 CHATEAUGIRON-CHATEAU MAT", "postCode": "35410", "samplingLocationCode": "11", "horaires": null, "infos": null, "metro": null, "bus": null, "tram": null, "parking": null, "debutInfos": null, "finInfos": null, "ville": null, "id": null, "phone": null, "urlBlood": null, "urlPlasma": null, "urlPlatelets": null}
{"address1": null, "address2": "BOULEVARD PIERRE ET JULIEN GOURDEL", "city": "CHATEAUGIRON", "convocationLabel": "AU CHATEAU SALLE LEPRESTRE", "distance": 0.0, "fullAddress": "BOULEVARD PIERRE ET JULIEN GOURDEL 35410 CHATEAUGIRON", "giveBlood": 1, "givePlasma": 0, "givePlatelet": 0, "regionCode": "016", "groupCode": "F70051", "latitude": 48.04894257, "longitude": -1.50135541, "name": "2 CHATEAUGIRON-CHATEAU AM", "postCode": "35410", "samplingLocationCode": "12", "horaires": null, "infos": null, "metro": null, "bus": null, "tram": null, "parking": null, "debutInfos": null, "finInfos": null, "ville": null, "id": null, "phone": null, "urlBlood": null, "urlPlasma": null, "urlPlatelets": null}
{"address1": null, "address2": "PLACE DE LA GIRONDE", "city": "CHATEAUGIRON", "convocationLabel": "ECOLE PAUL FEVAL", "distance": 0.0, "fullAddress": "PLACE DE LA GIRONDE 35410 CHATEAUGIRON", "giveBlood": 1, "givePlasma": 0, "givePlatelet": 0, "regionCode": "016", "groupCode": "F70051", "latitude": 48.044635, "longitude": -1.500092, "name": "CHATEAUGIRON ECOLE SEMAINE", "postCode": "35410", "samplingLocationCode": "2", "horaires": null, "infos": null, "metro": null, "bus": null, "tram": null, "parking": null, "debutInfos": null, "finInfos": null, "ville": null, "id": null, "phone": null, "urlBlood": null, "urlPlasma": null, "urlPlatelets": null}
{"address1": null, "address2": "PLACE DE LA GIRONDE", "city": "CHATEAUGIRON", "convocationLabel": "ECOLE PAUL FEVAL", "distance": 0.0, "fullAddress": "PLACE DE LA GIRONDE 35410 CHATEAUGIRON", "giveBlood": 1, "givePlasma": 0, "givePlatelet": 0, "regionCode": "016", "groupCode": "F70051", "latitude": 48.04452133, "longitude": -1.49831355, "name": "CHATEAUGIRON ECOLE SA", "postCode": "35410", "samplingLocationCode": "3", "horaires": null, "infos": null, "metro": null, "bus": null, "tram": null, "parking": null, "debutInfos": null, "finInfos": null, "ville": null, "id": null, "phone": null, "urlBlood": null, "urlPlasma": null, "urlPlatelets": null}
{"address1": null, "address2": "PLACE DE LA GIRONDE", "city": "CHATEAUGIRON", "convocationLabel": "ECOLE PAUL FEVAL", "distance": 0.0, "fullAddress": "PLACE DE LA GIRONDE 35410 CHATEAUGIRON", "giveBlood": 1, "givePlasma": 0, "givePlatelet": 0, "regionCode": "016", "groupCode": "F70051", "latitude": 48.044635, "longitude": -1.500092, "name": "CHATEAUGIRON V. FERI ECOLE MAT", "postCode": "35410", "samplingLocationCode": "4", "horaires": null, "infos": null, "metro": null, "bus": null, "tram": null, "parking": null, "debutInfos": null, "finInfos": null, "ville": null, "id": null, "phone": null, "urlBlood": null, "urlPlasma": null, "urlPlatelets": null}
{"address1": null, "address2": "RUE DE L'ORANGERIE", "city": "CHATEAUGIRON", "convocationLabel": "L'ORANGERIE SALLE ST PIERRE", "distance": 0.0, "fullAddress": "RUE DE L'ORANGERIE 35410 CHATEAUGIRON", "giveBlood": 1, "givePlasma": 0, "givePlatelet": 0, "regionCode": "016", "groupCode": "F70051", "latitude": 48.049098, "longitude": -1.499477, "name": "CHATEAUGIRON ORANGERIE SA", "postCode": "35410", "samplingLocationCode": "5", "horaires": null, "infos": null, "metro": null, "bus": null, "tram": null, "parking": null, "debutInfos": null, "finInfos": null, "ville": null, "id": null, "phone": null, "urlBlood": null, "urlPlasma": null, "urlPlatelets": null}
{"address1": null, "address2": "RUE DE L'ORANGERIE", "city": "CHATEAUGIRON", "convocationLabel": "L'ORANGERIE SALLE ST PIERRE", "distance": 0.0, "fullAddress": "RUE DE L'ORANGERIE 35410 CHATEAUGIRON", "giveBlood": 1, "givePlasma": 0, "givePlatelet": 0, "regionCode": "016", "groupCode": "F70051", "latitude": 48.049098, "longitude": -1.499477, "name": "CHATEAUGIRON ORANGERIE VE AM", "postCode": "35410", "samplingLocationCode": "6", "horaires": null, "infos": null, "metro": null, "bus": null, "tram": null, "parking": null, "debutInfos": null, "finInfos": null, "ville": null, "id": null, "phone": null, "urlBlood": null, "urlPlasma": null, "urlPlatelets": null}
{"address1": null, "address2": "PLACE DE LA GIRONDE", "city": "CHATEAUGIRON", "convocationLabel": "ECOLE PAUL FEVAL", "distance": 0.0, "fullAddress": "PLACE DE LA GIRONDE 35410 CHATEAUGIRON", "giveBlood": 1, "givePlasma": 0, "givePlatelet": 0, "regionCode": "016", "groupCode": "F70051", "latitude": 48.044635, "longitude": -1.500092, "name": "CHATEAUGIRON SA matin", "postCode": "35410", "samplingLocationCode": "64", "horaires": null, "infos": null, "metro": null, "bus": null, "tram": null, "parking": null, "debutInfos": null, "finInfos": null, "ville": null, "id": null, "phone": null, "urlBlood": null, "urlPlasma": null, "urlPlatelets": null}
{"address1": null, "address2": "BOULEVARD PIERRE ET JULIEN GOURDEL", "city": "CHATEAUGIRON", "convocationLabel": "AU CHATEAU SALLE LEPRETRE", "distance": 0.0, "fullAddress": "BOULEVARD PIERRE ET JULIEN GOURDEL 35410 CHATEAUGIRON", "giveBlood": 1, "givePlasma": 0, "givePlatelet": 0, "regionCode": "016", "groupCode": "F70051", "latitude": 48.04906, "longitude": -1.501247, "name": "CHATEAUGIRON CHATEAU SEM", "postCode": "35410", "samplingLocationCode": "7", "horaires": null, "infos": null, "metro": null, "bus": null, "tram": null, "parking": null, "debutInfos": null, "finInfos": null, "ville": null, "id": null, "phone": null, "urlBlood": null, "urlPlasma": null, "urlPlatelets": null}
{"address1": null, "address2": "BOULEVARD PIERRE ET JULIEN GOURDEL", "city": "CHATEAUGIRON", "convocationLabel": "AU CHATEAU SALLE LEPRETRE", "distance": 0.0, "fullAddress": "BOULEVARD PIERRE ET JULIEN GOURDEL 35410 CHATEAUGIRON", "giveBlood": 1, "givePlasma": 0, "givePlatelet": 0, "regionCode": "016", "groupCode": "F70051", "latitude": 48.04906, "longitude": -1.501247, "name": "CHATEAUGIRON CHATEAU SA", "postCode": "35410", "samplingLocationCode": "8", "horaires": null, "infos": null, "metro": null, "bus": null, "tram": null, "parking": null, "debutInfos": null, "finInfos": null, "ville": null, "id": null, "phone": null, "urlBlood": null, "urlPlasma": null, "urlPlatelets": null}
{"address1": null, "address2": "BOULEVARD PIERRE ET JULIEN GOURDEL", "city": "CHATEAUGIRON", "convocationLabel": "AU CHATEAU SALLE LEPRESTRE", "distance": 0.0, "fullAddress": "BOULEVARD PIERRE ET JULIEN GOURDEL 35410 CHATEAUGIRON", "giveBlood": 1, "givePlasma": 0, "givePlatelet": 0, "regionCode": "016", "groupCode": "F70051", "latitude": 48.04894257, "longitude": -1.50135541, "name": "2 CHATEAUGIRON-CHATEAU MAT J+", "postCode": "35410", "samplingLocationCode": "9", "horaires": null, "infos": null, "metro": null, "bus": null, "tram": null, "parking": null, "debutInfos": null, "finInfos": null, "ville": null, "id": null, "phone": null, "urlBlood": null, "urlPlasma": null, "urlPlatelets": null}
