{"address1": null, "address2": "2 RUE DE LA MAIRIE", "city": "ERDEVEN", "convocationLabel": "MEDIATHEQUE-ESPACE DU TILLEUL", "distance": 0.0, "fullAddress": "2 RUE DE LA MAIRIE 56410 ERDEVEN", "giveBlood": 1, "givePlasma": 0, "givePlatelet": 0, "regionCode": "016", "groupCode": "F30178", "latitude": 47.642278, "longitude": -3.15657, "name": "ERDEVEN  ESPACE DU TILLEUL", "postCode": "56410", "samplingLocationCode": "1539", "horaires": null, "infos": null, "metro": null, "bus": null, "tram": null, "parking": null, "debutInfos": null, "finInfos": null, "ville": null, "id": null, "phone": null, "urlBlood": null, "urlPlasma": null, "urlPlatelets": null}
{"address1": null, "address2": "RUE DU GRAND LARGE", "city": "ERDEVEN", "convocationLabel": "SALLE POLYVALENTE", "distance": 0.0, "fullAddress": "RUE DU GRAND LARGE 56410 ERDEVEN", "giveBlood": 1, "givePlasma": 0, "givePlatelet": 0, "regionCode": "016", "groupCode": "F30178", "latitude": 47.63841629, "longitude": -3.16297889, "name": "ERDEVEN SALLE POLYVALENTE PM", "postCode": "56410", "samplingLocationCode": "2", "horaires": null, "infos": null, "metro": null, "bus": null, "tram": null, "parking": null, "debutInfos": null, "finInfos": null, "ville": null, "id": null, "phone": null, "urlBlood": null, "urlPlasma": null, "urlPlatelets": null}
{"address1": null, "address2": "RUE DU GRAND LARGE", "city": "ERDEVEN", "convocationLabel": "SALLE POLYVALENTE", "distance": 0.0, "fullAddress": "RUE DU GRAND LARGE 56410 ERDEVEN", "giveBlood": 1, "givePlasma": 0, "givePlatelet": 0, "regionCode": "016", "groupCode": "F30178", "latitude": 47.639692, "longitude": -3.160197, "name": "ERDEVEN S (LORIENT)", "postCode": "56410", "samplingLocationCode": "3", "horaires": null, "infos": null, "metro": null, "bus": null, "tram": null, "parking": null, "debutInfos": null, "finInfos": null, "ville": null, "id": null, "phone": null, "urlBlood": null, "urlPlasma": null, "urlPlatelets": null}
{"address1": null, "address2": "RUE DU GRAND LARGE", "city": "ERDEVEN", "convocationLabel": "SALLE POLYVALENTE", "distance": 0.0, "fullAddress": "RUE DU GRAND LARGE 56410 ERDEVEN", "giveBlood": 1, "givePlasma": 0, "givePlatelet": 0, "regionCode": "016", "groupCode": "F30178", "latitude": 47.639692, "longitude": -3.160197, "name": "ERDEVEN-SALLE POLYVALENTE AM", "postCode": "56410", "samplingLocationCode": "4", "horaires": null, "infos": null, "metro": null, "bus": null, "tram": null, "parking": null, "debutInfos": null, "finInfos": null, "ville": null, "id": null, "phone": null, "urlBlood": null, "urlPlasma": null, "urlPlatelets": null}
{"address1": null, "address2": "RUE ABBE LE BARTH", "city": "ERDEVEN", "convocationLabel": "ESPACE CULTUREL ROELAN", "distance": 0.0, "fullAddress": "RUE ABBE LE BARTH 56410 ERDEVEN", "giveBlood": 1, "givePlasma": 0, "givePlatelet": 0, "regionCode": "016", "groupCode": "F30178", "latitude": 47.641026, "longitude": -3.157666, "name": "ERDEVEN ESPACE CULTUREL ROELAN", "postCode": "56410", "samplingLocationCode": "5", "horaires": null, "infos": null, "metro": null, "bus": null, "tram": null, "parking": null, "debutInfos": null, "finInfos": null, "ville": null, "id": null, "phone": null, "urlBlood": null, "urlPlasma": null, "urlPlatelets": null}
{"address1": null, "address2": "RUE ABBE LE BARTH", "city": "ERDEVEN", "convocationLabel": "ESPACE CULTUREL LE ROELAN", "distance": 0.0, "fullAddress": "RUE ABBE LE BARTH 56410 ERDEVEN", "giveBlood": 1, "givePlasma": 0, "givePlatelet": 0, "regionCode": "016", "groupCode": "F30178", "latitude": 47.63196945, "longitude": -3.1482501, "name": "ERDEVEN ESPACE LE ROELAN PM", "postCode": "56410", "samplingLocationCode": "6", "horaires": null, "infos": null, "metro": null, "bus": null, "tram": null, "parking": null, "debutInfos": null, "finInfos": null, "ville": null, "id": null, "phone": null, "urlBlood": null, "urlPlasma": null, "urlPlatelets": null}
