{"address1": null, "address2": "Square de l'Hotel de ville", "city": "ERQUY", "convocationLabel": "SALLE DES FETES", "distance": 0.0, "fullAddress": "Square de l'Hotel de ville 22430 ERQUY", "giveBlood": 1, "givePlasma": 0, "givePlatelet": 0, "regionCode": "016", "groupCode": "F10111", "latitude": 48.628762, "longitude": -2.465717, "name": "ERQUY sdf AM", "postCode": "22430", "samplingLocationCode": "1258", "horaires": null, "infos": null, "metro": null, "bus": null, "tram": null, "parking": null, "debutInfos": null, "finInfos": null, "ville": null, "id": null, "phone": null, "urlBlood": null, "urlPlasma": null, "urlPlatelets": null}
{"address1": null, "address2": "Square de l' H\u00f4tel de Ville", "city": "ERQUY", "convocationLabel": "SALLE DES FETES", "distance": 0.0, "fullAddress": "Square de l' H\u00f4tel de Ville 22430 ERQUY", "giveBlood": 1, "givePlasma": 0, "givePlatelet": 0, "regionCode": "016", "groupCode": "F10111", "latitude": 48.62870407, "longitude": -2.46540856, "name": "ERQUY sdf VEN", "postCode": "22430", "samplingLocationCode": "2", "horaires": null, "infos": null, "metro": null, "bus": null, "tram": null, "parking": null, "debutInfos": null, "finInfos": null, "ville": null, "id": null, "phone": null, "urlBlood": null, "urlPlasma": null, "urlPlatelets": null}
{"address1": null, "address2": "Square de l' Hotel de ville", "city": "ERQUY", "convocationLabel": "SALLE DES FETES", "distance": 0.0, "fullAddress": "Square de l' Hotel de ville 22430 ERQUY", "giveBlood": 1, "givePlasma": 0, "givePlatelet": 0, "regionCode": "016", "groupCode": "F10111", "latitude": 48.62851715, "longitude": -2.46534991, "name": "ERQUY sdf MAT", "postCode": "22430", "samplingLocationCode": "3", "horaires": null, "infos": null, "metro": null, "bus": null, "tram": null, "parking": null, "debutInfos": null, "finInfos": null, "ville": null, "id": null, "phone": null, "urlBlood": null, "urlPlasma": null, "urlPlatelets": null}
{"address1": null, "address2": "Square de l'Hotel de ville", "city": "ERQUY", "convocationLabel": "SALLE DES FETES", "distance": 0.0, "fullAddress": "Square de l'Hotel de ville 22430 ERQUY", "giveBlood": 1, "givePlasma": 0, "givePlatelet": 0, "regionCode": "016", "groupCode": "F10111", "latitude": 48.628762, "longitude": -2.465717, "name": "ERQUY ETE RENNES matin", "postCode": "22430", "samplingLocationCode": "4", "horaires": null, "infos": null, "metro": null, "bus": null, "tram": null, "parking": null, "debutInfos": null, "finInfos": null, "ville": null, "id": null, "phone": null, "urlBlood": null, "urlPlasma": null, "urlPlatelets": null}
{"address1": null, "address2": "SQUARE DE L HOTEL DE VILLE", "city": "ERQUY", "convocationLabel": "SALLE DES FETES", "distance": 0.0, "fullAddress": "SQUARE DE L HOTEL DE VILLE 22430 ERQUY", "giveBlood": 1, "givePlasma": 0, "givePlatelet": 0, "regionCode": "016", "groupCode": "F10111", "latitude": 48.628762, "longitude": -2.465717, "name": "ERQUY ETE RENNES AMIDI", "postCode": "22430", "samplingLocationCode": "5", "horaires": null, "infos": null, "metro": null, "bus": null, "tram": null, "parking": null, "debutInfos": null, "finInfos": null, "ville": null, "id": null, "phone": null, "urlBlood": null, "urlPlasma": null, "urlPlatelets": null}
