{"address1": null, "address2": "BD DU STADE", "city": "ST AUBIN D'AUBIGNE", "convocationLabel": "SALLE POLYVALENTE", "distance": 0.0, "fullAddress": "BD DU STADE 35250 ST AUBIN D'AUBIGNE", "giveBlood": 1, "givePlasma": 0, "givePlatelet": 0, "regionCode": "016", "groupCode": "F70208", "latitude": 48.259577, "longitude": -1.601555, "name": "ST AUBIN D'AUBIGNE VEILLE FERI", "postCode": "35250", "samplingLocationCode": "2", "horaires": null, "infos": null, "metro": null, "bus": null, "tram": null, "parking": null, "debutInfos": null, "finInfos": null, "ville": null, "id": null, "phone": null, "urlBlood": null, "urlPlasma": null, "urlPlatelets": null}
{"address1": null, "address2": "BD DU STADE", "city": "ST AUBIN D'AUBIGNE", "convocationLabel": "SALLE POLYVALENTE", "distance": 0.0, "fullAddress": "BD DU STADE 35250 ST AUBIN D'AUBIGNE", "giveBlood": 1, "givePlasma": 0, "givePlatelet": 0, "regionCode": "016", "groupCode": "F70208", "latitude": 48.25935364, "longitude": -1.6012975, "name": "ST AUBIN D'AUBIGNE SEMAINE", "postCode": "35250", "samplingLocationCode": "220", "horaires": null, "infos": null, "metro": null, "bus": null, "tram": null, "parking": null, "debutInfos": null, "finInfos": null, "ville": null, "id": null, "phone": null, "urlBlood": null, "urlPlasma": null, "urlPlatelets": null}
{"address1": null, "address2": "BD DU STADE", "city": "ST AUBIN D'AUBIGNE", "convocationLabel": "SALLE POLYVALENTE", "distance": 0.0, "fullAddress": "BD DU STADE 35250 ST AUBIN D'AUBIGNE", "giveBlood": 1, "givePlasma": 0, "givePlatelet": 0, "regionCode": "016", "groupCode": "F70208", "latitude": 48.25935364, "longitude": -1.6012975, "name": "2 ST AUBIN D'AUBIGNE-POLYVA AM", "postCode": "35250", "samplingLocationCode": "3", "horaires": null, "infos": null, "metro": null, "bus": null, "tram": null, "parking": null, "debutInfos": null, "finInfos": null, "ville": null, "id": null, "phone": null, "urlBlood": null, "urlPlasma": null, "urlPlatelets": null}
{"address1": null, "address2": "BD DU STADE", "city": "ST AUBIN D'AUBIGNE", "convocationLabel": "SALLE POLYVALENTE", "distance": 0.0, "fullAddress": "BD DU STADE 35250 ST AUBIN D'AUBIGNE", "giveBlood": 1, "givePlasma": 0, "givePlatelet": 0, "regionCode": "016", "groupCode": "F70208", "latitude": 48.259577, "longitude": -1.601555, "name": "2 ST AUBIN D'AUBIGNE-POLYV DAM", "postCode": "35250", "samplingLocationCode": "4", "horaires": null, "infos": null, "metro": null, "bus": null, "tram": null, "parking": null, "debutInfos": null, "finInfos": null, "ville": null, "id": null, "phone": null, "urlBlood": null, "urlPlasma": null, "urlPlatelets": null}
{"address1": null, "address2": "BD DU STADE", "city": "ST AUBIN D'AUBIGNE", "convocationLabel": "SALLE POLYVALENTE", "distance": 0.0, "fullAddress": "BD DU STADE 35250 ST AUBIN D'AUBIGNE", "giveBlood": 1, "givePlasma": 0, "givePlatelet": 0, "regionCode": "016", "groupCode": "F70208", "latitude": 48.25935364, "longitude": -1.6012975, "name": "2 ST AUBIN AUBIGNE-POLYV VE AM", "postCode": "35250", "samplingLocationCode": "5", "horaires": null, "infos": null, "metro": null, "bus": null, "tram": null, "parking": null, "debutInfos": null, "finInfos": null, "ville": null, "id": null, "phone": null, "urlBlood": null, "urlPlasma": null, "urlPlatelets": null}
