{"address1": null, "address2": "PLACE JACQUES BON SERGENT", "city": "MALESTROIT", "convocationLabel": "SALLE DES FETES", "distance": 0.0, "fullAddress": "PLACE JACQUES BON SERGENT 56140 MALESTROIT", "giveBlood": 1, "givePlasma": 0, "givePlatelet": 0, "regionCode": "016", "groupCode": "F30319", "latitude": 47.81027603, "longitude": -2.3783381, "name": "MALESTROIT 14 H 45 - 18 H 45", "postCode": "56140", "samplingLocationCode": "10", "horaires": null, "infos": null, "metro": null, "bus": null, "tram": null, "parking": null, "debutInfos": null, "finInfos": null, "ville": null, "id": null, "phone": null, "urlBlood": null, "urlPlasma": null, "urlPlatelets": null}
{"address1": null, "address2": "PLACE JACQUES BON SERGENT", "city": "MALESTROIT", "convocationLabel": "SALLE DES FETES", "distance": 0.0, "fullAddress": "PLACE JACQUES BON SERGENT 56140 MALESTROIT", "giveBlood": 1, "givePlasma": 0, "givePlatelet": 0, "regionCode": "016", "groupCode": "F30319", "latitude": 47.810237, "longitude": -2.3782, "name": "MALESTROIT 14 h 18 h", "postCode": "56140", "samplingLocationCode": "11", "horaires": null, "infos": null, "metro": null, "bus": null, "tram": null, "parking": null, "debutInfos": null, "finInfos": null, "ville": null, "id": null, "phone": null, "urlBlood": null, "urlPlasma": null, "urlPlatelets": null}
{"address1": null, "address2": "PLACE JACQUES BON SERGENT", "city": "MALESTROIT", "convocationLabel": "SALLE DES FETES", "distance": 0.0, "fullAddress": "PLACE JACQUES BON SERGENT 56140 MALESTROIT", "giveBlood": 1, "givePlasma": 0, "givePlatelet": 0, "regionCode": "016", "groupCode": "F30319", "latitude": 47.810237, "longitude": -2.3782, "name": "MALESTROIT SALLE DES FETES AM", "postCode": "56140", "samplingLocationCode": "1523", "horaires": null, "infos": null, "metro": null, "bus": null, "tram": null, "parking": null, "debutInfos": null, "finInfos": null, "ville": null, "id": null, "phone": null, "urlBlood": null, "urlPlasma": null, "urlPlatelets": null}
{"address1": null, "address2": "PLACE JACQUES BON SERGENT", "city": "MALESTROIT", "convocationLabel": "SALLE DES FETES", "distance": 0.0, "fullAddress": "PLACE JACQUES BON SERGENT 56140 MALESTROIT", "giveBlood": 1, "givePlasma": 0, "givePlatelet": 0, "regionCode": "016", "groupCode": "F30319", "latitude": 47.8102708, "longitude": -2.3785716, "name": "MALESTROIT SALLE DES FETES  ", "postCode": "56140", "samplingLocationCode": "2", "horaires": null, "infos": null, "metro": null, "bus": null, "tram": null, "parking": null, "debutInfos": null, "finInfos": null, "ville": null, "id": null, "phone": null, "urlBlood": null, "urlPlasma": null, "urlPlatelets": null}
{"address1": null, "address2": "ESPACE MAURICE MELOIS", "city": "MALESTROIT", "convocationLabel": "LES SOURCES", "distance": 0.0, "fullAddress": "ESPACE MAURICE MELOIS 56140 MALESTROIT", "giveBlood": 1, "givePlasma": 0, "givePlatelet": 0, "regionCode": "016", "groupCode": "F30319", "latitude": 47.80821, "longitude": -2.387875, "name": "MALESTROIT LES SOURCES PM", "postCode": "56140", "samplingLocationCode": "3", "horaires": null, "infos": null, "metro": null, "bus": null, "tram": null, "parking": null, "debutInfos": null, "finInfos": null, "ville": null, "id": null, "phone": null, "urlBlood": null, "urlPlasma": null, "urlPlatelets": null}
{"address1": null, "address2": "ESPACE MAURICE MELOIS", "city": "MALESTROIT", "convocationLabel": "LES SOURCES", "distance": 0.0, "fullAddress": "ESPACE MAURICE MELOIS 56140 MALESTROIT", "giveBlood": 1, "givePlasma": 0, "givePlatelet": 0, "regionCode": "016", "groupCode": "F30319", "latitude": 47.80821, "longitude": -2.387875, "name": "MALESTROIT LES SOURCES AM", "postCode": "56140", "samplingLocationCode": "4", "horaires": null, "infos": null, "metro": null, "bus": null, "tram": null, "parking": null, "debutInfos": null, "finInfos": null, "ville": null, "id": null, "phone": null, "urlBlood": null, "urlPlasma": null, "urlPlatelets": null}
{"address1": null, "address2": "ESPACE MAURICE MELOIS", "city": "MALESTROIT", "convocationLabel": "LES SOURCES", "distance": 0.0, "fullAddress": "ESPACE MAURICE MELOIS 56140 MALESTROIT", "giveBlood": 1, "givePlasma": 0, "givePlatelet": 0, "regionCode": "016", "groupCode": "F30319", "latitude": 47.80821, "longitude": -2.387875, "name": "MALESTROIT LES SOURCES J", "postCode": "56140", "samplingLocationCode": "5", "horaires": null, "infos": null, "metro": null, "bus": null, "tram": null, "parking": null, "debutInfos": null, "finInfos": null, "ville": null, "id": null, "phone": null, "urlBlood": null, "urlPlasma": null, "urlPlatelets": null}
{"address1": null, "address2": "ESPACE MAURICE MELOIS", "city": "MALESTROIT", "convocationLabel": "SALLE DES FETES", "distance": 0.0, "fullAddress": "ESPACE MAURICE MELOIS 56140 MALESTROIT", "giveBlood": 1, "givePlasma": 0, "givePlatelet": 0, "regionCode": "016", "groupCode": "F30319", "latitude": 47.80731964, "longitude": -2.37565708, "name": "MALESTROIT SALLE DES FETES  S", "postCode": "56140", "samplingLocationCode": "6", "horaires": null, "infos": null, "metro": null, "bus": null, "tram": null, "parking": null, "debutInfos": null, "finInfos": null, "ville": null, "id": null, "phone": null, "urlBlood": null, "urlPlasma": null, "urlPlatelets": null}
{"address1": null, "address2": "ESPACE MAURICE MELOIS", "city": "MALESTROIT", "convocationLabel": "SALLE DES FETES", "distance": 0.0, "fullAddress": "ESPACE MAURICE MELOIS 56140 MALESTROIT", "giveBlood": 1, "givePlasma": 0, "givePlatelet": 0, "regionCode": "016", "groupCode": "F30319", "latitude": 47.807724, "longitude": -2.37561417, "name": "MALESTROIT PM", "postCode": "56140", "samplingLocationCode": "7", "horaires": null, "infos": null, "metro": null, "bus": null, "tram": null, "parking": null, "debutInfos": null, "finInfos": null, "ville": null, "id": null, "phone": null, "urlBlood": null, "urlPlasma": null, "urlPlatelets": null}
{"address1": null, "address2": "ESPACE MAURICE MELOIS", "city": "MALESTROIT", "convocationLabel": "SALLE DES FETES", "distance": 0.0, "fullAddress": "ESPACE MAURICE MELOIS 56140 MALESTROIT", "giveBlood": 1, "givePlasma": 0, "givePlatelet": 0, "regionCode": "016", "groupCode": "F30319", "latitude": 47.80743408, "longitude": -2.37552834, "name": "MALESTROIT 10:30/12:30", "postCode": "56140", "samplingLocationCode": "8", "horaires": null, "infos": null, "metro": null, "bus": null, "tram": null, "parking": null, "debutInfos": null, "finInfos": null, "ville": null, "id": null, "phone": null, "urlBlood": null, "urlPlasma": null, "urlPlatelets": null}
{"address1": null, "address2": "USINE DE FOVENO", "city": "MALESTROIT", "convocationLabel": "REFECTOIRE", "distance": 0.0, "fullAddress": "USINE DE FOVENO 56140 MALESTROIT", "giveBlood": 1, "givePlasma": 0, "givePlatelet": 0, "regionCode": "016", "groupCode": "F30319", "latitude": 47.80821, "longitude": -2.387875, "name": "MALESTROIT USINE ENTREMONT", "postCode": "56140", "samplingLocationCode": "9", "horaires": null, "infos": null, "metro": null, "bus": null, "tram": null, "parking": null, "debutInfos": null, "finInfos": null, "ville": null, "id": null, "phone": null, "urlBlood": null, "urlPlasma": null, "urlPlatelets": null}
