{"address1": null, "address2": "ROUTE DE JOSSELIN", "city": "PLUMELEC", "convocationLabel": "SALLE POLYVALENTE", "distance": 0.0, "fullAddress": "ROUTE DE JOSSELIN 56420 PLUMELEC", "giveBlood": 1, "givePlasma": 0, "givePlatelet": 0, "regionCode": "016", "groupCode": "F30357", "latitude": 47.81221, "longitude": -2.626518, "name": "PLUMELEC- 15 h - 19 h", "postCode": "56420", "samplingLocationCode": "1470", "horaires": null, "infos": null, "metro": null, "bus": null, "tram": null, "parking": null, "debutInfos": null, "finInfos": null, "ville": null, "id": null, "phone": null, "urlBlood": null, "urlPlasma": null, "urlPlatelets": null}
{"address1": null, "address2": "ROUTE DE JOSSELIN", "city": "PLUMELEC", "convocationLabel": "SALLE POLYVALENTE", "distance": 0.0, "fullAddress": "ROUTE DE JOSSELIN 56420 PLUMELEC", "giveBlood": 1, "givePlasma": 0, "givePlatelet": 0, "regionCode": "016", "groupCode": "F30357", "latitude": 47.81221, "longitude": -2.626518, "name": "PLUMELEC 08 h 30 - 12 h 30", "postCode": "56420", "samplingLocationCode": "2", "horaires": null, "infos": null, "metro": null, "bus": null, "tram": null, "parking": null, "debutInfos": null, "finInfos": null, "ville": null, "id": null, "phone": null, "urlBlood": null, "urlPlasma": null, "urlPlatelets": null}
{"address1": null, "address2": "RUE DU VERTIN", "city": "SAINT JEAN BREVELAY", "convocationLabel": "SALLE DES FETES DU VERTIN", "distance": 0.0, "fullAddress": "RUE DU VERTIN 56660 SAINT JEAN BREVELAY", "giveBlood": 1, "givePlasma": 0, "givePlatelet": 0, "regionCode": "016", "groupCode": "F30357", "latitude": 47.847008, "longitude": -2.719727, "name": "SALLE DES FETES DU VERTIN S", "postCode": "56660", "samplingLocationCode": "3", "horaires": null, "infos": null, "metro": null, "bus": null, "tram": null, "parking": null, "debutInfos": null, "finInfos": null, "ville": null, "id": null, "phone": null, "urlBlood": null, "urlPlasma": null, "urlPlatelets": null}
{"address1": null, "address2": "4 RUE DU STADE", "city": "GUEHENNO", "convocationLabel": "MAISON DES ASSOCIATIONS", "distance": 0.0, "fullAddress": "4 RUE DU STADE 56420 GUEHENNO", "giveBlood": 1, "givePlasma": 0, "givePlatelet": 0, "regionCode": "016", "groupCode": "F30357", "latitude": 47.892351, "longitude": -2.641923, "name": "MAISON DES ASSO GUEHENNO", "postCode": "56420", "samplingLocationCode": "4", "horaires": null, "infos": null, "metro": null, "bus": null, "tram": null, "parking": null, "debutInfos": null, "finInfos": null, "ville": null, "id": null, "phone": null, "urlBlood": null, "urlPlasma": null, "urlPlatelets": null}
{"address1": null, "address2": "ROUTE DE JOSSELIN", "city": "PLUMELEC", "convocationLabel": "SALLE POLYVALENTE", "distance": 0.0, "fullAddress": "ROUTE DE JOSSELIN 56420 PLUMELEC", "giveBlood": 1, "givePlasma": 0, "givePlatelet": 0, "regionCode": "016", "groupCode": "F30357", "latitude": 47.81221, "longitude": -2.626518, "name": "PLUMELEC 12 h - 16 h", "postCode": "56420", "samplingLocationCode": "5", "horaires": null, "infos": null, "metro": null, "bus": null, "tram": null, "parking": null, "debutInfos": null, "finInfos": null, "ville": null, "id": null, "phone": null, "urlBlood": null, "urlPlasma": null, "urlPlatelets": null}
{"address1": null, "address2": "ROUTE DE JOSSELIN", "city": "PLUMELEC", "convocationLabel": "SALLE POLYVALENTE", "distance": 0.0, "fullAddress": "ROUTE DE JOSSELIN 56420 PLUMELEC", "giveBlood": 1, "givePlasma": 0, "givePlatelet": 0, "regionCode": "016", "groupCode": "F30357", "latitude": 47.84343338, "longitude": -2.63964701, "name": "PLUMELEC 14h45 - 18h45", "postCode": "56420", "samplingLocationCode": "6", "horaires": null, "infos": null, "metro": null, "bus": null, "tram": null, "parking": null, "debutInfos": null, "finInfos": null, "ville": null, "id": null, "phone": null, "urlBlood": null, "urlPlasma": null, "urlPlatelets": null}
{"address1": null, "address2": "RUE DU PRATELLO", "city": "SAINT JEAN BREVELAY", "convocationLabel": "SALLE DES FETES DU VERTIN", "distance": 0.0, "fullAddress": "RUE DU PRATELLO 56660 SAINT JEAN BREVELAY", "giveBlood": 1, "givePlasma": 0, "givePlatelet": 0, "regionCode": "016", "groupCode": "F30357", "latitude": 47.849508, "longitude": -2.724907, "name": "ST JEAN  B SALLE DU VERTIN", "postCode": "56660", "samplingLocationCode": "7", "horaires": null, "infos": null, "metro": null, "bus": null, "tram": null, "parking": null, "debutInfos": null, "finInfos": null, "ville": null, "id": null, "phone": null, "urlBlood": null, "urlPlasma": null, "urlPlatelets": null}
