{"address1": null, "address2": "Rue Gal Leclerc", "city": "PLENEUF VAL ANDRE", "convocationLabel": "SALLE DU GUEMADEUC", "distance": 0.0, "fullAddress": "Rue Gal Leclerc 22370 PLENEUF VAL ANDRE", "giveBlood": 1, "givePlasma": 0, "givePlatelet": 0, "regionCode": "016", "groupCode": "F10136", "latitude": 48.58567429, "longitude": -2.54086995, "name": "PLENEUF Gu\u00e9madeuc AM1", "postCode": "22370", "samplingLocationCode": "1283", "horaires": null, "infos": null, "metro": null, "bus": null, "tram": null, "parking": null, "debutInfos": null, "finInfos": null, "ville": null, "id": null, "phone": null, "urlBlood": null, "urlPlasma": null, "urlPlatelets": null}
{"address1": null, "address2": "Rue Gal Leclerc", "city": "PLENEUF VAL ANDRE", "convocationLabel": "SALLE DU GUEMADEUC", "distance": 0.0, "fullAddress": "Rue Gal Leclerc 22370 PLENEUF VAL ANDRE", "giveBlood": 1, "givePlasma": 0, "givePlatelet": 0, "regionCode": "016", "groupCode": "F10136", "latitude": 48.58280563, "longitude": -2.555547, "name": "PLENEUF Gu\u00e9madeuc VEN", "postCode": "22370", "samplingLocationCode": "2", "horaires": null, "infos": null, "metro": null, "bus": null, "tram": null, "parking": null, "debutInfos": null, "finInfos": null, "ville": null, "id": null, "phone": null, "urlBlood": null, "urlPlasma": null, "urlPlatelets": null}
{"address1": null, "address2": "rue des Pains Pr\u00e9", "city": "PLENEUF VAL ANDRE", "convocationLabel": "CIS CENTRE D'INCENDIE & SECOURS", "distance": 0.0, "fullAddress": "rue des Pains Pr\u00e9 22370 PLENEUF VAL ANDRE", "giveBlood": 1, "givePlasma": 0, "givePlatelet": 0, "regionCode": "016", "groupCode": "F10136", "latitude": 48.57835434123257, "longitude": -2.5517597792349993, "name": "PLENEUF CIS ven", "postCode": "22370", "samplingLocationCode": "3", "horaires": null, "infos": null, "metro": null, "bus": null, "tram": null, "parking": null, "debutInfos": null, "finInfos": null, "ville": null, "id": null, "phone": null, "urlBlood": null, "urlPlasma": null, "urlPlatelets": null}
{"address1": null, "address2": "Rue des Drs Roux et Calmette", "city": "PLENEUF VAL ANDRE", "convocationLabel": "SALLE TERTRE DU BOURG", "distance": 0.0, "fullAddress": "Rue des Drs Roux et Calmette 22370 PLENEUF VAL ANDRE", "giveBlood": 1, "givePlasma": 0, "givePlatelet": 0, "regionCode": "016", "groupCode": "F10136", "latitude": 48.58260727, "longitude": -2.55614781, "name": "PLENEUF Tertre Bourg VEN", "postCode": "22370", "samplingLocationCode": "4", "horaires": null, "infos": null, "metro": null, "bus": null, "tram": null, "parking": null, "debutInfos": null, "finInfos": null, "ville": null, "id": null, "phone": null, "urlBlood": null, "urlPlasma": null, "urlPlatelets": null}
{"address1": null, "address2": "Rue Gal Leclerc", "city": "PLENEUF VAL ANDRE", "convocationLabel": "SALLE DU GUEMADEUC", "distance": 0.0, "fullAddress": "Rue Gal Leclerc 22370 PLENEUF VAL ANDRE", "giveBlood": 1, "givePlasma": 0, "givePlatelet": 0, "regionCode": "016", "groupCode": "F10136", "latitude": 48.583837, "longitude": -2.556344, "name": "PLENEUF Veille F\u00e9ri\u00e9", "postCode": "22370", "samplingLocationCode": "5", "horaires": null, "infos": null, "metro": null, "bus": null, "tram": null, "parking": null, "debutInfos": null, "finInfos": null, "ville": null, "id": null, "phone": null, "urlBlood": null, "urlPlasma": null, "urlPlatelets": null}
{"address1": null, "address2": "La Digue  des promenades", "city": "PLENEUF VAL ANDRE", "convocationLabel": "Salle des r\u00e9gates", "distance": 0.0, "fullAddress": "La Digue  des promenades 22370 PLENEUF VAL ANDRE", "giveBlood": 1, "givePlasma": 0, "givePlatelet": 0, "regionCode": "016", "groupCode": "F10136", "latitude": 48.589027, "longitude": -2.555598, "name": "Salle des r\u00e9gates", "postCode": "22370", "samplingLocationCode": "6", "horaires": null, "infos": null, "metro": null, "bus": null, "tram": null, "parking": null, "debutInfos": null, "finInfos": null, "ville": null, "id": null, "phone": null, "urlBlood": null, "urlPlasma": null, "urlPlatelets": null}
{"address1": null, "address2": null, "city": "PLENEUF VAL ANDRE", "convocationLabel": "SALLE DU GUEMADEUC", "distance": 0.0, "fullAddress": "22370 PLENEUF VAL ANDRE", "giveBlood": 1, "givePlasma": 0, "givePlatelet": 0, "regionCode": "016", "groupCode": "F10136", "latitude": 48.58274841, "longitude": -2.55584741, "name": "PLENEUF RENNES amidi", "postCode": "22370", "samplingLocationCode": "7", "horaires": null, "infos": null, "metro": null, "bus": null, "tram": null, "parking": null, "debutInfos": null, "finInfos": null, "ville": null, "id": null, "phone": null, "urlBlood": null, "urlPlasma": null, "urlPlatelets": null}
