{"address1": "SALLE DU LYCEE FACE AU CINEMA", "address2": "RUE DU CHENE VERT", "city": "BAIN DE BRETAGNE", "convocationLabel": "COMPLEXE SPORTIF ", "distance": 0.0, "fullAddress": "SALLE DU LYCEE FACE AU CINEMA RUE DU CHENE VERT 35470 BAIN DE BRETAGNE", "giveBlood": 1, "givePlasma": 0, "givePlatelet": 0, "regionCode": "016", "groupCode": "F70009", "latitude": 47.846529, "longitude": -1.686378, "name": "2 BAIN DE BGNE-COMPLEXE AM", "postCode": "35470", "samplingLocationCode": "10", "horaires": null, "infos": null, "metro": null, "bus": null, "tram": null, "parking": null, "debutInfos": null, "finInfos": null, "ville": null, "id": null, "phone": null, "urlBlood": null, "urlPlasma": null, "urlPlatelets": null}
{"address1": "SALLE DU LYCEE FACE AU CINEMA", "address2": "RUE DU CHENE VERT", "city": "BAIN DE BRETAGNE", "convocationLabel": "COMPLEXE SPORTIF ", "distance": 0.0, "fullAddress": "SALLE DU LYCEE FACE AU CINEMA RUE DU CHENE VERT 35470 BAIN DE BRETAGNE", "giveBlood": 1, "givePlasma": 0, "givePlatelet": 0, "regionCode": "016", "groupCode": "F70009", "latitude": 47.846529, "longitude": -1.686378, "name": "2 BAIN DE BGNE-COMPLEXE AM J+", "postCode": "35470", "samplingLocationCode": "11", "horaires": null, "infos": null, "metro": null, "bus": null, "tram": null, "parking": null, "debutInfos": null, "finInfos": null, "ville": null, "id": null, "phone": null, "urlBlood": null, "urlPlasma": null, "urlPlatelets": null}
{"address1": null, "address2": "75 La Croix Rouge", "city": "BAIN DE BRETAGNE", "convocationLabel": "SALLE ABADENN", "distance": 0.0, "fullAddress": "75 La Croix Rouge 35470 BAIN DE BRETAGNE", "giveBlood": 1, "givePlasma": 0, "givePlatelet": 0, "regionCode": "016", "groupCode": "F70009", "latitude": 47.836207, "longitude": -1.681884, "name": "2 BAIN DE BGNE-SDF JO", "postCode": "35470", "samplingLocationCode": "12", "horaires": null, "infos": null, "metro": null, "bus": null, "tram": null, "parking": null, "debutInfos": null, "finInfos": null, "ville": null, "id": null, "phone": null, "urlBlood": null, "urlPlasma": null, "urlPlatelets": null}
{"address1": null, "address2": "LE POINT DU JOUR", "city": "BAIN DE BRETAGNE", "convocationLabel": "SALLE DES FETES", "distance": 0.0, "fullAddress": "LE POINT DU JOUR 35470 BAIN DE BRETAGNE", "giveBlood": 1, "givePlasma": 0, "givePlatelet": 0, "regionCode": "016", "groupCode": "F70009", "latitude": 47.836618, "longitude": -1.682423, "name": "BAIN DE BRETAGNE SEMAINE", "postCode": "35470", "samplingLocationCode": "2", "horaires": null, "infos": null, "metro": null, "bus": null, "tram": null, "parking": null, "debutInfos": null, "finInfos": null, "ville": null, "id": null, "phone": null, "urlBlood": null, "urlPlasma": null, "urlPlatelets": null}
{"address1": null, "address2": "LA CROIX ROUGE", "city": "BAIN DE BRETAGNE", "convocationLabel": "SALLE DES FETES", "distance": 0.0, "fullAddress": "LA CROIX ROUGE 35470 BAIN DE BRETAGNE", "giveBlood": 1, "givePlasma": 0, "givePlatelet": 0, "regionCode": "016", "groupCode": "F70009", "latitude": 47.832, "longitude": -1.686134, "name": "BAIN DE BRETAGNE sa matin", "postCode": "35470", "samplingLocationCode": "22", "horaires": null, "infos": null, "metro": null, "bus": null, "tram": null, "parking": null, "debutInfos": null, "finInfos": null, "ville": null, "id": null, "phone": null, "urlBlood": null, "urlPlasma": null, "urlPlatelets": null}
{"address1": null, "address2": "LE POINT DU JOUR", "city": "BAIN DE BRETAGNE", "convocationLabel": "SALLE DES FETES", "distance": 0.0, "fullAddress": "LE POINT DU JOUR 35470 BAIN DE BRETAGNE", "giveBlood": 1, "givePlasma": 0, "givePlatelet": 0, "regionCode": "016", "groupCode": "F70009", "latitude": 47.83566666, "longitude": -1.68369234, "name": "BAIN DE BRETAGNE SDF MAT", "postCode": "35470", "samplingLocationCode": "3", "horaires": null, "infos": null, "metro": null, "bus": null, "tram": null, "parking": null, "debutInfos": null, "finInfos": null, "ville": null, "id": null, "phone": null, "urlBlood": null, "urlPlasma": null, "urlPlatelets": null}
{"address1": null, "address2": "LE POINT DU JOUR", "city": "BAIN", "convocationLabel": "SALLE DES FETES", "distance": 0.0, "fullAddress": "LE POINT DU JOUR 35470 BAIN", "giveBlood": 1, "givePlasma": 0, "givePlatelet": 0, "regionCode": "016", "groupCode": "F70009", "latitude": 47.83566666, "longitude": -1.68369234, "name": "BAIN DE BRETAGNE SDF AM", "postCode": "35470", "samplingLocationCode": "4", "horaires": null, "infos": null, "metro": null, "bus": null, "tram": null, "parking": null, "debutInfos": null, "finInfos": null, "ville": null, "id": null, "phone": null, "urlBlood": null, "urlPlasma": null, "urlPlatelets": null}
{"address1": null, "address2": "LE POINT DU JOUR", "city": "bain", "convocationLabel": "SALLE DES FETES", "distance": 0.0, "fullAddress": "LE POINT DU JOUR 35470 bain", "giveBlood": 1, "givePlasma": 0, "givePlatelet": 0, "regionCode": "016", "groupCode": "F70009", "latitude": 47.836618, "longitude": -1.682423, "name": "BAIN DE BRETAGNE sa amidi", "postCode": "35470", "samplingLocationCode": "5", "horaires": null, "infos": null, "metro": null, "bus": null, "tram": null, "parking": null, "debutInfos": null, "finInfos": null, "ville": null, "id": null, "phone": null, "urlBlood": null, "urlPlasma": null, "urlPlatelets": null}
{"address1": null, "address2": "RUE DU CHENE VERT", "city": "BAIN DE BRETAGNE", "convocationLabel": "COMPLEXE SPORTIF SALLE DU LYCEE FACE AU CINEMA", "distance": 0.0, "fullAddress": "RUE DU CHENE VERT 35470 BAIN DE BRETAGNE", "giveBlood": 1, "givePlasma": 0, "givePlatelet": 0, "regionCode": "016", "groupCode": "F70009", "latitude": 47.846529, "longitude": -1.686378, "name": "BAIN DE BRETAGNE COMPLEXE MAT", "postCode": "35470", "samplingLocationCode": "6", "horaires": null, "infos": null, "metro": null, "bus": null, "tram": null, "parking": null, "debutInfos": null, "finInfos": null, "ville": null, "id": null, "phone": null, "urlBlood": null, "urlPlasma": null, "urlPlatelets": null}
{"address1": null, "address2": "RUE DU CHENE VERT", "city": "BAIN DE BRETAGNE", "convocationLabel": "COMPLEXE SPORTIF SALLE DU LYCEE FACE AU CINEMA", "distance": 0.0, "fullAddress": "RUE DU CHENE VERT 35470 BAIN DE BRETAGNE", "giveBlood": 1, "givePlasma": 0, "givePlatelet": 0, "regionCode": "016", "groupCode": "F70009", "latitude": 47.846529, "longitude": -1.686378, "name": "BAIN DE BRETAGNE COMPLEXE AM", "postCode": "35470", "samplingLocationCode": "7", "horaires": null, "infos": null, "metro": null, "bus": null, "tram": null, "parking": null, "debutInfos": null, "finInfos": null, "ville": null, "id": null, "phone": null, "urlBlood": null, "urlPlasma": null, "urlPlatelets": null}
{"address1": null, "address2": "75 La Croix Rouge", "city": "BAIN DE BRETAGNE", "convocationLabel": "SALLE ABADENN", "distance": 0.0, "fullAddress": "75 La Croix Rouge 35470 BAIN DE BRETAGNE", "giveBlood": 1, "givePlasma": 0, "givePlatelet": 0, "regionCode": "016", "groupCode": "F70009", "latitude": 47.83296585, "longitude": -1.68659306, "name": "2 BAIN DE BGNE-SDF AM ", "postCode": "35470", "samplingLocationCode": "8", "horaires": null, "infos": null, "metro": null, "bus": null, "tram": null, "parking": null, "debutInfos": null, "finInfos": null, "ville": null, "id": null, "phone": null, "urlBlood": null, "urlPlasma": null, "urlPlatelets": null}
{"address1": null, "address2": "75 La Croix Rouge", "city": "BAIN DE BRETAGNE", "convocationLabel": "SALLE ABADENN", "distance": 0.0, "fullAddress": "75 La Croix Rouge 35470 BAIN DE BRETAGNE", "giveBlood": 1, "givePlasma": 0, "givePlatelet": 0, "regionCode": "016", "groupCode": "F70009", "latitude": 47.83290482, "longitude": -1.68661797, "name": "2 BAIN DE BGNE-SDF AM J+", "postCode": "35470", "samplingLocationCode": "9", "horaires": null, "infos": null, "metro": null, "bus": null, "tram": null, "parking": null, "debutInfos": null, "finInfos": null, "ville": null, "id": null, "phone": null, "urlBlood": null, "urlPlasma": null, "urlPlatelets": null}
