{"address1": null, "address2": "3 ROUTE DE LA GARE", "city": "DAOULAS", "convocationLabel": "SALLE KERNEIS", "distance": 0.0, "fullAddress": "3 ROUTE DE LA GARE 29460 DAOULAS", "giveBlood": 1, "givePlasma": 0, "givePlatelet": 0, "regionCode": "016", "groupCode": "F50042", "latitude": 48.36123657, "longitude": -4.2585721, "name": "DAOULAS", "postCode": "29460", "samplingLocationCode": "2", "horaires": null, "infos": null, "metro": null, "bus": null, "tram": null, "parking": null, "debutInfos": null, "finInfos": null, "ville": null, "id": null, "phone": null, "urlBlood": null, "urlPlasma": null, "urlPlatelets": null}
{"address1": null, "address2": "RUE AR MOR", "city": "LOGONNA DAOULAS", "convocationLabel": "SALLE KEJADENN", "distance": 0.0, "fullAddress": "RUE AR MOR 29460 LOGONNA DAOULAS", "giveBlood": 1, "givePlasma": 0, "givePlatelet": 0, "regionCode": "016", "groupCode": "F50042", "latitude": 48.32184219, "longitude": -4.29822588, "name": "LOGONNA DAOULAS", "postCode": "29460", "samplingLocationCode": "3", "horaires": null, "infos": null, "metro": null, "bus": null, "tram": null, "parking": null, "debutInfos": null, "finInfos": null, "ville": null, "id": null, "phone": null, "urlBlood": null, "urlPlasma": null, "urlPlatelets": null}
{"address1": null, "address2": "1 RUE DES ECOLES", "city": "IRVILLAC", "convocationLabel": "SALLE KERLEVENEZ", "distance": 0.0, "fullAddress": "1 RUE DES ECOLES 29460 IRVILLAC", "giveBlood": 1, "givePlasma": 0, "givePlatelet": 0, "regionCode": "016", "groupCode": "F50042", "latitude": 48.373448, "longitude": -4.213318, "name": "IRVILLAC", "postCode": "29460", "samplingLocationCode": "4", "horaires": null, "infos": null, "metro": null, "bus": null, "tram": null, "parking": null, "debutInfos": null, "finInfos": null, "ville": null, "id": null, "phone": null, "urlBlood": null, "urlPlasma": null, "urlPlatelets": null}
{"address1": null, "address2": null, "city": "LOPERHET", "convocationLabel": "SALLE MULTIFONCTIONS 'TRIMARAN'", "distance": 0.0, "fullAddress": "29460 LOPERHET", "giveBlood": 1, "givePlasma": 0, "givePlatelet": 0, "regionCode": "016", "groupCode": "F50042", "latitude": 48.360956, "longitude": -4.263811, "name": "LOPERHET", "postCode": "29460", "samplingLocationCode": "782", "horaires": null, "infos": null, "metro": null, "bus": null, "tram": null, "parking": null, "debutInfos": null, "finInfos": null, "ville": null, "id": null, "phone": null, "urlBlood": null, "urlPlasma": null, "urlPlatelets": null}
