{"address1": null, "address2": null, "city": "COMBOURG", "convocationLabel": "ESPACE MALOUAS", "distance": 0.0, "fullAddress": "35270 COMBOURG", "giveBlood": 1, "givePlasma": 0, "givePlatelet": 0, "regionCode": "016", "groupCode": "F70063", "latitude": 48.411952, "longitude": -1.729469, "name": "COMBOURG", "postCode": "35270", "samplingLocationCode": "2", "horaires": null, "infos": null, "metro": null, "bus": null, "tram": null, "parking": null, "debutInfos": null, "finInfos": null, "ville": null, "id": null, "phone": null, "urlBlood": null, "urlPlasma": null, "urlPlatelets": null}
{"address1": null, "address2": "Rue Malouas", "city": "COMBOURG", "convocationLabel": "ESPACE MALOUAS", "distance": 0.0, "fullAddress": "Rue Malouas 35270 COMBOURG", "giveBlood": 1, "givePlasma": 0, "givePlatelet": 0, "regionCode": "016", "groupCode": "F70063", "latitude": 48.41000748, "longitude": -1.75249898, "name": "COMBOURG MALOUAS MAT", "postCode": "35270", "samplingLocationCode": "3", "horaires": null, "infos": null, "metro": null, "bus": null, "tram": null, "parking": null, "debutInfos": null, "finInfos": null, "ville": null, "id": null, "phone": null, "urlBlood": null, "urlPlasma": null, "urlPlatelets": null}
{"address1": null, "address2": "Rue Malouas", "city": "COMBOURG", "convocationLabel": "ESPACE MALOUAS", "distance": 0.0, "fullAddress": "Rue Malouas 35270 COMBOURG", "giveBlood": 1, "givePlasma": 0, "givePlatelet": 0, "regionCode": "016", "groupCode": "F70063", "latitude": 48.41000748, "longitude": -1.75249898, "name": "COMBOURG MALOUAS AM", "postCode": "35270", "samplingLocationCode": "4", "horaires": null, "infos": null, "metro": null, "bus": null, "tram": null, "parking": null, "debutInfos": null, "finInfos": null, "ville": null, "id": null, "phone": null, "urlBlood": null, "urlPlasma": null, "urlPlatelets": null}
{"address1": null, "address2": "Rue Malouas", "city": "COMBOURG", "convocationLabel": "ESPACE MALOUAS", "distance": 0.0, "fullAddress": "Rue Malouas 35270 COMBOURG", "giveBlood": 1, "givePlasma": 0, "givePlatelet": 0, "regionCode": "016", "groupCode": "F70063", "latitude": 48.41443634, "longitude": -1.75148666, "name": "2 COMBOURG-MALOUAS MAT ", "postCode": "35270", "samplingLocationCode": "5", "horaires": null, "infos": null, "metro": null, "bus": null, "tram": null, "parking": null, "debutInfos": null, "finInfos": null, "ville": null, "id": null, "phone": null, "urlBlood": null, "urlPlasma": null, "urlPlatelets": null}
{"address1": null, "address2": "Rue Malouas", "city": "COMBOURG", "convocationLabel": "ESPACE MALOUAS", "distance": 0.0, "fullAddress": "Rue Malouas 35270 COMBOURG", "giveBlood": 1, "givePlasma": 0, "givePlatelet": 0, "regionCode": "016", "groupCode": "F70063", "latitude": 48.41443634, "longitude": -1.75148666, "name": "2 COMBOURG-MALOUAS AM J+", "postCode": "35270", "samplingLocationCode": "6", "horaires": null, "infos": null, "metro": null, "bus": null, "tram": null, "parking": null, "debutInfos": null, "finInfos": null, "ville": null, "id": null, "phone": null, "urlBlood": null, "urlPlasma": null, "urlPlatelets": null}
{"address1": null, "address2": "RUE MALOUAS", "city": "COMBOURG", "convocationLabel": "ESPACE MALOUAS", "distance": 0.0, "fullAddress": "RUE MALOUAS 35270 COMBOURG", "giveBlood": 1, "givePlasma": 0, "givePlatelet": 0, "regionCode": "016", "groupCode": "F70063", "latitude": 48.412584, "longitude": -1.73722, "name": "2 COMBOURG-MALOUAS JO", "postCode": "35270", "samplingLocationCode": "7", "horaires": null, "infos": null, "metro": null, "bus": null, "tram": null, "parking": null, "debutInfos": null, "finInfos": null, "ville": null, "id": null, "phone": null, "urlBlood": null, "urlPlasma": null, "urlPlatelets": null}
{"address1": null, "address2": "PLACE PIQUETTE", "city": "COMBOURG", "convocationLabel": "CENTRE CULTUREL", "distance": 0.0, "fullAddress": "PLACE PIQUETTE 35270 COMBOURG", "giveBlood": 1, "givePlasma": 0, "givePlatelet": 0, "regionCode": "016", "groupCode": "F70063", "latitude": 48.409447, "longitude": -1.749693, "name": "COMBOURG", "postCode": "35270", "samplingLocationCode": "76", "horaires": null, "infos": null, "metro": null, "bus": null, "tram": null, "parking": null, "debutInfos": null, "finInfos": null, "ville": null, "id": null, "phone": null, "urlBlood": null, "urlPlasma": null, "urlPlatelets": null}
