{"address1": null, "address2": "RUE DES REMPARTS", "city": "LE PALAIS", "convocationLabel": "SALLE ARLETTY ", "distance": 0.0, "fullAddress": "RUE DES REMPARTS 56360 LE PALAIS", "giveBlood": 1, "givePlasma": 0, "givePlatelet": 0, "regionCode": "016", "groupCode": "F30261", "latitude": 47.346087, "longitude": -3.152971, "name": "LE PALAIS (ETE)", "postCode": "56360", "samplingLocationCode": "1545", "horaires": null, "infos": null, "metro": null, "bus": null, "tram": null, "parking": null, "debutInfos": null, "finInfos": null, "ville": null, "id": null, "phone": null, "urlBlood": null, "urlPlasma": null, "urlPlatelets": null}
{"address1": null, "address2": "RUE DES REMPARTS", "city": "LE  PALAIS", "convocationLabel": "SALLE ARLETTY ", "distance": 0.0, "fullAddress": "RUE DES REMPARTS 56360 LE  PALAIS", "giveBlood": 1, "givePlasma": 0, "givePlatelet": 0, "regionCode": "016", "groupCode": "F30261", "latitude": 47.346087, "longitude": -3.152971, "name": "LE PALAIS  (HIVER)", "postCode": "56360", "samplingLocationCode": "2", "horaires": null, "infos": null, "metro": null, "bus": null, "tram": null, "parking": null, "debutInfos": null, "finInfos": null, "ville": null, "id": null, "phone": null, "urlBlood": null, "urlPlasma": null, "urlPlatelets": null}
{"address1": null, "address2": "RUE DES REMPARTS", "city": "LE PALAIS", "convocationLabel": "SALLE ARLETTY ", "distance": 0.0, "fullAddress": "RUE DES REMPARTS 56360 LE PALAIS", "giveBlood": 1, "givePlasma": 0, "givePlatelet": 0, "regionCode": "016", "groupCode": "F30261", "latitude": 47.346087, "longitude": -3.152971, "name": "LE PALAIS 09:30/13:30", "postCode": "56360", "samplingLocationCode": "3", "horaires": null, "infos": null, "metro": null, "bus": null, "tram": null, "parking": null, "debutInfos": null, "finInfos": null, "ville": null, "id": null, "phone": null, "urlBlood": null, "urlPlasma": null, "urlPlatelets": null}
{"address1": null, "address2": "RUE DES REMPARTS", "city": "LE PALAIS", "convocationLabel": "SALLE ARLETTY ", "distance": 0.0, "fullAddress": "RUE DES REMPARTS 56360 LE PALAIS", "giveBlood": 1, "givePlasma": 0, "givePlatelet": 0, "regionCode": "016", "groupCode": "F30261", "latitude": 47.346087, "longitude": -3.152971, "name": "LE PALAIS 10/14", "postCode": "56360", "samplingLocationCode": "4", "horaires": null, "infos": null, "metro": null, "bus": null, "tram": null, "parking": null, "debutInfos": null, "finInfos": null, "ville": null, "id": null, "phone": null, "urlBlood": null, "urlPlasma": null, "urlPlatelets": null}
{"address1": null, "address2": "RUE DES REMPARTS", "city": "LE PALAIS", "convocationLabel": "SALLE ARLETTY ", "distance": 0.0, "fullAddress": "RUE DES REMPARTS 56360 LE PALAIS", "giveBlood": 1, "givePlasma": 0, "givePlatelet": 0, "regionCode": "016", "groupCode": "F30261", "latitude": 47.346087, "longitude": -3.152971, "name": "LE PALAIS (Et\u00e9) 13:30/17:15", "postCode": "56360", "samplingLocationCode": "5", "horaires": null, "infos": null, "metro": null, "bus": null, "tram": null, "parking": null, "debutInfos": null, "finInfos": null, "ville": null, "id": null, "phone": null, "urlBlood": null, "urlPlasma": null, "urlPlatelets": null}
{"address1": null, "address2": "RUE DES REMPARTS", "city": "LE PALAIS", "convocationLabel": "SALLE ARLETTY ", "distance": 0.0, "fullAddress": "RUE DES REMPARTS 56360 LE PALAIS", "giveBlood": 1, "givePlasma": 0, "givePlatelet": 0, "regionCode": "016", "groupCode": "F30261", "latitude": 47.346087, "longitude": -3.152971, "name": "LE PALAIS (Et\u00e9) 10:00/14:00", "postCode": "56360", "samplingLocationCode": "6", "horaires": null, "infos": null, "metro": null, "bus": null, "tram": null, "parking": null, "debutInfos": null, "finInfos": null, "ville": null, "id": null, "phone": null, "urlBlood": null, "urlPlasma": null, "urlPlatelets": null}
{"address1": null, "address2": "RUE DES REMPARTS", "city": "LA PALAIS", "convocationLabel": "SALLE ARLETTY (C.A.L)", "distance": 0.0, "fullAddress": "RUE DES REMPARTS 56360 LA PALAIS", "giveBlood": 1, "givePlasma": 0, "givePlatelet": 0, "regionCode": "016", "groupCode": "F30261", "latitude": 47.346087, "longitude": -3.152971, "name": "LE PALAIS 10/17", "postCode": "56360", "samplingLocationCode": "7", "horaires": null, "infos": null, "metro": null, "bus": null, "tram": null, "parking": null, "debutInfos": null, "finInfos": null, "ville": null, "id": null, "phone": null, "urlBlood": null, "urlPlasma": null, "urlPlatelets": null}
{"address1": null, "address2": "RUE DES REMPARTS", "city": "LE  PALAIS", "convocationLabel": "SALLE ARLETTY (C.A.L)", "distance": 0.0, "fullAddress": "RUE DES REMPARTS 56360 LE  PALAIS", "giveBlood": 1, "givePlasma": 0, "givePlatelet": 0, "regionCode": "016", "groupCode": "F30261", "latitude": 47.346087, "longitude": -3.152971, "name": "LE PALAIS 14/15h30 2 J", "postCode": "56360", "samplingLocationCode": "8", "horaires": null, "infos": null, "metro": null, "bus": null, "tram": null, "parking": null, "debutInfos": null, "finInfos": null, "ville": null, "id": null, "phone": null, "urlBlood": null, "urlPlasma": null, "urlPlatelets": null}
