{"address1": null, "address2": "RUE LUCIEN POULARD", "city": "REDON", "convocationLabel": "GYMNASE LUCIEN POULARD", "distance": 0.0, "fullAddress": "RUE LUCIEN POULARD 35600 REDON", "giveBlood": 1, "givePlasma": 0, "givePlatelet": 0, "regionCode": "016", "groupCode": "F70187", "latitude": 47.65019226, "longitude": -2.09042263, "name": "REDON GYMNASE POULARD MAT", "postCode": "35600", "samplingLocationCode": "10", "horaires": null, "infos": null, "metro": null, "bus": null, "tram": null, "parking": null, "debutInfos": null, "finInfos": null, "ville": null, "id": null, "phone": null, "urlBlood": null, "urlPlasma": null, "urlPlatelets": null}
{"address1": null, "address2": "RUE LUCIEN POULARD", "city": "REDON", "convocationLabel": "GYMNASE LUCIEN POULARD", "distance": 0.0, "fullAddress": "RUE LUCIEN POULARD 35600 REDON", "giveBlood": 1, "givePlasma": 0, "givePlatelet": 0, "regionCode": "016", "groupCode": "F70187", "latitude": 47.65019226, "longitude": -2.09042263, "name": "REDON GYMNASE POULARD AM", "postCode": "35600", "samplingLocationCode": "11", "horaires": null, "infos": null, "metro": null, "bus": null, "tram": null, "parking": null, "debutInfos": null, "finInfos": null, "ville": null, "id": null, "phone": null, "urlBlood": null, "urlPlasma": null, "urlPlatelets": null}
{"address1": null, "address2": "14 Rue de Munchhouse", "city": "BAINS SUR OUST", "convocationLabel": "SALLE POLYVALENTE", "distance": 0.0, "fullAddress": "14 Rue de Munchhouse 35600 BAINS SUR OUST", "giveBlood": 1, "givePlasma": 0, "givePlatelet": 0, "regionCode": "016", "groupCode": "F70187", "latitude": 47.70304, "longitude": -2.06647, "name": "BAINS SUR OUST MAT", "postCode": "35600", "samplingLocationCode": "14", "horaires": null, "infos": null, "metro": null, "bus": null, "tram": null, "parking": null, "debutInfos": null, "finInfos": null, "ville": null, "id": null, "phone": null, "urlBlood": null, "urlPlasma": null, "urlPlatelets": null}
{"address1": null, "address2": "14 Rue de Munchhouse", "city": "BAINS SUR OUST", "convocationLabel": "SALLE POLYVALENTE ", "distance": 0.0, "fullAddress": "14 Rue de Munchhouse 35600 BAINS SUR OUST", "giveBlood": 1, "givePlasma": 0, "givePlatelet": 0, "regionCode": "016", "groupCode": "F70187", "latitude": 47.70304, "longitude": -2.06647, "name": "BAINS SUR OUST AM", "postCode": "35600", "samplingLocationCode": "15", "horaires": null, "infos": null, "metro": null, "bus": null, "tram": null, "parking": null, "debutInfos": null, "finInfos": null, "ville": null, "id": null, "phone": null, "urlBlood": null, "urlPlasma": null, "urlPlatelets": null}
{"address1": null, "address2": "14 RUE DE MUNCHHOUSE", "city": "BAINS SUR OUST", "convocationLabel": "SALLE POLYVALENTE", "distance": 0.0, "fullAddress": "14 RUE DE MUNCHHOUSE 35600 BAINS SUR OUST", "giveBlood": 1, "givePlasma": 0, "givePlatelet": 0, "regionCode": "016", "groupCode": "F70187", "latitude": 47.70304, "longitude": -2.06647, "name": "2 BAINS AM POLYVALENTE", "postCode": "35600", "samplingLocationCode": "16", "horaires": null, "infos": null, "metro": null, "bus": null, "tram": null, "parking": null, "debutInfos": null, "finInfos": null, "ville": null, "id": null, "phone": null, "urlBlood": null, "urlPlasma": null, "urlPlatelets": null}
{"address1": null, "address2": "14 RUE DE MUNCHHOUSE", "city": "BAINS SUR OUST", "convocationLabel": "SALLE POLYVALENTE", "distance": 0.0, "fullAddress": "14 RUE DE MUNCHHOUSE 35600 BAINS SUR OUST", "giveBlood": 1, "givePlasma": 0, "givePlatelet": 0, "regionCode": "016", "groupCode": "F70187", "latitude": 47.70304, "longitude": -2.06647, "name": "2 BAINS DAM J+ POLYVALENTE", "postCode": "35600", "samplingLocationCode": "17", "horaires": null, "infos": null, "metro": null, "bus": null, "tram": null, "parking": null, "debutInfos": null, "finInfos": null, "ville": null, "id": null, "phone": null, "urlBlood": null, "urlPlasma": null, "urlPlatelets": null}
{"address1": null, "address2": "14 RUE DE MUNCHHOUSE", "city": "BAINS SUR OUST", "convocationLabel": "SALLE POLYVALENTE", "distance": 0.0, "fullAddress": "14 RUE DE MUNCHHOUSE 35600 BAINS SUR OUST", "giveBlood": 1, "givePlasma": 0, "givePlatelet": 0, "regionCode": "016", "groupCode": "F70187", "latitude": 47.70304, "longitude": -2.06647, "name": "2 BAINS AM J+ POLYVALENTE", "postCode": "35600", "samplingLocationCode": "18", "horaires": null, "infos": null, "metro": null, "bus": null, "tram": null, "parking": null, "debutInfos": null, "finInfos": null, "ville": null, "id": null, "phone": null, "urlBlood": null, "urlPlasma": null, "urlPlatelets": null}
{"address1": null, "address2": "14 RUE MUNCHHOUSE", "city": "BAINS SUR OUST", "convocationLabel": "SALLE POLYVALENTE", "distance": 0.0, "fullAddress": "14 RUE MUNCHHOUSE 35600 BAINS SUR OUST", "giveBlood": 1, "givePlasma": 0, "givePlatelet": 0, "regionCode": "016", "groupCode": "F70187", "latitude": 47.70304, "longitude": -2.06647, "name": "2 BAINS MAT POLYVALENTE", "postCode": "35600", "samplingLocationCode": "19", "horaires": null, "infos": null, "metro": null, "bus": null, "tram": null, "parking": null, "debutInfos": null, "finInfos": null, "ville": null, "id": null, "phone": null, "urlBlood": null, "urlPlasma": null, "urlPlatelets": null}
{"address1": null, "address2": "9 RUE DE GALERNE", "city": "REDON", "convocationLabel": "LE CARRE 9", "distance": 0.0, "fullAddress": "9 RUE DE GALERNE 35600 REDON", "giveBlood": 1, "givePlasma": 0, "givePlatelet": 0, "regionCode": "016", "groupCode": "F70187", "latitude": 47.6570973, "longitude": -2.0807739, "name": "2 REDON-CARRE 9 MAT J+", "postCode": "35600", "samplingLocationCode": "2", "horaires": null, "infos": null, "metro": null, "bus": null, "tram": null, "parking": null, "debutInfos": null, "finInfos": null, "ville": null, "id": null, "phone": null, "urlBlood": null, "urlPlasma": null, "urlPlatelets": null}
{"address1": null, "address2": "9 RUE DE GALERNE", "city": "REDON", "convocationLabel": "LE CARRE 9", "distance": 0.0, "fullAddress": "9 RUE DE GALERNE 35600 REDON", "giveBlood": 1, "givePlasma": 0, "givePlatelet": 0, "regionCode": "016", "groupCode": "F70187", "latitude": 47.6570973, "longitude": -2.0807739, "name": "2 REDON-CARRE 9 AM J+", "postCode": "35600", "samplingLocationCode": "20", "horaires": null, "infos": null, "metro": null, "bus": null, "tram": null, "parking": null, "debutInfos": null, "finInfos": null, "ville": null, "id": null, "phone": null, "urlBlood": null, "urlPlasma": null, "urlPlatelets": null}
{"address1": null, "address2": "9 RUE DE GALERNE", "city": "REDON", "convocationLabel": "LE CARRE 9", "distance": 0.0, "fullAddress": "9 RUE DE GALERNE 35600 REDON", "giveBlood": 1, "givePlasma": 0, "givePlatelet": 0, "regionCode": "016", "groupCode": "F70187", "latitude": 47.656475, "longitude": -2.082179, "name": "2 REDON-CARRE 9 JO", "postCode": "35600", "samplingLocationCode": "21", "horaires": null, "infos": null, "metro": null, "bus": null, "tram": null, "parking": null, "debutInfos": null, "finInfos": null, "ville": null, "id": null, "phone": null, "urlBlood": null, "urlPlasma": null, "urlPlatelets": null}
{"address1": null, "address2": "9 RUE DE GALERNE", "city": "REDON", "convocationLabel": "LE CARRE 9", "distance": 0.0, "fullAddress": "9 RUE DE GALERNE 35600 REDON", "giveBlood": 1, "givePlasma": 0, "givePlatelet": 0, "regionCode": "016", "groupCode": "F70187", "latitude": 47.656254, "longitude": -2.078697, "name": "2 REDON-CARRE 9 DAM", "postCode": "35600", "samplingLocationCode": "22", "horaires": null, "infos": null, "metro": null, "bus": null, "tram": null, "parking": null, "debutInfos": null, "finInfos": null, "ville": null, "id": null, "phone": null, "urlBlood": null, "urlPlasma": null, "urlPlatelets": null}
{"address1": null, "address2": "9 RUE DE GALERNE REDON", "city": "REDON", "convocationLabel": "MAISON DES FETES", "distance": 0.0, "fullAddress": "9 RUE DE GALERNE REDON 35600 REDON", "giveBlood": 1, "givePlasma": 0, "givePlatelet": 0, "regionCode": "016", "groupCode": "F70187", "latitude": 47.656475, "longitude": -2.082179, "name": "REDON  SAMEDI", "postCode": "35600", "samplingLocationCode": "3", "horaires": null, "infos": null, "metro": null, "bus": null, "tram": null, "parking": null, "debutInfos": null, "finInfos": null, "ville": null, "id": null, "phone": null, "urlBlood": null, "urlPlasma": null, "urlPlatelets": null}
{"address1": null, "address2": "9 RUE DE GALERNE", "city": "REDON", "convocationLabel": "LE CARRE 9", "distance": 0.0, "fullAddress": "9 RUE DE GALERNE 35600 REDON", "giveBlood": 1, "givePlasma": 0, "givePlatelet": 0, "regionCode": "016", "groupCode": "F70187", "latitude": 47.656819434291975, "longitude": -2.078872919082641, "name": "2 REDON-CARRE 9 AM ", "postCode": "35600", "samplingLocationCode": "4", "horaires": null, "infos": null, "metro": null, "bus": null, "tram": null, "parking": null, "debutInfos": null, "finInfos": null, "ville": null, "id": null, "phone": null, "urlBlood": null, "urlPlasma": null, "urlPlatelets": null}
{"address1": null, "address2": "9 RUE DE GALERNE", "city": "REDON", "convocationLabel": "LE CARRE 9", "distance": 0.0, "fullAddress": "9 RUE DE GALERNE 35600 REDON", "giveBlood": 1, "givePlasma": 0, "givePlatelet": 0, "regionCode": "016", "groupCode": "F70187", "latitude": 47.65682666091075, "longitude": -2.0789480209350586, "name": "2 REDON-CARRE 9 DAM J+", "postCode": "35600", "samplingLocationCode": "5", "horaires": null, "infos": null, "metro": null, "bus": null, "tram": null, "parking": null, "debutInfos": null, "finInfos": null, "ville": null, "id": null, "phone": null, "urlBlood": null, "urlPlasma": null, "urlPlatelets": null}
{"address1": null, "address2": "2 RUE CLAUDE CHANTEBEL", "city": "REDON", "convocationLabel": "MAPAR", "distance": 0.0, "fullAddress": "2 RUE CLAUDE CHANTEBEL 35600 REDON", "giveBlood": 1, "givePlasma": 0, "givePlatelet": 0, "regionCode": "016", "groupCode": "F70187", "latitude": 47.656975, "longitude": -2.082424, "name": "REDON MAPAR MAT", "postCode": "35600", "samplingLocationCode": "6", "horaires": null, "infos": null, "metro": null, "bus": null, "tram": null, "parking": null, "debutInfos": null, "finInfos": null, "ville": null, "id": null, "phone": null, "urlBlood": null, "urlPlasma": null, "urlPlatelets": null}
{"address1": null, "address2": "2 RUE CLAUDE CHANTEBEL", "city": "REDON", "convocationLabel": "MAPAR", "distance": 0.0, "fullAddress": "2 RUE CLAUDE CHANTEBEL 35600 REDON", "giveBlood": 1, "givePlasma": 0, "givePlatelet": 0, "regionCode": "016", "groupCode": "F70187", "latitude": 47.656975, "longitude": -2.082424, "name": "REDON AM MAPAR", "postCode": "35600", "samplingLocationCode": "7", "horaires": null, "infos": null, "metro": null, "bus": null, "tram": null, "parking": null, "debutInfos": null, "finInfos": null, "ville": null, "id": null, "phone": null, "urlBlood": null, "urlPlasma": null, "urlPlatelets": null}
{"address1": null, "address2": "10 AVENUE GASTON SEBILLEAU", "city": "REDON", "convocationLabel": "MAISON DES ASSOCIATIONS", "distance": 0.0, "fullAddress": "10 AVENUE GASTON SEBILLEAU 35600 REDON", "giveBlood": 1, "givePlasma": 0, "givePlatelet": 0, "regionCode": "016", "groupCode": "F70187", "latitude": 47.65953827, "longitude": -2.07661462, "name": "REDON OMCL MAT", "postCode": "35600", "samplingLocationCode": "8", "horaires": null, "infos": null, "metro": null, "bus": null, "tram": null, "parking": null, "debutInfos": null, "finInfos": null, "ville": null, "id": null, "phone": null, "urlBlood": null, "urlPlasma": null, "urlPlatelets": null}
{"address1": null, "address2": "10 AVENUE GASTON SEBILLEAU", "city": "REDON", "convocationLabel": "MAISON DES ASSOCIATIONS", "distance": 0.0, "fullAddress": "10 AVENUE GASTON SEBILLEAU 35600 REDON", "giveBlood": 1, "givePlasma": 0, "givePlatelet": 0, "regionCode": "016", "groupCode": "F70187", "latitude": 47.65953827, "longitude": -2.07661462, "name": "REDON OMCL AM", "postCode": "35600", "samplingLocationCode": "9", "horaires": null, "infos": null, "metro": null, "bus": null, "tram": null, "parking": null, "debutInfos": null, "finInfos": null, "ville": null, "id": null, "phone": null, "urlBlood": null, "urlPlasma": null, "urlPlatelets": null}
