{"address1": null, "address2": "17 RUE DE L AERODROME", "city": "MORLAIX", "convocationLabel": "SALLE SOCIOCULTURELLE DE PLOUJEAN", "distance": 0.0, "fullAddress": "17 RUE DE L AERODROME 29600 MORLAIX", "giveBlood": 1, "givePlasma": 0, "givePlatelet": 0, "regionCode": "016", "groupCode": "F50177", "latitude": 48.60512161, "longitude": -3.83122873, "name": "PLOUJEAN J1", "postCode": "29600", "samplingLocationCode": "3", "horaires": null, "infos": null, "metro": null, "bus": null, "tram": null, "parking": null, "debutInfos": null, "finInfos": null, "ville": null, "id": null, "phone": null, "urlBlood": null, "urlPlasma": null, "urlPlatelets": null}
{"address1": null, "address2": "17 RUE DE L AERODROME", "city": "MORLAIX", "convocationLabel": "SALLE SOCIOCULTURELLE DE PLOUJEAN", "distance": 0.0, "fullAddress": "17 RUE DE L AERODROME 29600 MORLAIX", "giveBlood": 1, "givePlasma": 0, "givePlatelet": 0, "regionCode": "016", "groupCode": "F50177", "latitude": 48.60512161, "longitude": -3.83122873, "name": "PLOUJEAN J2", "postCode": "29600", "samplingLocationCode": "4", "horaires": null, "infos": null, "metro": null, "bus": null, "tram": null, "parking": null, "debutInfos": null, "finInfos": null, "ville": null, "id": null, "phone": null, "urlBlood": null, "urlPlasma": null, "urlPlatelets": null}
{"address1": null, "address2": "PLACE DES OTAGES", "city": "MORLAIX", "convocationLabel": "MAIRIE", "distance": 0.0, "fullAddress": "PLACE DES OTAGES 29600 MORLAIX", "giveBlood": 1, "givePlasma": 0, "givePlatelet": 0, "regionCode": "016", "groupCode": "F50177", "latitude": 48.578138, "longitude": -3.828688, "name": "MORLAIX J1", "postCode": "29600", "samplingLocationCode": "5", "horaires": null, "infos": null, "metro": null, "bus": null, "tram": null, "parking": null, "debutInfos": null, "finInfos": null, "ville": null, "id": null, "phone": null, "urlBlood": null, "urlPlasma": null, "urlPlatelets": null}
{"address1": null, "address2": "PLACE DES OTAGES", "city": "MORLAIX", "convocationLabel": "MAIRIE", "distance": 0.0, "fullAddress": "PLACE DES OTAGES 29600 MORLAIX", "giveBlood": 1, "givePlasma": 0, "givePlatelet": 0, "regionCode": "016", "groupCode": "F50177", "latitude": 48.578138, "longitude": -3.828688, "name": "MORLAIX J3", "postCode": "29600", "samplingLocationCode": "6", "horaires": null, "infos": null, "metro": null, "bus": null, "tram": null, "parking": null, "debutInfos": null, "finInfos": null, "ville": null, "id": null, "phone": null, "urlBlood": null, "urlPlasma": null, "urlPlatelets": null}
{"address1": null, "address2": "PLACE DES OTAGES", "city": "MORLAIX", "convocationLabel": "MAIRIE", "distance": 0.0, "fullAddress": "PLACE DES OTAGES 29600 MORLAIX", "giveBlood": 1, "givePlasma": 0, "givePlatelet": 0, "regionCode": "016", "groupCode": "F50177", "latitude": 48.578138, "longitude": -3.828688, "name": "MORLAIX J2", "postCode": "29600", "samplingLocationCode": "7", "horaires": null, "infos": null, "metro": null, "bus": null, "tram": null, "parking": null, "debutInfos": null, "finInfos": null, "ville": null, "id": null, "phone": null, "urlBlood": null, "urlPlasma": null, "urlPlatelets": null}
{"address1": null, "address2": "PLACE DES OTAGES", "city": "MORLAIX", "convocationLabel": "MAIRIE", "distance": 0.0, "fullAddress": "PLACE DES OTAGES 29600 MORLAIX", "giveBlood": 1, "givePlasma": 0, "givePlatelet": 0, "regionCode": "016", "groupCode": "F50177", "latitude": 48.578138, "longitude": -3.828688, "name": "MORLAIX J1 SEPT", "postCode": "29600", "samplingLocationCode": "702", "horaires": null, "infos": null, "metro": null, "bus": null, "tram": null, "parking": null, "debutInfos": null, "finInfos": null, "ville": null, "id": null, "phone": null, "urlBlood": null, "urlPlasma": null, "urlPlatelets": null}
{"address1": null, "address2": "17 RUE DE L AERODROME", "city": "MORLAIX", "convocationLabel": "SALLE SOCIOCULTURELLE DE PLOUJEAN", "distance": 0.0, "fullAddress": "17 RUE DE L AERODROME 29600 MORLAIX", "giveBlood": 1, "givePlasma": 0, "givePlatelet": 0, "regionCode": "016", "groupCode": "F50177", "latitude": 48.60512161, "longitude": -3.83122873, "name": "PLOUJEAN J3", "postCode": "29600", "samplingLocationCode": "839", "horaires": null, "infos": null, "metro": null, "bus": null, "tram": null, "parking": null, "debutInfos": null, "finInfos": null, "ville": null, "id": null, "phone": null, "urlBlood": null, "urlPlasma": null, "urlPlatelets": null}
