{"address1": null, "address2": "PLACE DE LA GARE", "city": "CROZON", "convocationLabel": "MAISON DU TEMPS LIBRE", "distance": 0.0, "fullAddress": "PLACE DE LA GARE 29160 CROZON", "giveBlood": 1, "givePlasma": 0, "givePlatelet": 0, "regionCode": "016", "groupCode": "F50040", "latitude": 48.24761963, "longitude": -4.49283171, "name": "CROZON J2 TEMPS LIBRE", "postCode": "29160", "samplingLocationCode": "2", "horaires": null, "infos": null, "metro": null, "bus": null, "tram": null, "parking": null, "debutInfos": null, "finInfos": null, "ville": null, "id": null, "phone": null, "urlBlood": null, "urlPlasma": null, "urlPlatelets": null}
{"address1": null, "address2": "TAL AR GROAS", "city": "CROZON", "convocationLabel": "MAISON POUR TOUS", "distance": 0.0, "fullAddress": "TAL AR GROAS 29160 CROZON", "giveBlood": 1, "givePlasma": 0, "givePlatelet": 0, "regionCode": "016", "groupCode": "F50040", "latitude": 48.248081, "longitude": -4.418789, "name": "TAL AR GROAS", "postCode": "29160", "samplingLocationCode": "3", "horaires": null, "infos": null, "metro": null, "bus": null, "tram": null, "parking": null, "debutInfos": null, "finInfos": null, "ville": null, "id": null, "phone": null, "urlBlood": null, "urlPlasma": null, "urlPlatelets": null}
{"address1": null, "address2": "PLACE DE LA GARE", "city": "CROZON", "convocationLabel": "MAISON DU TEMPS LIBRE", "distance": 0.0, "fullAddress": "PLACE DE LA GARE 29160 CROZON", "giveBlood": 1, "givePlasma": 0, "givePlatelet": 0, "regionCode": "016", "groupCode": "F50040", "latitude": 48.247705, "longitude": -4.49204, "name": "CROZON - PLASMA", "postCode": "29160", "samplingLocationCode": "4", "horaires": null, "infos": null, "metro": null, "bus": null, "tram": null, "parking": null, "debutInfos": null, "finInfos": null, "ville": null, "id": null, "phone": null, "urlBlood": null, "urlPlasma": null, "urlPlatelets": null}
{"address1": null, "address2": "RUE NOMINOE", "city": "CROZON", "convocationLabel": "SALLE NOMINOE", "distance": 0.0, "fullAddress": "RUE NOMINOE 29160 CROZON", "giveBlood": 1, "givePlasma": 0, "givePlatelet": 0, "regionCode": "016", "groupCode": "F50040", "latitude": 48.251423, "longitude": -4.491778, "name": "CROZON J1 SALLE NOMINOE", "postCode": "29160", "samplingLocationCode": "5", "horaires": null, "infos": null, "metro": null, "bus": null, "tram": null, "parking": null, "debutInfos": null, "finInfos": null, "ville": null, "id": null, "phone": null, "urlBlood": null, "urlPlasma": null, "urlPlatelets": null}
{"address1": null, "address2": "RUE NOMINOE", "city": "CROZON", "convocationLabel": "SALLE NOMINOE", "distance": 0.0, "fullAddress": "RUE NOMINOE 29160 CROZON", "giveBlood": 1, "givePlasma": 0, "givePlatelet": 0, "regionCode": "016", "groupCode": "F50040", "latitude": 48.251423, "longitude": -4.491778, "name": "CROZON J2 SALLE NOMINOE", "postCode": "29160", "samplingLocationCode": "6", "horaires": null, "infos": null, "metro": null, "bus": null, "tram": null, "parking": null, "debutInfos": null, "finInfos": null, "ville": null, "id": null, "phone": null, "urlBlood": null, "urlPlasma": null, "urlPlatelets": null}
{"address1": null, "address2": "RUE NOMINOE", "city": "CROZON", "convocationLabel": "SALLE NOMINOE", "distance": 0.0, "fullAddress": "RUE NOMINOE 29160 CROZON", "giveBlood": 1, "givePlasma": 0, "givePlatelet": 0, "regionCode": "016", "groupCode": "F50040", "latitude": 48.251423, "longitude": -4.491778, "name": "SALLE NOMINOE", "postCode": "29160", "samplingLocationCode": "7", "horaires": null, "infos": null, "metro": null, "bus": null, "tram": null, "parking": null, "debutInfos": null, "finInfos": null, "ville": null, "id": null, "phone": null, "urlBlood": null, "urlPlasma": null, "urlPlatelets": null}
{"address1": null, "address2": "PLACE DE LA GARE", "city": "CROZON", "convocationLabel": "MAISON DU TEMPS LIBRE", "distance": 0.0, "fullAddress": "PLACE DE LA GARE 29160 CROZON", "giveBlood": 1, "givePlasma": 0, "givePlatelet": 0, "regionCode": "016", "groupCode": "F50040", "latitude": 48.24761963, "longitude": -4.49283171, "name": "CROZON J1 TEMPS LIBRE", "postCode": "29160", "samplingLocationCode": "881", "horaires": null, "infos": null, "metro": null, "bus": null, "tram": null, "parking": null, "debutInfos": null, "finInfos": null, "ville": null, "id": null, "phone": null, "urlBlood": null, "urlPlasma": null, "urlPlatelets": null}
