{"address1": null, "address2": "RUE KERIOLET", "city": "PLUVIGNER", "convocationLabel": "ANCIEN RESTAURANT SCOLAIRE", "distance": 0.0, "fullAddress": "RUE KERIOLET 56330 PLUVIGNER", "giveBlood": 1, "givePlasma": 0, "givePlatelet": 0, "regionCode": "016", "groupCode": "F30360", "latitude": 47.7758255, "longitude": -3.0109551, "name": "PLUVIGNER 14 h 30 - 18 h 30", "postCode": "56330", "samplingLocationCode": "10", "horaires": null, "infos": null, "metro": null, "bus": null, "tram": null, "parking": null, "debutInfos": null, "finInfos": null, "ville": null, "id": null, "phone": null, "urlBlood": null, "urlPlasma": null, "urlPlatelets": null}
{"address1": "SALLE DE DANSE", "address2": "1 RUE DU DR PASCAL", "city": "PLUVIGNER", "convocationLabel": "COMPLEXE SPORTIF GOH LANNO", "distance": 0.0, "fullAddress": "SALLE DE DANSE 1 RUE DU DR PASCAL 56330 PLUVIGNER", "giveBlood": 1, "givePlasma": 0, "givePlatelet": 0, "regionCode": "016", "groupCode": "F30360", "latitude": 47.778944, "longitude": -3.006755, "name": "PLUVIGNER GOH LANNO 14H30 ", "postCode": "56330", "samplingLocationCode": "11", "horaires": null, "infos": null, "metro": null, "bus": null, "tram": null, "parking": null, "debutInfos": null, "finInfos": null, "ville": null, "id": null, "phone": null, "urlBlood": null, "urlPlasma": null, "urlPlatelets": null}
{"address1": null, "address2": "18 C MARECHAL LECLERC", "city": "PLUVIGNER", "convocationLabel": "PLUVIGNER SALLE POLYVALENTE MARIE J LE BORGNE", "distance": 0.0, "fullAddress": "18 C MARECHAL LECLERC 56330 PLUVIGNER", "giveBlood": 1, "givePlasma": 0, "givePlatelet": 0, "regionCode": "016", "groupCode": "F30360", "latitude": 47.781616, "longitude": -3.020092, "name": "PLUVIGNER - SALLE POLYVALENTE", "postCode": "56330", "samplingLocationCode": "12", "horaires": null, "infos": null, "metro": null, "bus": null, "tram": null, "parking": null, "debutInfos": null, "finInfos": null, "ville": null, "id": null, "phone": null, "urlBlood": null, "urlPlasma": null, "urlPlatelets": null}
{"address1": "GRANDE SALLE VERTE", "address2": "RUE DE GOH LANNO", "city": "56330", "convocationLabel": "COMPLEXE SPORTIF GOH LANNO", "distance": 0.0, "fullAddress": "GRANDE SALLE VERTE RUE DE GOH LANNO 56330 56330", "giveBlood": 1, "givePlasma": 0, "givePlatelet": 0, "regionCode": "016", "groupCode": "F30360", "latitude": 47.778029, "longitude": -3.004412, "name": "PLUVIGNER GRANDE SALLE VERTE", "postCode": "56330", "samplingLocationCode": "13", "horaires": null, "infos": null, "metro": null, "bus": null, "tram": null, "parking": null, "debutInfos": null, "finInfos": null, "ville": null, "id": null, "phone": null, "urlBlood": null, "urlPlasma": null, "urlPlatelets": null}
{"address1": "SALLE DE DANSE", "address2": "1 RUE DU DR PASCAL", "city": "PLUVIGNER", "convocationLabel": "COMPLEXE SPORTIF GOH LANNO", "distance": 0.0, "fullAddress": "SALLE DE DANSE 1 RUE DU DR PASCAL 56330 PLUVIGNER", "giveBlood": 1, "givePlasma": 0, "givePlatelet": 0, "regionCode": "016", "groupCode": "F30360", "latitude": 47.781616, "longitude": -3.020092, "name": "PLUVIGNER GOH LANNO 9 H - 13 H", "postCode": "56330", "samplingLocationCode": "14", "horaires": null, "infos": null, "metro": null, "bus": null, "tram": null, "parking": null, "debutInfos": null, "finInfos": null, "ville": null, "id": null, "phone": null, "urlBlood": null, "urlPlasma": null, "urlPlatelets": null}
{"address1": null, "address2": "ZA DU TALHOUET", "city": "PLUVIGNER", "convocationLabel": "SALLE BHEC", "distance": 0.0, "fullAddress": "ZA DU TALHOUET 56330 PLUVIGNER", "giveBlood": 1, "givePlasma": 0, "givePlatelet": 0, "regionCode": "016", "groupCode": "F30360", "latitude": 47.781616, "longitude": -3.020092, "name": "PLUVIGNER - BAXTER HILLROM", "postCode": "56330", "samplingLocationCode": "15", "horaires": null, "infos": null, "metro": null, "bus": null, "tram": null, "parking": null, "debutInfos": null, "finInfos": null, "ville": null, "id": null, "phone": null, "urlBlood": null, "urlPlasma": null, "urlPlatelets": null}
{"address1": "SALLE DE DANSE", "address2": "1 RUE DU DR PASCAL", "city": "PLUVIGNER", "convocationLabel": "COMPLEXE SPORTIF GOH LANNO", "distance": 0.0, "fullAddress": "SALLE DE DANSE 1 RUE DU DR PASCAL 56330 PLUVIGNER", "giveBlood": 1, "givePlasma": 0, "givePlatelet": 0, "regionCode": "016", "groupCode": "F30360", "latitude": 47.778944, "longitude": -3.006755, "name": "PLUVIGNER- GOH LANNO 8 h 30", "postCode": "56330", "samplingLocationCode": "1511", "horaires": null, "infos": null, "metro": null, "bus": null, "tram": null, "parking": null, "debutInfos": null, "finInfos": null, "ville": null, "id": null, "phone": null, "urlBlood": null, "urlPlasma": null, "urlPlatelets": null}
{"address1": null, "address2": "ZA DU TALHOUET", "city": "PLUVIGNER", "convocationLabel": "SALLE QUAI 28", "distance": 0.0, "fullAddress": "ZA DU TALHOUET 56330 PLUVIGNER", "giveBlood": 1, "givePlasma": 0, "givePlatelet": 0, "regionCode": "016", "groupCode": "F30360", "latitude": 47.781616, "longitude": -3.020092, "name": "PLUVIGNER - HILLROM QUAI  28", "postCode": "56330", "samplingLocationCode": "16", "horaires": null, "infos": null, "metro": null, "bus": null, "tram": null, "parking": null, "debutInfos": null, "finInfos": null, "ville": null, "id": null, "phone": null, "urlBlood": null, "urlPlasma": null, "urlPlatelets": null}
{"address1": "SALLE DE DANSE", "address2": "1 RUE DU DR PASCAL", "city": "PLUVIGNER", "convocationLabel": "COMPLEXE SPORTIF GOH LANNO", "distance": 0.0, "fullAddress": "SALLE DE DANSE 1 RUE DU DR PASCAL 56330 PLUVIGNER", "giveBlood": 1, "givePlasma": 0, "givePlatelet": 0, "regionCode": "016", "groupCode": "F30360", "latitude": 47.778944, "longitude": -3.006755, "name": "PLUVIGNER- GOH LANNO 15 H", "postCode": "56330", "samplingLocationCode": "2", "horaires": null, "infos": null, "metro": null, "bus": null, "tram": null, "parking": null, "debutInfos": null, "finInfos": null, "ville": null, "id": null, "phone": null, "urlBlood": null, "urlPlasma": null, "urlPlatelets": null}
{"address1": null, "address2": "1 RUE DU DR PASCAL", "city": "PLUVIGNER", "convocationLabel": "SALLE DE SPORT GOH LANNO", "distance": 0.0, "fullAddress": "1 RUE DU DR PASCAL 56330 PLUVIGNER", "giveBlood": 1, "givePlasma": 0, "givePlatelet": 0, "regionCode": "016", "groupCode": "F30360", "latitude": 47.778944, "longitude": -3.006755, "name": "PLUVIGNER- GOH LANNO (S)", "postCode": "56330", "samplingLocationCode": "3", "horaires": null, "infos": null, "metro": null, "bus": null, "tram": null, "parking": null, "debutInfos": null, "finInfos": null, "ville": null, "id": null, "phone": null, "urlBlood": null, "urlPlasma": null, "urlPlatelets": null}
{"address1": null, "address2": "1 RUE DU DR PASCAL", "city": "PLUVIGNER", "convocationLabel": "SALLE DE SPORT GOH LANNO", "distance": 0.0, "fullAddress": "1 RUE DU DR PASCAL 56330 PLUVIGNER", "giveBlood": 1, "givePlasma": 0, "givePlatelet": 0, "regionCode": "016", "groupCode": "F30360", "latitude": 47.778944, "longitude": -3.006755, "name": "SALLE DE SPORT (ETE)", "postCode": "56330", "samplingLocationCode": "4", "horaires": null, "infos": null, "metro": null, "bus": null, "tram": null, "parking": null, "debutInfos": null, "finInfos": null, "ville": null, "id": null, "phone": null, "urlBlood": null, "urlPlasma": null, "urlPlatelets": null}
{"address1": null, "address2": "1 RUE DU DR PASCAL", "city": "PLUVIGNER", "convocationLabel": "SALLE DE SPORT GOH LANNO", "distance": 0.0, "fullAddress": "1 RUE DU DR PASCAL 56330 PLUVIGNER", "giveBlood": 1, "givePlasma": 0, "givePlatelet": 0, "regionCode": "016", "groupCode": "F30360", "latitude": 47.778944, "longitude": -3.006755, "name": "SALLE GOH LANNO (J)", "postCode": "56330", "samplingLocationCode": "5", "horaires": null, "infos": null, "metro": null, "bus": null, "tram": null, "parking": null, "debutInfos": null, "finInfos": null, "ville": null, "id": null, "phone": null, "urlBlood": null, "urlPlasma": null, "urlPlatelets": null}
{"address1": null, "address2": "RUE KERIOLET", "city": "PLUVIGNER", "convocationLabel": "ANCIEN RESTAURANT SCOLAIRE", "distance": 0.0, "fullAddress": "RUE KERIOLET 56330 PLUVIGNER", "giveBlood": 1, "givePlasma": 0, "givePlatelet": 0, "regionCode": "016", "groupCode": "F30360", "latitude": 47.77592087, "longitude": -3.0108788, "name": "PLUVIGNER-RESTO SCOLAIRE 15h", "postCode": "56330", "samplingLocationCode": "6", "horaires": null, "infos": null, "metro": null, "bus": null, "tram": null, "parking": null, "debutInfos": null, "finInfos": null, "ville": null, "id": null, "phone": null, "urlBlood": null, "urlPlasma": null, "urlPlatelets": null}
{"address1": null, "address2": "RUE KERIOLET", "city": "PLUVIGNER", "convocationLabel": "ANCIEN RESTAURANT SCOLAIRE", "distance": 0.0, "fullAddress": "RUE KERIOLET 56330 PLUVIGNER", "giveBlood": 1, "givePlasma": 0, "givePlatelet": 0, "regionCode": "016", "groupCode": "F30360", "latitude": 47.775782, "longitude": -3.010849, "name": "PLUVIGNER-RESTO SCOLAIRE 08h30", "postCode": "56330", "samplingLocationCode": "7", "horaires": null, "infos": null, "metro": null, "bus": null, "tram": null, "parking": null, "debutInfos": null, "finInfos": null, "ville": null, "id": null, "phone": null, "urlBlood": null, "urlPlasma": null, "urlPlatelets": null}
{"address1": null, "address2": "RUE KERIOLET", "city": "PLUVIGNER", "convocationLabel": "RESTAURANT SCOLAIRE", "distance": 0.0, "fullAddress": "RUE KERIOLET 56330 PLUVIGNER", "giveBlood": 1, "givePlasma": 0, "givePlatelet": 0, "regionCode": "016", "groupCode": "F30360", "latitude": 47.775782, "longitude": -3.010849, "name": "PLUVIGNER-RESTO SCOLAIRE", "postCode": "56330", "samplingLocationCode": "8", "horaires": null, "infos": null, "metro": null, "bus": null, "tram": null, "parking": null, "debutInfos": null, "finInfos": null, "ville": null, "id": null, "phone": null, "urlBlood": null, "urlPlasma": null, "urlPlatelets": null}
{"address1": null, "address2": "RUE KERIOLET", "city": "PLUVIGNER", "convocationLabel": "ANCIEN RESTAURANT SCOLAIRE", "distance": 0.0, "fullAddress": "RUE KERIOLET 56330 PLUVIGNER", "giveBlood": 1, "givePlasma": 0, "givePlatelet": 0, "regionCode": "016", "groupCode": "F30360", "latitude": 47.775782, "longitude": -3.010849, "name": "LYCEES / ENTREPRISES PLUVIGNER", "postCode": "56330", "samplingLocationCode": "9", "horaires": null, "infos": null, "metro": null, "bus": null, "tram": null, "parking": null, "debutInfos": null, "finInfos": null, "ville": null, "id": null, "phone": null, "urlBlood": null, "urlPlasma": null, "urlPlatelets": null}
