{"address1": "IUT", "address2": "RUE DE KERGOAT", "city": "BREST", "convocationLabel": null, "distance": 0.0, "fullAddress": "IUT RUE DE KERGOAT 29200 BREST", "giveBlood": 1, "givePlasma": 0, "givePlatelet": 0, "regionCode": "016", "groupCode": "F50105", "latitude": 48.401027, "longitude": -4.503715, "name": "IUT BREST 1J", "postCode": "29200", "samplingLocationCode": "2", "horaires": null, "infos": null, "metro": null, "bus": null, "tram": null, "parking": null, "debutInfos": null, "finInfos": null, "ville": null, "id": null, "phone": null, "urlBlood": null, "urlPlasma": null, "urlPlatelets": null}
{"address1": "IUT", "address2": "RUE DE KERGOAT", "city": "BREST", "convocationLabel": null, "distance": 0.0, "fullAddress": "IUT RUE DE KERGOAT 29200 BREST", "giveBlood": 1, "givePlasma": 0, "givePlatelet": 0, "regionCode": "016", "groupCode": "F50105", "latitude": 48.401027, "longitude": -4.503715, "name": "IUT BREST J2 AUTOMNE", "postCode": "29200", "samplingLocationCode": "3", "horaires": null, "infos": null, "metro": null, "bus": null, "tram": null, "parking": null, "debutInfos": null, "finInfos": null, "ville": null, "id": null, "phone": null, "urlBlood": null, "urlPlasma": null, "urlPlatelets": null}
{"address1": null, "address2": "RUE DE KERGOAT", "city": "BREST", "convocationLabel": "IUT BREST", "distance": 0.0, "fullAddress": "RUE DE KERGOAT 29200 BREST", "giveBlood": 1, "givePlasma": 0, "givePlatelet": 0, "regionCode": "016", "groupCode": "F50105", "latitude": 48.401027, "longitude": -4.503715, "name": "IUT BREST J1 ", "postCode": "29200", "samplingLocationCode": "4", "horaires": null, "infos": null, "metro": null, "bus": null, "tram": null, "parking": null, "debutInfos": null, "finInfos": null, "ville": null, "id": null, "phone": null, "urlBlood": null, "urlPlasma": null, "urlPlatelets": null}
{"address1": null, "address2": "RUE DE KERGOAT", "city": "BREST", "convocationLabel": "IUT BREST", "distance": 0.0, "fullAddress": "RUE DE KERGOAT 29200 BREST", "giveBlood": 1, "givePlasma": 0, "givePlatelet": 0, "regionCode": "016", "groupCode": "F50105", "latitude": 48.401027, "longitude": -4.503715, "name": "IUT BREST J2 ", "postCode": "29200", "samplingLocationCode": "5", "horaires": null, "infos": null, "metro": null, "bus": null, "tram": null, "parking": null, "debutInfos": null, "finInfos": null, "ville": null, "id": null, "phone": null, "urlBlood": null, "urlPlasma": null, "urlPlatelets": null}
{"address1": "IUT", "address2": "RUE DE KERGOAT", "city": "BREST", "convocationLabel": null, "distance": 0.0, "fullAddress": "IUT RUE DE KERGOAT 29200 BREST", "giveBlood": 1, "givePlasma": 0, "givePlatelet": 0, "regionCode": "016", "groupCode": "F50105", "latitude": 48.401027, "longitude": -4.503715, "name": "IUT BREST J1 AUTOMNE", "postCode": "29200", "samplingLocationCode": "729", "horaires": null, "infos": null, "metro": null, "bus": null, "tram": null, "parking": null, "debutInfos": null, "finInfos": null, "ville": null, "id": null, "phone": null, "urlBlood": null, "urlPlasma": null, "urlPlatelets": null}
