{"address1": null, "address2": "1 RUE EMILE QUEMENEUR", "city": "LANDERNEAU", "convocationLabel": "LE HANGAR", "distance": 0.0, "fullAddress": "1 RUE EMILE QUEMENEUR 29800 LANDERNEAU", "giveBlood": 1, "givePlasma": 0, "givePlatelet": 0, "regionCode": "016", "groupCode": "F50117", "latitude": 48.45128632, "longitude": -4.24401712, "name": "LANDERNEAU LE HANGAR J4", "postCode": "29800", "samplingLocationCode": "10", "horaires": null, "infos": null, "metro": null, "bus": null, "tram": null, "parking": null, "debutInfos": null, "finInfos": null, "ville": null, "id": null, "phone": null, "urlBlood": null, "urlPlasma": null, "urlPlatelets": null}
{"address1": null, "address2": "30 QUAI DE LEON", "city": "LANDERNEAU", "convocationLabel": "LE FAMILY", "distance": 0.0, "fullAddress": "30 QUAI DE LEON 29800 LANDERNEAU", "giveBlood": 1, "givePlasma": 0, "givePlatelet": 0, "regionCode": "016", "groupCode": "F50117", "latitude": 48.449725, "longitude": -4.251765, "name": "LE FAMILY 1", "postCode": "29800", "samplingLocationCode": "11", "horaires": null, "infos": null, "metro": null, "bus": null, "tram": null, "parking": null, "debutInfos": null, "finInfos": null, "ville": null, "id": null, "phone": null, "urlBlood": null, "urlPlasma": null, "urlPlatelets": null}
{"address1": null, "address2": "30 QUAI DE LEON", "city": "LANDERNEAU", "convocationLabel": "LE FAMILY", "distance": 0.0, "fullAddress": "30 QUAI DE LEON 29800 LANDERNEAU", "giveBlood": 1, "givePlasma": 0, "givePlatelet": 0, "regionCode": "016", "groupCode": "F50117", "latitude": 48.449725, "longitude": -4.251765, "name": "LE FAMILY 2", "postCode": "29800", "samplingLocationCode": "12", "horaires": null, "infos": null, "metro": null, "bus": null, "tram": null, "parking": null, "debutInfos": null, "finInfos": null, "ville": null, "id": null, "phone": null, "urlBlood": null, "urlPlasma": null, "urlPlatelets": null}
{"address1": null, "address2": "30 QUAI DE LEON", "city": "LANDERNEAU", "convocationLabel": "LE FAMILY", "distance": 0.0, "fullAddress": "30 QUAI DE LEON 29800 LANDERNEAU", "giveBlood": 1, "givePlasma": 0, "givePlatelet": 0, "regionCode": "016", "groupCode": "F50117", "latitude": 48.449725, "longitude": -4.251765, "name": "LE FAMILY 3", "postCode": "29800", "samplingLocationCode": "13", "horaires": null, "infos": null, "metro": null, "bus": null, "tram": null, "parking": null, "debutInfos": null, "finInfos": null, "ville": null, "id": null, "phone": null, "urlBlood": null, "urlPlasma": null, "urlPlatelets": null}
{"address1": null, "address2": "30 QUAI DE LEON", "city": "LANDERNEAU", "convocationLabel": "LE FAMILY", "distance": 0.0, "fullAddress": "30 QUAI DE LEON 29800 LANDERNEAU", "giveBlood": 1, "givePlasma": 0, "givePlatelet": 0, "regionCode": "016", "groupCode": "F50117", "latitude": 48.449725, "longitude": -4.251765, "name": "LE FAMILY 4", "postCode": "29800", "samplingLocationCode": "14", "horaires": null, "infos": null, "metro": null, "bus": null, "tram": null, "parking": null, "debutInfos": null, "finInfos": null, "ville": null, "id": null, "phone": null, "urlBlood": null, "urlPlasma": null, "urlPlatelets": null}
{"address1": null, "address2": "26 RUE SAINT ERNEL", "city": "LANDERNEAU", "convocationLabel": "HALLE SAINT ERNEL", "distance": 0.0, "fullAddress": "26 RUE SAINT ERNEL 29800 LANDERNEAU", "giveBlood": 1, "givePlasma": 0, "givePlatelet": 0, "regionCode": "016", "groupCode": "F50117", "latitude": 48.44389725, "longitude": -4.2631712, "name": "LANDERNEAU SAINT ERNEL J1", "postCode": "29800", "samplingLocationCode": "4", "horaires": null, "infos": null, "metro": null, "bus": null, "tram": null, "parking": null, "debutInfos": null, "finInfos": null, "ville": null, "id": null, "phone": null, "urlBlood": null, "urlPlasma": null, "urlPlatelets": null}
{"address1": null, "address2": "26 RUE SAINT ERNEL", "city": "LANDERNEAU", "convocationLabel": "HALLE SAINT ERNEL", "distance": 0.0, "fullAddress": "26 RUE SAINT ERNEL 29800 LANDERNEAU", "giveBlood": 1, "givePlasma": 0, "givePlatelet": 0, "regionCode": "016", "groupCode": "F50117", "latitude": 48.44389725, "longitude": -4.26318741, "name": "LANDERNEAU SAINT ERNEL J4", "postCode": "29800", "samplingLocationCode": "6", "horaires": null, "infos": null, "metro": null, "bus": null, "tram": null, "parking": null, "debutInfos": null, "finInfos": null, "ville": null, "id": null, "phone": null, "urlBlood": null, "urlPlasma": null, "urlPlatelets": null}
{"address1": null, "address2": "26 RUE SAINT ERNEL", "city": "LANDERNEAU", "convocationLabel": "HALLE SAINT ERNEL", "distance": 0.0, "fullAddress": "26 RUE SAINT ERNEL 29800 LANDERNEAU", "giveBlood": 1, "givePlasma": 0, "givePlatelet": 0, "regionCode": "016", "groupCode": "F50117", "latitude": 48.44389725, "longitude": -4.26321411, "name": "LANDERNEAU SAINT ERNEL J2", "postCode": "29800", "samplingLocationCode": "692", "horaires": null, "infos": null, "metro": null, "bus": null, "tram": null, "parking": null, "debutInfos": null, "finInfos": null, "ville": null, "id": null, "phone": null, "urlBlood": null, "urlPlasma": null, "urlPlatelets": null}
{"address1": null, "address2": "3 RUE EMILE QUEMENEUR", "city": "LANDERNEAU", "convocationLabel": "LE HANGAR", "distance": 0.0, "fullAddress": "3 RUE EMILE QUEMENEUR 29800 LANDERNEAU", "giveBlood": 1, "givePlasma": 0, "givePlatelet": 0, "regionCode": "016", "groupCode": "F50117", "latitude": 48.45128632, "longitude": -4.24401712, "name": "LANDERNEAU LE HANGAR J1", "postCode": "29800", "samplingLocationCode": "7", "horaires": null, "infos": null, "metro": null, "bus": null, "tram": null, "parking": null, "debutInfos": null, "finInfos": null, "ville": null, "id": null, "phone": null, "urlBlood": null, "urlPlasma": null, "urlPlatelets": null}
{"address1": null, "address2": "26 RUE SAINT ERNEL", "city": "LANDERNEAU", "convocationLabel": "HALLE SAINT ERNEL", "distance": 0.0, "fullAddress": "26 RUE SAINT ERNEL 29800 LANDERNEAU", "giveBlood": 1, "givePlasma": 0, "givePlatelet": 0, "regionCode": "016", "groupCode": "F50117", "latitude": 48.44389725, "longitude": -4.26318741, "name": "LANDERNEAU SAINT ERNEL J3", "postCode": "29800", "samplingLocationCode": "717", "horaires": null, "infos": null, "metro": null, "bus": null, "tram": null, "parking": null, "debutInfos": null, "finInfos": null, "ville": null, "id": null, "phone": null, "urlBlood": null, "urlPlasma": null, "urlPlatelets": null}
{"address1": null, "address2": "3 RUE EMILE QUEMENEUR", "city": "LANDERNEAU", "convocationLabel": "LE HANGAR", "distance": 0.0, "fullAddress": "3 RUE EMILE QUEMENEUR 29800 LANDERNEAU", "giveBlood": 1, "givePlasma": 0, "givePlatelet": 0, "regionCode": "016", "groupCode": "F50117", "latitude": 48.45128632, "longitude": -4.24401712, "name": "LANDERNEAU LE HANGAR J2", "postCode": "29800", "samplingLocationCode": "8", "horaires": null, "infos": null, "metro": null, "bus": null, "tram": null, "parking": null, "debutInfos": null, "finInfos": null, "ville": null, "id": null, "phone": null, "urlBlood": null, "urlPlasma": null, "urlPlatelets": null}
{"address1": null, "address2": "3 RUE EMILE QUEMENEUR", "city": "LANDERNEAU", "convocationLabel": "LE HANGAR", "distance": 0.0, "fullAddress": "3 RUE EMILE QUEMENEUR 29800 LANDERNEAU", "giveBlood": 1, "givePlasma": 0, "givePlatelet": 0, "regionCode": "016", "groupCode": "F50117", "latitude": 48.45128632, "longitude": -4.24401712, "name": "LANDERNEAU LE HANGAR J3", "postCode": "29800", "samplingLocationCode": "9", "horaires": null, "infos": null, "metro": null, "bus": null, "tram": null, "parking": null, "debutInfos": null, "finInfos": null, "ville": null, "id": null, "phone": null, "urlBlood": null, "urlPlasma": null, "urlPlatelets": null}
