{"address1": "FACULTE DE DROIT", "address2": "9 RUE JEAN MACE", "city": "RENNES", "convocationLabel": "SALLE DE RECEPTION", "distance": 0.0, "fullAddress": "FACULTE DE DROIT 9 RUE JEAN MACE 35000 RENNES", "giveBlood": 1, "givePlasma": 0, "givePlatelet": 0, "regionCode": "016", "groupCode": "F70598", "latitude": 48.11781311, "longitude": -1.66997004, "name": "FACULTE DE DROIT (12-18H)", "postCode": "35000", "samplingLocationCode": "2", "horaires": null, "infos": null, "metro": null, "bus": null, "tram": null, "parking": null, "debutInfos": null, "finInfos": null, "ville": null, "id": null, "phone": null, "urlBlood": null, "urlPlasma": null, "urlPlatelets": null}
{"address1": "SALLE DE RECEPTION", "address2": "9 RUE JEAN MACE", "city": "RENNES", "convocationLabel": "FACULTE DE DROIT", "distance": 0.0, "fullAddress": "SALLE DE RECEPTION 9 RUE JEAN MACE 35000 RENNES", "giveBlood": 1, "givePlasma": 0, "givePlatelet": 0, "regionCode": "016", "groupCode": "F70598", "latitude": 48.11781311, "longitude": -1.66997004, "name": "2 FAC DROIT-RECEPT DAM ", "postCode": "35000", "samplingLocationCode": "3", "horaires": null, "infos": null, "metro": null, "bus": null, "tram": null, "parking": null, "debutInfos": null, "finInfos": null, "ville": null, "id": null, "phone": null, "urlBlood": null, "urlPlasma": null, "urlPlatelets": null}
{"address1": "SALLE DE RECEPTION", "address2": "9 RUE JEAN MACE", "city": "RENNES", "convocationLabel": "FACULTE DE DROIT", "distance": 0.0, "fullAddress": "SALLE DE RECEPTION 9 RUE JEAN MACE 35000 RENNES", "giveBlood": 1, "givePlasma": 0, "givePlatelet": 0, "regionCode": "016", "groupCode": "F70598", "latitude": 48.11781311, "longitude": -1.66997004, "name": "2 FAC DROIT-RECEPT J+1030-1630", "postCode": "35000", "samplingLocationCode": "4", "horaires": null, "infos": null, "metro": null, "bus": null, "tram": null, "parking": null, "debutInfos": null, "finInfos": null, "ville": null, "id": null, "phone": null, "urlBlood": null, "urlPlasma": null, "urlPlatelets": null}
{"address1": "SALLE DE RECEPTION", "address2": "9 RUE JEAN MACE", "city": "RENNES", "convocationLabel": "FACULTE DE DROIT", "distance": 0.0, "fullAddress": "SALLE DE RECEPTION 9 RUE JEAN MACE 35000 RENNES", "giveBlood": 1, "givePlasma": 0, "givePlatelet": 0, "regionCode": "016", "groupCode": "F70598", "latitude": 48.11781311, "longitude": -1.66997004, "name": "2 FAC DROIT-RECEPT MAT/AM", "postCode": "35000", "samplingLocationCode": "5", "horaires": null, "infos": null, "metro": null, "bus": null, "tram": null, "parking": null, "debutInfos": null, "finInfos": null, "ville": null, "id": null, "phone": null, "urlBlood": null, "urlPlasma": null, "urlPlatelets": null}
{"address1": "SALLE DE RECEPTION", "address2": "9 RUE JEAN MACE", "city": "RENNES", "convocationLabel": "FACULTE DE DROIT", "distance": 0.0, "fullAddress": "SALLE DE RECEPTION 9 RUE JEAN MACE 35000 RENNES", "giveBlood": 1, "givePlasma": 0, "givePlatelet": 0, "regionCode": "016", "groupCode": "F70598", "latitude": 48.11781311, "longitude": -1.66997004, "name": "2 FAC DROIT-RECEPT MAT/AM J+", "postCode": "35000", "samplingLocationCode": "6", "horaires": null, "infos": null, "metro": null, "bus": null, "tram": null, "parking": null, "debutInfos": null, "finInfos": null, "ville": null, "id": null, "phone": null, "urlBlood": null, "urlPlasma": null, "urlPlatelets": null}
{"address1": null, "address2": "9 RUE JEAN MACE", "city": "RENNES", "convocationLabel": "SALLE DE RECEPTION", "distance": 0.0, "fullAddress": "9 RUE JEAN MACE 35000 RENNES", "giveBlood": 1, "givePlasma": 0, "givePlatelet": 0, "regionCode": "016", "groupCode": "F70598", "latitude": 48.11781311, "longitude": -1.66997004, "name": "FACULTE DE DROIT", "postCode": "35000", "samplingLocationCode": "632", "horaires": null, "infos": null, "metro": null, "bus": null, "tram": null, "parking": null, "debutInfos": null, "finInfos": null, "ville": null, "id": null, "phone": null, "urlBlood": null, "urlPlasma": null, "urlPlatelets": null}
{"address1": null, "address2": "11 RUE JEAN MACE", "city": "RENNES", "convocationLabel": "SALLE 13 ET 14", "distance": 0.0, "fullAddress": "11 RUE JEAN MACE 35708 RENNES", "giveBlood": 1, "givePlasma": 0, "givePlatelet": 0, "regionCode": "016", "groupCode": "F70598", "latitude": 48.117624, "longitude": -1.66859, "name": "2-RENNES-IGR MAT/AM", "postCode": "35708", "samplingLocationCode": "7", "horaires": null, "infos": null, "metro": null, "bus": null, "tram": null, "parking": null, "debutInfos": null, "finInfos": null, "ville": null, "id": null, "phone": null, "urlBlood": null, "urlPlasma": null, "urlPlatelets": null}
