{"address1": null, "address2": "AVENUE ABBE BARBEDET", "city": "ACIGNE", "convocationLabel": "SALLE GLENMOR", "distance": 0.0, "fullAddress": "AVENUE ABBE BARBEDET 35690 ACIGNE", "giveBlood": 1, "givePlasma": 0, "givePlatelet": 0, "regionCode": "016", "groupCode": "F70001", "latitude": 48.134075, "longitude": -1.53658, "name": "ACIGNE SAMEDI", "postCode": "35690", "samplingLocationCode": "2", "horaires": null, "infos": null, "metro": null, "bus": null, "tram": null, "parking": null, "debutInfos": null, "finInfos": null, "ville": null, "id": null, "phone": null, "urlBlood": null, "urlPlasma": null, "urlPlatelets": null}
{"address1": null, "address2": "AVENUE ABBE BARBEDET", "city": "ACIGNE", "convocationLabel": "SALLE GLENMOR", "distance": 0.0, "fullAddress": "AVENUE ABBE BARBEDET 35690 ACIGNE", "giveBlood": 1, "givePlasma": 0, "givePlatelet": 0, "regionCode": "016", "groupCode": "F70001", "latitude": 48.134075, "longitude": -1.53658, "name": "ACIGNE SEMAINE", "postCode": "35690", "samplingLocationCode": "3", "horaires": null, "infos": null, "metro": null, "bus": null, "tram": null, "parking": null, "debutInfos": null, "finInfos": null, "ville": null, "id": null, "phone": null, "urlBlood": null, "urlPlasma": null, "urlPlatelets": null}
{"address1": null, "address2": "AVENUE ABBE BARBEDET", "city": "ACIGNE", "convocationLabel": "SALLE GLENMOR", "distance": 0.0, "fullAddress": "AVENUE ABBE BARBEDET 35690 ACIGNE", "giveBlood": 1, "givePlasma": 0, "givePlatelet": 0, "regionCode": "016", "groupCode": "F70001", "latitude": 48.134075, "longitude": -1.53658, "name": "ACIGNE SAMEDI", "postCode": "35690", "samplingLocationCode": "4", "horaires": null, "infos": null, "metro": null, "bus": null, "tram": null, "parking": null, "debutInfos": null, "finInfos": null, "ville": null, "id": null, "phone": null, "urlBlood": null, "urlPlasma": null, "urlPlatelets": null}
{"address1": null, "address2": "AVENUE ABBE BARBEDET", "city": "ACIGNE", "convocationLabel": "SALLE GLENMOR (avenue Abb\u00e9 Barbedet)", "distance": 0.0, "fullAddress": "AVENUE ABBE BARBEDET 35690 ACIGNE", "giveBlood": 1, "givePlasma": 0, "givePlatelet": 0, "regionCode": "016", "groupCode": "F70001", "latitude": 48.134075, "longitude": -1.53658, "name": "2 ACIGNE-GLENMOR DAM", "postCode": "35690", "samplingLocationCode": "5", "horaires": null, "infos": null, "metro": null, "bus": null, "tram": null, "parking": null, "debutInfos": null, "finInfos": null, "ville": null, "id": null, "phone": null, "urlBlood": null, "urlPlasma": null, "urlPlatelets": null}
{"address1": null, "address2": "AVENUE ABBE BARBEDET", "city": "ACIGNE", "convocationLabel": "SALLE GLENMOR (avenue Abb\u00e9 Barbedet)", "distance": 0.0, "fullAddress": "AVENUE ABBE BARBEDET 35690 ACIGNE", "giveBlood": 1, "givePlasma": 0, "givePlatelet": 0, "regionCode": "016", "groupCode": "F70001", "latitude": 48.134075, "longitude": -1.53658, "name": "2 ACIGNE-GLENMOR AM ", "postCode": "35690", "samplingLocationCode": "6", "horaires": null, "infos": null, "metro": null, "bus": null, "tram": null, "parking": null, "debutInfos": null, "finInfos": null, "ville": null, "id": null, "phone": null, "urlBlood": null, "urlPlasma": null, "urlPlatelets": null}
{"address1": null, "address2": "AVENUE ABBE BARBEDET", "city": "ACIGNE", "convocationLabel": "SALLE GLENMOR", "distance": 0.0, "fullAddress": "AVENUE ABBE BARBEDET 35690 ACIGNE", "giveBlood": 1, "givePlasma": 0, "givePlatelet": 0, "regionCode": "016", "groupCode": "F70001", "latitude": 48.134075, "longitude": -1.53658, "name": "ACIGNE SAMEDI matin", "postCode": "35690", "samplingLocationCode": "7", "horaires": null, "infos": null, "metro": null, "bus": null, "tram": null, "parking": null, "debutInfos": null, "finInfos": null, "ville": null, "id": null, "phone": null, "urlBlood": null, "urlPlasma": null, "urlPlatelets": null}
{"address1": null, "address2": "AVENUE ABBE BARBEDET", "city": "ACIGNE", "convocationLabel": "SALLE GLENMOR (avenue Abb\u00e9 Barbedet)", "distance": 0.0, "fullAddress": "AVENUE ABBE BARBEDET 35690 ACIGNE", "giveBlood": 1, "givePlasma": 0, "givePlatelet": 0, "regionCode": "016", "groupCode": "F70001", "latitude": 48.1339798, "longitude": -1.53685486, "name": "2 ACIGNE-GLENMOR VE AM", "postCode": "35690", "samplingLocationCode": "8", "horaires": null, "infos": null, "metro": null, "bus": null, "tram": null, "parking": null, "debutInfos": null, "finInfos": null, "ville": null, "id": null, "phone": null, "urlBlood": null, "urlPlasma": null, "urlPlatelets": null}
