{"address1": "SALLE GROIX", "address2": "4 Rue Jean Zay", "city": "LORIENT", "convocationLabel": "UBS Paquebot", "distance": 0.0, "fullAddress": "SALLE GROIX 4 Rue Jean Zay 56100 LORIENT", "giveBlood": 1, "givePlasma": 0, "givePlatelet": 0, "regionCode": "016", "groupCode": "F30296", "latitude": 47.743076, "longitude": -3.384923, "name": "LORIENT UBS Paquebot pm", "postCode": "56100", "samplingLocationCode": "2", "horaires": null, "infos": null, "metro": null, "bus": null, "tram": null, "parking": null, "debutInfos": null, "finInfos": null, "ville": null, "id": null, "phone": null, "urlBlood": null, "urlPlasma": null, "urlPlatelets": null}
{"address1": "SALLE GROIX", "address2": "4 Rue Jean Zay", "city": "LORIENT", "convocationLabel": "UBS FAC DE LETTRES", "distance": 0.0, "fullAddress": "SALLE GROIX 4 Rue Jean Zay 56100 LORIENT", "giveBlood": 1, "givePlasma": 0, "givePlatelet": 0, "regionCode": "016", "groupCode": "F30296", "latitude": 47.74825287, "longitude": -3.37024498, "name": "LORIENT UBS 12 h - 16 h", "postCode": "56100", "samplingLocationCode": "3", "horaires": null, "infos": null, "metro": null, "bus": null, "tram": null, "parking": null, "debutInfos": null, "finInfos": null, "ville": null, "id": null, "phone": null, "urlBlood": null, "urlPlasma": null, "urlPlatelets": null}
{"address1": "SALLE GROIX", "address2": "4 Rue Jean Zay", "city": "LORIENT", "convocationLabel": "UBS FAC DE LETTRES", "distance": 0.0, "fullAddress": "SALLE GROIX 4 Rue Jean Zay 56100 LORIENT", "giveBlood": 1, "givePlasma": 0, "givePlatelet": 0, "regionCode": "016", "groupCode": "F30296", "latitude": 47.74825287, "longitude": -3.37024498, "name": "LORIENT-U.b.s  9 h - 13 h", "postCode": "56100", "samplingLocationCode": "4", "horaires": null, "infos": null, "metro": null, "bus": null, "tram": null, "parking": null, "debutInfos": null, "finInfos": null, "ville": null, "id": null, "phone": null, "urlBlood": null, "urlPlasma": null, "urlPlatelets": null}
{"address1": "SALLE REZ DE CHAUSSEE-GROIX", "address2": "UNIVERSITE DE BRETAGNE SUD-PAQUEBOT", "city": "LORIENT", "convocationLabel": "LORIENT-U.b.s Paquebot", "distance": 0.0, "fullAddress": "SALLE REZ DE CHAUSSEE-GROIX UNIVERSITE DE BRETAGNE SUD-PAQUEBOT 56100 LORIENT", "giveBlood": 1, "givePlasma": 0, "givePlatelet": 0, "regionCode": "016", "groupCode": "F30296", "latitude": 47.750133, "longitude": -3.377921, "name": "LORIENT-U.b.s Paquebot", "postCode": "56100", "samplingLocationCode": "976", "horaires": null, "infos": null, "metro": null, "bus": null, "tram": null, "parking": null, "debutInfos": null, "finInfos": null, "ville": null, "id": null, "phone": null, "urlBlood": null, "urlPlasma": null, "urlPlatelets": null}
