{"address1": null, "address2": "ALLEE DU PLESSIS SEVIGNE", "city": "ARGENTRE DU PLESSIS", "convocationLabel": "CENTRE CULTUREL LE PLESSIS SEVIGNE", "distance": 0.0, "fullAddress": "ALLEE DU PLESSIS SEVIGNE 35370 ARGENTRE DU PLESSIS", "giveBlood": 1, "givePlasma": 0, "givePlatelet": 0, "regionCode": "016", "groupCode": "F70005", "latitude": 48.05855, "longitude": -1.157643, "name": "ARGENTRE DU PLESSIS", "postCode": "35370", "samplingLocationCode": "18", "horaires": null, "infos": null, "metro": null, "bus": null, "tram": null, "parking": null, "debutInfos": null, "finInfos": null, "ville": null, "id": null, "phone": null, "urlBlood": null, "urlPlasma": null, "urlPlatelets": null}
{"address1": null, "address2": "ALLEE DU PLESSIS SEVIGNE", "city": "ARGENTRE DU PLESSIS", "convocationLabel": "CENTRE CULTUREL  LE PLESSIS SEVIGNE", "distance": 0.0, "fullAddress": "ALLEE DU PLESSIS SEVIGNE 35370 ARGENTRE DU PLESSIS", "giveBlood": 1, "givePlasma": 0, "givePlatelet": 0, "regionCode": "016", "groupCode": "F70005", "latitude": 48.05731583, "longitude": -1.14831197, "name": "ARGENTRE DU PLESSIS MAT", "postCode": "35370", "samplingLocationCode": "2", "horaires": null, "infos": null, "metro": null, "bus": null, "tram": null, "parking": null, "debutInfos": null, "finInfos": null, "ville": null, "id": null, "phone": null, "urlBlood": null, "urlPlasma": null, "urlPlatelets": null}
{"address1": null, "address2": "ALLEE DU PLESSIS SEVIGNE", "city": "ARGENTRE DU PLESSIS", "convocationLabel": "CENTRE CULTUREL  LE PLESSIS SEVIGNE", "distance": 0.0, "fullAddress": "ALLEE DU PLESSIS SEVIGNE 35370 ARGENTRE DU PLESSIS", "giveBlood": 1, "givePlasma": 0, "givePlatelet": 0, "regionCode": "016", "groupCode": "F70005", "latitude": 48.05731583, "longitude": -1.14831197, "name": "ARGENTRE DU PLESSIS AM", "postCode": "35370", "samplingLocationCode": "3", "horaires": null, "infos": null, "metro": null, "bus": null, "tram": null, "parking": null, "debutInfos": null, "finInfos": null, "ville": null, "id": null, "phone": null, "urlBlood": null, "urlPlasma": null, "urlPlatelets": null}
{"address1": null, "address2": "ALLEE DU PLESSIS SEVIGNE", "city": "ARGENTRE DU PLESSIS", "convocationLabel": "CENTRE CULTUREL LE PLESSIS SEVIGNE", "distance": 0.0, "fullAddress": "ALLEE DU PLESSIS SEVIGNE 35370 ARGENTRE DU PLESSIS", "giveBlood": 1, "givePlasma": 0, "givePlatelet": 0, "regionCode": "016", "groupCode": "F70005", "latitude": 48.05989456, "longitude": -1.15869999, "name": "2 ARGENTRE-CC SEVIGNE MAT ", "postCode": "35370", "samplingLocationCode": "4", "horaires": null, "infos": null, "metro": null, "bus": null, "tram": null, "parking": null, "debutInfos": null, "finInfos": null, "ville": null, "id": null, "phone": null, "urlBlood": null, "urlPlasma": null, "urlPlatelets": null}
{"address1": null, "address2": "ALLEE DU PLESSIS SEVIGNE", "city": "ARGENTRE DU PLESSIS", "convocationLabel": "CENTRE CULTUREL  LE PLESSIS SEVIGNE", "distance": 0.0, "fullAddress": "ALLEE DU PLESSIS SEVIGNE 35370 ARGENTRE DU PLESSIS", "giveBlood": 1, "givePlasma": 0, "givePlatelet": 0, "regionCode": "016", "groupCode": "F70005", "latitude": 48.06064606, "longitude": -1.15853274, "name": "2 ARGENTRE-CC SEVIGNE AM J2", "postCode": "35370", "samplingLocationCode": "5", "horaires": null, "infos": null, "metro": null, "bus": null, "tram": null, "parking": null, "debutInfos": null, "finInfos": null, "ville": null, "id": null, "phone": null, "urlBlood": null, "urlPlasma": null, "urlPlatelets": null}
{"address1": null, "address2": "ALLEE DU PLESSIS SEVIGNE", "city": "ARGENTRE DU PLESSIS", "convocationLabel": "CENTRE CULTUREL LE PLESSIS SEVIGNE", "distance": 0.0, "fullAddress": "ALLEE DU PLESSIS SEVIGNE 35370 ARGENTRE DU PLESSIS", "giveBlood": 1, "givePlasma": 0, "givePlatelet": 0, "regionCode": "016", "groupCode": "F70005", "latitude": 48.06064606, "longitude": -1.15853274, "name": "2 ARGENTRE-CC SEVIGNE MAT J1", "postCode": "35370", "samplingLocationCode": "6", "horaires": null, "infos": null, "metro": null, "bus": null, "tram": null, "parking": null, "debutInfos": null, "finInfos": null, "ville": null, "id": null, "phone": null, "urlBlood": null, "urlPlasma": null, "urlPlatelets": null}
{"address1": null, "address2": "ALLEE DU PLESSIS SEVIGNE", "city": "ARGENTRE DU PLESSIS", "convocationLabel": "CENTRE CULTUREL LE PLESSIS SEVIGNE", "distance": 0.0, "fullAddress": "ALLEE DU PLESSIS SEVIGNE 35370 ARGENTRE DU PLESSIS", "giveBlood": 1, "givePlasma": 0, "givePlatelet": 0, "regionCode": "016", "groupCode": "F70005", "latitude": 48.047686, "longitude": -1.147579, "name": "2 ARGENTRE-CC SEVIGNE JO", "postCode": "35370", "samplingLocationCode": "7", "horaires": null, "infos": null, "metro": null, "bus": null, "tram": null, "parking": null, "debutInfos": null, "finInfos": null, "ville": null, "id": null, "phone": null, "urlBlood": null, "urlPlasma": null, "urlPlatelets": null}
