{"address1": null, "address2": "1 RUE DU STADE", "city": "SAINT JACUT LES PINS", "convocationLabel": "SALLE POLYVALENTE", "distance": 0.0, "fullAddress": "1 RUE DU STADE 56220 SAINT JACUT LES PINS", "giveBlood": 1, "givePlasma": 0, "givePlatelet": 0, "regionCode": "016", "groupCode": "F30383", "latitude": 47.685456, "longitude": -2.217189, "name": "SAINT JACUT LES PINS 9 -13 h", "postCode": "56220", "samplingLocationCode": "1551", "horaires": null, "infos": null, "metro": null, "bus": null, "tram": null, "parking": null, "debutInfos": null, "finInfos": null, "ville": null, "id": null, "phone": null, "urlBlood": null, "urlPlasma": null, "urlPlatelets": null}
{"address1": null, "address2": "1 RUE DU STADE", "city": "SAINT JACUT LES PINS", "convocationLabel": "SALLE POLYVALENTE", "distance": 0.0, "fullAddress": "1 RUE DU STADE 56220 SAINT JACUT LES PINS", "giveBlood": 1, "givePlasma": 0, "givePlatelet": 0, "regionCode": "016", "groupCode": "F30383", "latitude": 47.685456, "longitude": -2.217189, "name": "SAINT JACUT LES PINS J", "postCode": "56220", "samplingLocationCode": "2", "horaires": null, "infos": null, "metro": null, "bus": null, "tram": null, "parking": null, "debutInfos": null, "finInfos": null, "ville": null, "id": null, "phone": null, "urlBlood": null, "urlPlasma": null, "urlPlatelets": null}
{"address1": null, "address2": "1 RUE DU STADE", "city": "SAINT JACUT LES PINS", "convocationLabel": "SALLE POLYVALENTE", "distance": 0.0, "fullAddress": "1 RUE DU STADE 56220 SAINT JACUT LES PINS", "giveBlood": 1, "givePlasma": 0, "givePlatelet": 0, "regionCode": "016", "groupCode": "F30383", "latitude": 47.685456, "longitude": -2.217189, "name": "SAINT JACUT LES PINS 14 h 30", "postCode": "56220", "samplingLocationCode": "3", "horaires": null, "infos": null, "metro": null, "bus": null, "tram": null, "parking": null, "debutInfos": null, "finInfos": null, "ville": null, "id": null, "phone": null, "urlBlood": null, "urlPlasma": null, "urlPlatelets": null}
{"address1": null, "address2": "1 RUE DU STADE", "city": "ST JACUT LES PINS", "convocationLabel": "SALLE POLYVALENTE", "distance": 0.0, "fullAddress": "1 RUE DU STADE 56220 ST JACUT LES PINS", "giveBlood": 1, "givePlasma": 0, "givePlatelet": 0, "regionCode": "016", "groupCode": "F30383", "latitude": 47.685456, "longitude": -2.217189, "name": "SAINT JACUT LES PINS S", "postCode": "56220", "samplingLocationCode": "4", "horaires": null, "infos": null, "metro": null, "bus": null, "tram": null, "parking": null, "debutInfos": null, "finInfos": null, "ville": null, "id": null, "phone": null, "urlBlood": null, "urlPlasma": null, "urlPlatelets": null}
{"address1": null, "address2": "1 RUE DU STADE", "city": "SAINT JACUT LES PINS", "convocationLabel": "SALLE POLYVALENTE", "distance": 0.0, "fullAddress": "1 RUE DU STADE 56220 SAINT JACUT LES PINS", "giveBlood": 1, "givePlasma": 0, "givePlatelet": 0, "regionCode": "016", "groupCode": "F30383", "latitude": 47.685456, "longitude": -2.217189, "name": "ST JACUT LES PINS 12h-16h", "postCode": "56220", "samplingLocationCode": "5", "horaires": null, "infos": null, "metro": null, "bus": null, "tram": null, "parking": null, "debutInfos": null, "finInfos": null, "ville": null, "id": null, "phone": null, "urlBlood": null, "urlPlasma": null, "urlPlatelets": null}
{"address1": null, "address2": "1 RUE DU STADE", "city": "SAINT JACUT LES PINS", "convocationLabel": "SALLE POLYVALENTE", "distance": 0.0, "fullAddress": "1 RUE DU STADE 56220 SAINT JACUT LES PINS", "giveBlood": 1, "givePlasma": 0, "givePlatelet": 0, "regionCode": "016", "groupCode": "F30383", "latitude": 47.685456, "longitude": -2.217189, "name": "ST JACUT LES PINS 14 h 18h", "postCode": "56220", "samplingLocationCode": "6", "horaires": null, "infos": null, "metro": null, "bus": null, "tram": null, "parking": null, "debutInfos": null, "finInfos": null, "ville": null, "id": null, "phone": null, "urlBlood": null, "urlPlasma": null, "urlPlatelets": null}
