{"address1": null, "address2": "RUE DE LIMUR", "city": "SENE", "convocationLabel": "MAISON DU TEMPS LIBRE LIMUR", "distance": 0.0, "fullAddress": "RUE DE LIMUR 56860 SENE", "giveBlood": 1, "givePlasma": 0, "givePlatelet": 0, "regionCode": "016", "groupCode": "F30391", "latitude": 47.64878845, "longitude": -2.73013353, "name": "SENE MTL 15 H - 19 H", "postCode": "56860", "samplingLocationCode": "1464", "horaires": null, "infos": null, "metro": null, "bus": null, "tram": null, "parking": null, "debutInfos": null, "finInfos": null, "ville": null, "id": null, "phone": null, "urlBlood": null, "urlPlasma": null, "urlPlatelets": null}
{"address1": null, "address2": "RUE DU 19 MARS 1962", "city": "SENE", "convocationLabel": "MAISON DES ASSOCIATIONS", "distance": 0.0, "fullAddress": "RUE DU 19 MARS 1962 56860 SENE", "giveBlood": 1, "givePlasma": 0, "givePlatelet": 0, "regionCode": "016", "groupCode": "F30391", "latitude": 47.61819839, "longitude": -2.73548031, "name": "SENE MAISON DES ASSOCIATIONS S", "postCode": "56860", "samplingLocationCode": "2", "horaires": null, "infos": null, "metro": null, "bus": null, "tram": null, "parking": null, "debutInfos": null, "finInfos": null, "ville": null, "id": null, "phone": null, "urlBlood": null, "urlPlasma": null, "urlPlatelets": null}
{"address1": null, "address2": "RUE DU 19 MARS 1962", "city": "SENE", "convocationLabel": "MAISON DES ASSOCIATIONS", "distance": 0.0, "fullAddress": "RUE DU 19 MARS 1962 56860 SENE", "giveBlood": 1, "givePlasma": 0, "givePlatelet": 0, "regionCode": "016", "groupCode": "F30391", "latitude": 47.618577, "longitude": -2.735331, "name": "MAISON DES ASSOCIATIONS J", "postCode": "56860", "samplingLocationCode": "3", "horaires": null, "infos": null, "metro": null, "bus": null, "tram": null, "parking": null, "debutInfos": null, "finInfos": null, "ville": null, "id": null, "phone": null, "urlBlood": null, "urlPlasma": null, "urlPlatelets": null}
{"address1": null, "address2": "RUE DU 19 MARS 1962", "city": "SENE", "convocationLabel": "MAISON DES ASSOCIATIONS", "distance": 0.0, "fullAddress": "RUE DU 19 MARS 1962 56860 SENE", "giveBlood": 1, "givePlasma": 0, "givePlatelet": 0, "regionCode": "016", "groupCode": "F30391", "latitude": 47.618577, "longitude": -2.735331, "name": "SENE-MAISON DES ASSOC AM", "postCode": "56860", "samplingLocationCode": "4", "horaires": null, "infos": null, "metro": null, "bus": null, "tram": null, "parking": null, "debutInfos": null, "finInfos": null, "ville": null, "id": null, "phone": null, "urlBlood": null, "urlPlasma": null, "urlPlatelets": null}
