{"address1": null, "address2": "6 RUE JULES FERRY", "city": "QUIBERON", "convocationLabel": "MAISON DES ASSOCIATIONS", "distance": 0.0, "fullAddress": "6 RUE JULES FERRY 56170 QUIBERON", "giveBlood": 1, "givePlasma": 0, "givePlatelet": 0, "regionCode": "016", "groupCode": "F30370", "latitude": 47.48454285, "longitude": -3.1218152, "name": "QUIBERON M.  ASSO. 14 H 30 ", "postCode": "56170", "samplingLocationCode": "10", "horaires": null, "infos": null, "metro": null, "bus": null, "tram": null, "parking": null, "debutInfos": null, "finInfos": null, "ville": null, "id": null, "phone": null, "urlBlood": null, "urlPlasma": null, "urlPlatelets": null}
{"address1": null, "address2": "BOULEVARD RENE CASSIN", "city": "QUIBERON", "convocationLabel": "ESPACE LOUISON BOBET", "distance": 0.0, "fullAddress": "BOULEVARD RENE CASSIN 56170 QUIBERON", "giveBlood": 1, "givePlasma": 0, "givePlatelet": 0, "regionCode": "016", "groupCode": "F30370", "latitude": 47.474335, "longitude": -3.110774, "name": "QUIBERON 14 h 45 - 18 h 15", "postCode": "56170", "samplingLocationCode": "11", "horaires": null, "infos": null, "metro": null, "bus": null, "tram": null, "parking": null, "debutInfos": null, "finInfos": null, "ville": null, "id": null, "phone": null, "urlBlood": null, "urlPlasma": null, "urlPlatelets": null}
{"address1": null, "address2": "BOULEVARD RENE CASSIN", "city": "QUIBERON", "convocationLabel": "ESPACE LOUISON BOBET", "distance": 0.0, "fullAddress": "BOULEVARD RENE CASSIN 56170 QUIBERON", "giveBlood": 1, "givePlasma": 0, "givePlatelet": 0, "regionCode": "016", "groupCode": "F30370", "latitude": 47.47572708, "longitude": -3.11186767, "name": "QUIBERON L BOBET 9H 13 h", "postCode": "56170", "samplingLocationCode": "12", "horaires": null, "infos": null, "metro": null, "bus": null, "tram": null, "parking": null, "debutInfos": null, "finInfos": null, "ville": null, "id": null, "phone": null, "urlBlood": null, "urlPlasma": null, "urlPlatelets": null}
{"address1": null, "address2": "BOULEVARD RENE CASSIN", "city": "QUIBERON", "convocationLabel": "ESPACE LOUISON BOBET", "distance": 0.0, "fullAddress": "BOULEVARD RENE CASSIN 56170 QUIBERON", "giveBlood": 1, "givePlasma": 0, "givePlatelet": 0, "regionCode": "016", "groupCode": "F30370", "latitude": 47.47572708, "longitude": -3.11186767, "name": "QUIBERON L B 14 h 45 - 18 h 30", "postCode": "56170", "samplingLocationCode": "13", "horaires": null, "infos": null, "metro": null, "bus": null, "tram": null, "parking": null, "debutInfos": null, "finInfos": null, "ville": null, "id": null, "phone": null, "urlBlood": null, "urlPlasma": null, "urlPlatelets": null}
{"address1": null, "address2": "6 RUE JULES FERRY", "city": "QUIBERON", "convocationLabel": "MAISON DES ASSOCIATIONS", "distance": 0.0, "fullAddress": "6 RUE JULES FERRY 56170 QUIBERON", "giveBlood": 1, "givePlasma": 0, "givePlatelet": 0, "regionCode": "016", "groupCode": "F30370", "latitude": 47.4844, "longitude": -3.1205, "name": "QUIBERON M ASSO 14H45 18H30", "postCode": "56170", "samplingLocationCode": "14", "horaires": null, "infos": null, "metro": null, "bus": null, "tram": null, "parking": null, "debutInfos": null, "finInfos": null, "ville": null, "id": null, "phone": null, "urlBlood": null, "urlPlasma": null, "urlPlatelets": null}
{"address1": null, "address2": "6 RUE JULES FERRY", "city": "QUIBERON", "convocationLabel": "MAISON DES ASSOCIATIONS", "distance": 0.0, "fullAddress": "6 RUE JULES FERRY 56170 QUIBERON", "giveBlood": 1, "givePlasma": 0, "givePlatelet": 0, "regionCode": "016", "groupCode": "F30370", "latitude": 47.4844, "longitude": -3.1205, "name": "QUIBERON M ASSO 14H45 - 18H30", "postCode": "56170", "samplingLocationCode": "15", "horaires": null, "infos": null, "metro": null, "bus": null, "tram": null, "parking": null, "debutInfos": null, "finInfos": null, "ville": null, "id": null, "phone": null, "urlBlood": null, "urlPlasma": null, "urlPlatelets": null}
{"address1": null, "address2": "6 RUE JULES FERRY", "city": "QUIBERON", "convocationLabel": "MAISON DES ASSOCIATIONS", "distance": 0.0, "fullAddress": "6 RUE JULES FERRY 56170 QUIBERON", "giveBlood": 1, "givePlasma": 0, "givePlatelet": 0, "regionCode": "016", "groupCode": "F30370", "latitude": 47.4844, "longitude": -3.1205, "name": "QUIBERON M ASSO. \u00e9t\u00e9", "postCode": "56170", "samplingLocationCode": "1502", "horaires": null, "infos": null, "metro": null, "bus": null, "tram": null, "parking": null, "debutInfos": null, "finInfos": null, "ville": null, "id": null, "phone": null, "urlBlood": null, "urlPlasma": null, "urlPlatelets": null}
{"address1": null, "address2": "6 RUE JULES FERRY", "city": "QUIBERON", "convocationLabel": "MAISON DES ASSOCIATIONS", "distance": 0.0, "fullAddress": "6 RUE JULES FERRY 56170 QUIBERON", "giveBlood": 1, "givePlasma": 0, "givePlatelet": 0, "regionCode": "016", "groupCode": "F30370", "latitude": 47.4844, "longitude": -3.1205, "name": "QUIBERON M ASSO 9 H - 13 H", "postCode": "56170", "samplingLocationCode": "16", "horaires": null, "infos": null, "metro": null, "bus": null, "tram": null, "parking": null, "debutInfos": null, "finInfos": null, "ville": null, "id": null, "phone": null, "urlBlood": null, "urlPlasma": null, "urlPlatelets": null}
{"address1": null, "address2": "RUE SANGT MANG", "city": "QUIBERON", "convocationLabel": "RESTAURANT SCOLAIRE (quartier de la gare)", "distance": 0.0, "fullAddress": "RUE SANGT MANG 56170 QUIBERON", "giveBlood": 1, "givePlasma": 0, "givePlatelet": 0, "regionCode": "016", "groupCode": "F30370", "latitude": 47.485309, "longitude": -3.120258, "name": "QUIBERON REST SCOL AM", "postCode": "56170", "samplingLocationCode": "2", "horaires": null, "infos": null, "metro": null, "bus": null, "tram": null, "parking": null, "debutInfos": null, "finInfos": null, "ville": null, "id": null, "phone": null, "urlBlood": null, "urlPlasma": null, "urlPlatelets": null}
{"address1": null, "address2": "RUE SANGT MANG", "city": "QUIBERON", "convocationLabel": "RESTAURANT SCOLAIRE", "distance": 0.0, "fullAddress": "RUE SANGT MANG 56170 QUIBERON", "giveBlood": 1, "givePlasma": 0, "givePlatelet": 0, "regionCode": "016", "groupCode": "F30370", "latitude": 47.485309, "longitude": -3.120258, "name": "QUIBERON REST. SCOL.", "postCode": "56170", "samplingLocationCode": "3", "horaires": null, "infos": null, "metro": null, "bus": null, "tram": null, "parking": null, "debutInfos": null, "finInfos": null, "ville": null, "id": null, "phone": null, "urlBlood": null, "urlPlasma": null, "urlPlatelets": null}
{"address1": null, "address2": "BOULEVARD RENE CASSIN", "city": "QUIBERON", "convocationLabel": "ESPACE LOUISON BOBET", "distance": 0.0, "fullAddress": "BOULEVARD RENE CASSIN 56170 QUIBERON", "giveBlood": 1, "givePlasma": 0, "givePlatelet": 0, "regionCode": "016", "groupCode": "F30370", "latitude": 47.474335, "longitude": -3.110774, "name": "QUIBERON L. BOBET 9 H 30 - 15 ", "postCode": "56170", "samplingLocationCode": "4", "horaires": null, "infos": null, "metro": null, "bus": null, "tram": null, "parking": null, "debutInfos": null, "finInfos": null, "ville": null, "id": null, "phone": null, "urlBlood": null, "urlPlasma": null, "urlPlatelets": null}
{"address1": null, "address2": "BOULEVARD RENE CASSIN", "city": "QUIBERON", "convocationLabel": "ESPACE LOUISON BOBET", "distance": 0.0, "fullAddress": "BOULEVARD RENE CASSIN 56170 QUIBERON", "giveBlood": 1, "givePlasma": 0, "givePlatelet": 0, "regionCode": "016", "groupCode": "F30370", "latitude": 47.474335, "longitude": -3.110774, "name": "QUIBERON L. BOBET AM", "postCode": "56170", "samplingLocationCode": "5", "horaires": null, "infos": null, "metro": null, "bus": null, "tram": null, "parking": null, "debutInfos": null, "finInfos": null, "ville": null, "id": null, "phone": null, "urlBlood": null, "urlPlasma": null, "urlPlatelets": null}
{"address1": null, "address2": "BOULEVARD RENE CASSIN", "city": "QUIBERON", "convocationLabel": "ESPACE LOUISON BOBET", "distance": 0.0, "fullAddress": "BOULEVARD RENE CASSIN 56170 QUIBERON", "giveBlood": 1, "givePlasma": 0, "givePlatelet": 0, "regionCode": "016", "groupCode": "F30370", "latitude": 47.474335, "longitude": -3.110774, "name": "QUIBERON L. BOBET (S) LORIENT", "postCode": "56170", "samplingLocationCode": "6", "horaires": null, "infos": null, "metro": null, "bus": null, "tram": null, "parking": null, "debutInfos": null, "finInfos": null, "ville": null, "id": null, "phone": null, "urlBlood": null, "urlPlasma": null, "urlPlatelets": null}
{"address1": null, "address2": "BOULEVARD RENE CASSIN", "city": "QUIBERON", "convocationLabel": "ESPACE LOUISON BOBET", "distance": 0.0, "fullAddress": "BOULEVARD RENE CASSIN 56170 QUIBERON", "giveBlood": 1, "givePlasma": 0, "givePlatelet": 0, "regionCode": "016", "groupCode": "F30370", "latitude": 47.474335, "longitude": -3.110774, "name": "QUIBERON Matin Avril (Lorient)", "postCode": "56170", "samplingLocationCode": "7", "horaires": null, "infos": null, "metro": null, "bus": null, "tram": null, "parking": null, "debutInfos": null, "finInfos": null, "ville": null, "id": null, "phone": null, "urlBlood": null, "urlPlasma": null, "urlPlatelets": null}
{"address1": null, "address2": "BOULEVARD RENE CASSIN", "city": "QUIBERON", "convocationLabel": "ESPACE LOUISON BOBET", "distance": 0.0, "fullAddress": "BOULEVARD RENE CASSIN 56170 QUIBERON", "giveBlood": 1, "givePlasma": 0, "givePlatelet": 0, "regionCode": "016", "groupCode": "F30370", "latitude": 47.474335, "longitude": -3.110774, "name": "QUIBERON L. BOBET PM", "postCode": "56170", "samplingLocationCode": "8", "horaires": null, "infos": null, "metro": null, "bus": null, "tram": null, "parking": null, "debutInfos": null, "finInfos": null, "ville": null, "id": null, "phone": null, "urlBlood": null, "urlPlasma": null, "urlPlatelets": null}
{"address1": null, "address2": "BOULEVARD RENE CASSIN", "city": "QUIBERON", "convocationLabel": "ESPACE LOUISON BOBET", "distance": 0.0, "fullAddress": "BOULEVARD RENE CASSIN 56170 QUIBERON", "giveBlood": 1, "givePlasma": 0, "givePlatelet": 0, "regionCode": "016", "groupCode": "F30370", "latitude": 47.474335, "longitude": -3.110774, "name": "QUIBERON L. BOBET 10-13/15-18", "postCode": "56170", "samplingLocationCode": "9", "horaires": null, "infos": null, "metro": null, "bus": null, "tram": null, "parking": null, "debutInfos": null, "finInfos": null, "ville": null, "id": null, "phone": null, "urlBlood": null, "urlPlasma": null, "urlPlatelets": null}
