{"address1": null, "address2": "6 ALLEE VERTE", "city": "LANNILIS", "convocationLabel": "ESPACE LAPOUTROIE", "distance": 0.0, "fullAddress": "6 ALLEE VERTE 29870 LANNILIS", "giveBlood": 1, "givePlasma": 0, "givePlatelet": 0, "regionCode": "016", "groupCode": "F50123", "latitude": 48.56872559, "longitude": -4.51886797, "name": "LANNILIS LAPOUTROIE J2", "postCode": "29870", "samplingLocationCode": "3", "horaires": null, "infos": null, "metro": null, "bus": null, "tram": null, "parking": null, "debutInfos": null, "finInfos": null, "ville": null, "id": null, "phone": null, "urlBlood": null, "urlPlasma": null, "urlPlatelets": null}
{"address1": null, "address2": "RUE DE PRAT MEINOC", "city": "LANNILIS", "convocationLabel": "COMPLEXE SPORTIF DE KERGROAS", "distance": 0.0, "fullAddress": "RUE DE PRAT MEINOC 29870 LANNILIS", "giveBlood": 1, "givePlasma": 0, "givePlatelet": 0, "regionCode": "016", "groupCode": "F50123", "latitude": 48.56805495386399, "longitude": -4.515289664268494, "name": "LANNILIS KERGROAS J2", "postCode": "29870", "samplingLocationCode": "4", "horaires": null, "infos": null, "metro": null, "bus": null, "tram": null, "parking": null, "debutInfos": null, "finInfos": null, "ville": null, "id": null, "phone": null, "urlBlood": null, "urlPlasma": null, "urlPlatelets": null}
{"address1": null, "address2": "RUE DE PRAT MEINOC", "city": "LANNILIS", "convocationLabel": "COMPLEXE SPORTIF DE KERGROAS", "distance": 0.0, "fullAddress": "RUE DE PRAT MEINOC 29870 LANNILIS", "giveBlood": 1, "givePlasma": 0, "givePlatelet": 0, "regionCode": "016", "groupCode": "F50123", "latitude": 48.56805495386399, "longitude": -4.515289664268494, "name": "LANNILIS KERGROAS J1", "postCode": "29870", "samplingLocationCode": "5", "horaires": "", "infos": null, "metro": null, "bus": null, "tram": null, "parking": null, "debutInfos": null, "finInfos": null, "ville": null, "id": null, "phone": null, "urlBlood": null, "urlPlasma": null, "urlPlatelets": null}
{"address1": null, "address2": "RUE GORREQUEAR", "city": "LANNILIS", "convocationLabel": "SALLE GORREKEAR", "distance": 0.0, "fullAddress": "RUE GORREQUEAR 29870 LANNILIS", "giveBlood": 1, "givePlasma": 0, "givePlatelet": 0, "regionCode": "016", "groupCode": "F50123", "latitude": 48.568955, "longitude": -4.518906, "name": "SALLE GORREKEAR J1", "postCode": "29870", "samplingLocationCode": "6", "horaires": null, "infos": null, "metro": null, "bus": null, "tram": null, "parking": null, "debutInfos": null, "finInfos": null, "ville": null, "id": null, "phone": null, "urlBlood": null, "urlPlasma": null, "urlPlatelets": null}
{"address1": null, "address2": "6 ALLEE VERTE", "city": "LANNILIS", "convocationLabel": "ESPACE LAPOUTROIE", "distance": 0.0, "fullAddress": "6 ALLEE VERTE 29870 LANNILIS", "giveBlood": 1, "givePlasma": 0, "givePlatelet": 0, "regionCode": "016", "groupCode": "F50123", "latitude": 48.56872559, "longitude": -4.51886797, "name": "LANNILIS LAPOUTROIE J1", "postCode": "29870", "samplingLocationCode": "693", "horaires": null, "infos": null, "metro": null, "bus": null, "tram": null, "parking": null, "debutInfos": null, "finInfos": null, "ville": null, "id": null, "phone": null, "urlBlood": null, "urlPlasma": null, "urlPlatelets": null}
{"address1": null, "address2": "RUE GORREQUEAR", "city": "LANNILIS", "convocationLabel": "SALLE GORREKEAR", "distance": 0.0, "fullAddress": "RUE GORREQUEAR 29870 LANNILIS", "giveBlood": 1, "givePlasma": 0, "givePlatelet": 0, "regionCode": "016", "groupCode": "F50123", "latitude": 48.568955, "longitude": -4.518906, "name": "SALLE GORREKEAR J2", "postCode": "29870", "samplingLocationCode": "793", "horaires": null, "infos": null, "metro": null, "bus": null, "tram": null, "parking": null, "debutInfos": null, "finInfos": null, "ville": null, "id": null, "phone": null, "urlBlood": null, "urlPlasma": null, "urlPlatelets": null}
