{"address1": "LYCEE BREQUIGNY", "address2": "AVENUE DE BREQUIGNY", "city": "RENNES", "convocationLabel": "FOYER DES INTERNES  BAT I", "distance": 0.0, "fullAddress": "LYCEE BREQUIGNY AVENUE DE BREQUIGNY 35200 RENNES", "giveBlood": 1, "givePlasma": 0, "givePlatelet": 0, "regionCode": "016", "groupCode": "F70310", "latitude": 48.087713, "longitude": -1.691855, "name": "LYCEE BREQUIGNY", "postCode": "35200", "samplingLocationCode": "2", "horaires": null, "infos": null, "metro": null, "bus": null, "tram": null, "parking": null, "debutInfos": null, "finInfos": null, "ville": null, "id": null, "phone": null, "urlBlood": null, "urlPlasma": null, "urlPlatelets": null}
{"address1": "LYCEE BREQUIGNY", "address2": "AVENUE DE BREQUIGNY", "city": "RENNES", "convocationLabel": "FOYER DES INTERNES  BAT I", "distance": 0.0, "fullAddress": "LYCEE BREQUIGNY AVENUE DE BREQUIGNY 35000 RENNES", "giveBlood": 1, "givePlasma": 0, "givePlatelet": 0, "regionCode": "016", "groupCode": "F70310", "latitude": 48.082249, "longitude": -1.697088, "name": "RENNES-LYCEE BREQUIGNY MAT", "postCode": "35000", "samplingLocationCode": "3", "horaires": null, "infos": null, "metro": null, "bus": null, "tram": null, "parking": null, "debutInfos": null, "finInfos": null, "ville": null, "id": null, "phone": null, "urlBlood": null, "urlPlasma": null, "urlPlatelets": null}
{"address1": "LYCEE BREQUIGNY", "address2": "7 AVENUE GEORGES GRAFF BP 90516", "city": "RENNES", "convocationLabel": "FOYER DES INTERNES  BAT I", "distance": 0.0, "fullAddress": "LYCEE BREQUIGNY 7 AVENUE GEORGES GRAFF BP 90516 35000 RENNES", "giveBlood": 1, "givePlasma": 0, "givePlatelet": 0, "regionCode": "016", "groupCode": "F70310", "latitude": 48.121615, "longitude": -1.68211, "name": "LYCEE DE BREQUIGNY Personnel", "postCode": "35000", "samplingLocationCode": "365", "horaires": null, "infos": null, "metro": null, "bus": null, "tram": null, "parking": null, "debutInfos": null, "finInfos": null, "ville": null, "id": null, "phone": null, "urlBlood": null, "urlPlasma": null, "urlPlatelets": null}
{"address1": "LYCEE BREQUIGNY", "address2": "AVENUE DE BREQUIGNY", "city": "RENNES", "convocationLabel": "FOYER DES INTERNES  BAT I", "distance": 0.0, "fullAddress": "LYCEE BREQUIGNY AVENUE DE BREQUIGNY 35000 RENNES", "giveBlood": 1, "givePlasma": 0, "givePlatelet": 0, "regionCode": "016", "groupCode": "F70310", "latitude": 48.082249, "longitude": -1.697088, "name": "RENNES-LYCEE BREQUIGNY AMIDI", "postCode": "35000", "samplingLocationCode": "4", "horaires": null, "infos": null, "metro": null, "bus": null, "tram": null, "parking": null, "debutInfos": null, "finInfos": null, "ville": null, "id": null, "phone": null, "urlBlood": null, "urlPlasma": null, "urlPlatelets": null}
{"address1": "FOYER DES ELEVES (ESPACE CALME)", "address2": "7 AVENUE GEORGES GRAFF", "city": "RENNES", "convocationLabel": "LYCEE BREQUIGNY", "distance": 0.0, "fullAddress": "FOYER DES ELEVES (ESPACE CALME) 7 AVENUE GEORGES GRAFF 35000 RENNES", "giveBlood": 1, "givePlasma": 0, "givePlatelet": 0, "regionCode": "016", "groupCode": "F70310", "latitude": 48.0852774, "longitude": -1.6911988, "name": "2 BREQUIGNY-AUTOMNE FOYER DAM ", "postCode": "35000", "samplingLocationCode": "5", "horaires": null, "infos": null, "metro": null, "bus": null, "tram": null, "parking": null, "debutInfos": null, "finInfos": null, "ville": null, "id": null, "phone": null, "urlBlood": null, "urlPlasma": null, "urlPlatelets": null}
{"address1": "FOYER DES ELEVES (ESPACE CALME)", "address2": "7 AVENUE GEORGES GRAFF", "city": "RENNES", "convocationLabel": "LYCEE BREQUIGNY", "distance": 0.0, "fullAddress": "FOYER DES ELEVES (ESPACE CALME) 7 AVENUE GEORGES GRAFF 35000 RENNES", "giveBlood": 1, "givePlasma": 0, "givePlatelet": 0, "regionCode": "016", "groupCode": "F70310", "latitude": 48.085281, "longitude": -1.6937737, "name": "2 BREQUIGNY-PRINTEM FOYER DAM ", "postCode": "35000", "samplingLocationCode": "6", "horaires": null, "infos": null, "metro": null, "bus": null, "tram": null, "parking": null, "debutInfos": null, "finInfos": null, "ville": null, "id": null, "phone": null, "urlBlood": null, "urlPlasma": null, "urlPlatelets": null}
{"address1": "FOYER DES ELEVES (ESPACE CALME)", "address2": "7 AVENUE GEORGES GRAFF", "city": "RENNES", "convocationLabel": "LYCEE BREQUIGNY", "distance": 0.0, "fullAddress": "FOYER DES ELEVES (ESPACE CALME) 7 AVENUE GEORGES GRAFF 35000 RENNES", "giveBlood": 1, "givePlasma": 0, "givePlatelet": 0, "regionCode": "016", "groupCode": "F70310", "latitude": 48.085281, "longitude": -1.6937737, "name": "2 BREQUIGNY-PRINTE FOYER DAMJ+", "postCode": "35000", "samplingLocationCode": "7", "horaires": null, "infos": null, "metro": null, "bus": null, "tram": null, "parking": null, "debutInfos": null, "finInfos": null, "ville": null, "id": null, "phone": null, "urlBlood": null, "urlPlasma": null, "urlPlatelets": null}
