{"address1": null, "address2": "PLACE DES HALLES", "city": "DOUARNENEZ", "convocationLabel": "SALLE DES FETES DES HALLES", "distance": 0.0, "fullAddress": "PLACE DES HALLES 29100 DOUARNENEZ", "giveBlood": 1, "givePlasma": 0, "givePlatelet": 0, "regionCode": "016", "groupCode": "F50044", "latitude": 48.09392548, "longitude": -4.32699633, "name": "SALLE DES FETES DES HALLES M1", "postCode": "29100", "samplingLocationCode": "10", "horaires": null, "infos": null, "metro": null, "bus": null, "tram": null, "parking": null, "debutInfos": null, "finInfos": null, "ville": null, "id": null, "phone": null, "urlBlood": null, "urlPlasma": null, "urlPlatelets": null}
{"address1": null, "address2": "2 RUE JULES VERNE", "city": "DOUARNENEZ", "convocationLabel": "SALLE JULES VERNE ", "distance": 0.0, "fullAddress": "2 RUE JULES VERNE 29100 DOUARNENEZ", "giveBlood": 1, "givePlasma": 0, "givePlatelet": 0, "regionCode": "016", "groupCode": "F50044", "latitude": 48.09221268, "longitude": -4.34068489, "name": "SALLE JULES VERNE AM2", "postCode": "29100", "samplingLocationCode": "11", "horaires": null, "infos": null, "metro": null, "bus": null, "tram": null, "parking": null, "debutInfos": null, "finInfos": null, "ville": null, "id": null, "phone": null, "urlBlood": null, "urlPlasma": null, "urlPlatelets": null}
{"address1": null, "address2": "PLACE DES HALLES", "city": "DOUARNENEZ", "convocationLabel": "SALLE  DES FETES des HALLES", "distance": 0.0, "fullAddress": "PLACE DES HALLES 29100 DOUARNENEZ", "giveBlood": 1, "givePlasma": 0, "givePlatelet": 0, "regionCode": "016", "groupCode": "F50044", "latitude": 48.09392548, "longitude": -4.32699633, "name": "SALLE DES FETES DES HALLES AM3", "postCode": "29100", "samplingLocationCode": "1123", "horaires": null, "infos": null, "metro": null, "bus": null, "tram": null, "parking": null, "debutInfos": null, "finInfos": null, "ville": null, "id": null, "phone": null, "urlBlood": null, "urlPlasma": null, "urlPlatelets": null}
{"address1": null, "address2": "RUE MAX JACOB", "city": "DOUARNENEZ", "convocationLabel": "GYMNASE COLLEGE SAINT BLAISE", "distance": 0.0, "fullAddress": "RUE MAX JACOB 29100 DOUARNENEZ", "giveBlood": 1, "givePlasma": 0, "givePlatelet": 0, "regionCode": "016", "groupCode": "F50044", "latitude": 48.089356, "longitude": -4.32766, "name": "GYMNASE ST BLAISE J1", "postCode": "29100", "samplingLocationCode": "12", "horaires": null, "infos": null, "metro": null, "bus": null, "tram": null, "parking": null, "debutInfos": null, "finInfos": null, "ville": null, "id": null, "phone": null, "urlBlood": null, "urlPlasma": null, "urlPlatelets": null}
{"address1": null, "address2": "RUE MAX JACOB", "city": "DOUARNENEZ", "convocationLabel": "GYMNASE COLLEGE SAINT BLAISE", "distance": 0.0, "fullAddress": "RUE MAX JACOB 29100 DOUARNENEZ", "giveBlood": 1, "givePlasma": 0, "givePlatelet": 0, "regionCode": "016", "groupCode": "F50044", "latitude": 48.089356, "longitude": -4.32766, "name": "GYMNASE ST BLAISE J2", "postCode": "29100", "samplingLocationCode": "13", "horaires": null, "infos": null, "metro": null, "bus": null, "tram": null, "parking": null, "debutInfos": null, "finInfos": null, "ville": null, "id": null, "phone": null, "urlBlood": null, "urlPlasma": null, "urlPlatelets": null}
{"address1": null, "address2": null, "city": "DOUARNENEZ", "convocationLabel": "LYCEE SAINTE ELISABETH", "distance": 0.0, "fullAddress": "29000 DOUARNENEZ", "giveBlood": 1, "givePlasma": 0, "givePlatelet": 0, "regionCode": "016", "groupCode": "F50044", "latitude": 48.09000397, "longitude": -4.32849026, "name": "LYCEE SAINTE ELISABETH MATIN", "postCode": "29000", "samplingLocationCode": "15", "horaires": null, "infos": null, "metro": null, "bus": null, "tram": null, "parking": null, "debutInfos": null, "finInfos": null, "ville": null, "id": null, "phone": null, "urlBlood": null, "urlPlasma": null, "urlPlatelets": null}
{"address1": null, "address2": "PLACE DES HALLES", "city": "DOUARNENEZ", "convocationLabel": "SALLE DES FETES DES HALLES", "distance": 0.0, "fullAddress": "PLACE DES HALLES 29100 DOUARNENEZ", "giveBlood": 1, "givePlasma": 0, "givePlatelet": 0, "regionCode": "016", "groupCode": "F50044", "latitude": 48.09392548, "longitude": -4.32699633, "name": "DOUARNENEZ J1", "postCode": "29100", "samplingLocationCode": "17", "horaires": null, "infos": null, "metro": null, "bus": null, "tram": null, "parking": null, "debutInfos": null, "finInfos": null, "ville": null, "id": null, "phone": null, "urlBlood": null, "urlPlasma": null, "urlPlatelets": null}
{"address1": null, "address2": "PLACE DES HALLES", "city": "DOUARNENEZ", "convocationLabel": "SALLE DES FETES DES HALLES", "distance": 0.0, "fullAddress": "PLACE DES HALLES 29100 DOUARNENEZ", "giveBlood": 1, "givePlasma": 0, "givePlatelet": 0, "regionCode": "016", "groupCode": "F50044", "latitude": 48.09392548, "longitude": -4.32699633, "name": "DOUARNENEZ J2", "postCode": "29100", "samplingLocationCode": "18", "horaires": null, "infos": null, "metro": null, "bus": null, "tram": null, "parking": null, "debutInfos": null, "finInfos": null, "ville": null, "id": null, "phone": null, "urlBlood": null, "urlPlasma": null, "urlPlatelets": null}
{"address1": null, "address2": "PLACE DES HALLES", "city": "DOUARNENEZ", "convocationLabel": "SALLE DES FETES DES HALLES", "distance": 0.0, "fullAddress": "PLACE DES HALLES 29100 DOUARNENEZ", "giveBlood": 1, "givePlasma": 0, "givePlatelet": 0, "regionCode": "016", "groupCode": "F50044", "latitude": 48.094055, "longitude": -4.326845, "name": "DOUARNENEZ J3", "postCode": "29100", "samplingLocationCode": "19", "horaires": null, "infos": null, "metro": null, "bus": null, "tram": null, "parking": null, "debutInfos": null, "finInfos": null, "ville": null, "id": null, "phone": null, "urlBlood": null, "urlPlasma": null, "urlPlatelets": null}
{"address1": null, "address2": "PLACE DES HALLES", "city": "DOUARNENEZ", "convocationLabel": "SALLES DES FETES DES HALLES", "distance": 0.0, "fullAddress": "PLACE DES HALLES 29100 DOUARNENEZ", "giveBlood": 1, "givePlasma": 0, "givePlatelet": 0, "regionCode": "016", "groupCode": "F50044", "latitude": 48.094055, "longitude": -4.326845, "name": "SALLE DES FETES DES HALLES AM2", "postCode": "29100", "samplingLocationCode": "2", "horaires": null, "infos": null, "metro": null, "bus": null, "tram": null, "parking": null, "debutInfos": null, "finInfos": null, "ville": null, "id": null, "phone": null, "urlBlood": null, "urlPlasma": null, "urlPlatelets": null}
{"address1": null, "address2": "16 RUE BERTHELOT", "city": "DOUARNENEZ", "convocationLabel": "HOTEL DE VILLE DOUARNENEZ", "distance": 0.0, "fullAddress": "16 RUE BERTHELOT 29100 DOUARNENEZ", "giveBlood": 1, "givePlasma": 0, "givePlatelet": 0, "regionCode": "016", "groupCode": "F50044", "latitude": 48.091731, "longitude": -4.330297, "name": "DOUARNENEZ HOTEL DE VILLE J1", "postCode": "29100", "samplingLocationCode": "20", "horaires": null, "infos": null, "metro": null, "bus": null, "tram": null, "parking": null, "debutInfos": null, "finInfos": null, "ville": null, "id": null, "phone": null, "urlBlood": null, "urlPlasma": null, "urlPlatelets": null}
{"address1": null, "address2": "16 RUE BERTHELOT", "city": "DOUARNENEZ", "convocationLabel": "HOTEL DE VILLE DOUARNENEZ", "distance": 0.0, "fullAddress": "16 RUE BERTHELOT 29100 DOUARNENEZ", "giveBlood": 1, "givePlasma": 0, "givePlatelet": 0, "regionCode": "016", "groupCode": "F50044", "latitude": 48.091731, "longitude": -4.330297, "name": "DOUARNENEZ HOTEL DE VILLE J2", "postCode": "29100", "samplingLocationCode": "21", "horaires": null, "infos": null, "metro": null, "bus": null, "tram": null, "parking": null, "debutInfos": null, "finInfos": null, "ville": null, "id": null, "phone": null, "urlBlood": null, "urlPlasma": null, "urlPlatelets": null}
{"address1": null, "address2": "27 RUE MARECHAL LECLERC", "city": "DOUARNENEZ", "convocationLabel": "CENTRE DEPARTEMENTAL D'ACTION SOCIALE", "distance": 0.0, "fullAddress": "27 RUE MARECHAL LECLERC 29100 DOUARNENEZ", "giveBlood": 1, "givePlasma": 0, "givePlatelet": 0, "regionCode": "016", "groupCode": "F50044", "latitude": 48.083182, "longitude": -4.326912, "name": "DOUARNENEZ CDAS", "postCode": "29100", "samplingLocationCode": "22", "horaires": null, "infos": null, "metro": null, "bus": null, "tram": null, "parking": null, "debutInfos": null, "finInfos": null, "ville": null, "id": null, "phone": null, "urlBlood": null, "urlPlasma": null, "urlPlatelets": null}
{"address1": null, "address2": "16 RUE LAMENNAIS", "city": "DOUARNENEZ", "convocationLabel": "Restaurant scolaire", "distance": 0.0, "fullAddress": "16 RUE LAMENNAIS 29100 DOUARNENEZ", "giveBlood": 1, "givePlasma": 0, "givePlatelet": 0, "regionCode": "016", "groupCode": "F50044", "latitude": 48.090616, "longitude": -4.327223, "name": "Col St Blaise JAM", "postCode": "29100", "samplingLocationCode": "3", "horaires": null, "infos": null, "metro": null, "bus": null, "tram": null, "parking": null, "debutInfos": null, "finInfos": null, "ville": null, "id": null, "phone": null, "urlBlood": null, "urlPlasma": null, "urlPlatelets": null}
{"address1": null, "address2": "PLACE DES HALLES", "city": "DOUARNENEZ", "convocationLabel": "SALLE DES FETES des  HALLES", "distance": 0.0, "fullAddress": "PLACE DES HALLES 29100 DOUARNENEZ", "giveBlood": 1, "givePlasma": 0, "givePlatelet": 0, "regionCode": "016", "groupCode": "F50044", "latitude": 48.09392548, "longitude": -4.32699633, "name": "Salle des F\u00eates AM2", "postCode": "29100", "samplingLocationCode": "5", "horaires": null, "infos": null, "metro": null, "bus": null, "tram": null, "parking": null, "debutInfos": null, "finInfos": null, "ville": null, "id": null, "phone": null, "urlBlood": null, "urlPlasma": null, "urlPlatelets": null}
{"address1": null, "address2": "PLACE DES HALLES", "city": "DOUARNENEZ", "convocationLabel": "SALLES DES FETES DES HALLES", "distance": 0.0, "fullAddress": "PLACE DES HALLES 29100 DOUARNENEZ", "giveBlood": 1, "givePlasma": 0, "givePlatelet": 0, "regionCode": "016", "groupCode": "F50044", "latitude": 48.094055, "longitude": -4.326845, "name": "Sal des F\u00ea VenAM", "postCode": "29100", "samplingLocationCode": "6", "horaires": null, "infos": null, "metro": null, "bus": null, "tram": null, "parking": null, "debutInfos": null, "finInfos": null, "ville": null, "id": null, "phone": null, "urlBlood": null, "urlPlasma": null, "urlPlatelets": null}
{"address1": null, "address2": "2 RUE JULES VERNE", "city": "DOUARNENEZ", "convocationLabel": "SALLE JULES VERNE", "distance": 0.0, "fullAddress": "2 RUE JULES VERNE 29100 DOUARNENEZ", "giveBlood": 1, "givePlasma": 0, "givePlatelet": 0, "regionCode": "016", "groupCode": "F50044", "latitude": 48.093255, "longitude": -4.339972, "name": "SALLE JULES VERNE AM3", "postCode": "29100", "samplingLocationCode": "7", "horaires": null, "infos": null, "metro": null, "bus": null, "tram": null, "parking": null, "debutInfos": null, "finInfos": null, "ville": null, "id": null, "phone": null, "urlBlood": null, "urlPlasma": null, "urlPlatelets": null}
{"address1": null, "address2": "2 RUE JULES VERNE", "city": "DOUARNENEZ", "convocationLabel": "SALLE JULES VERNE", "distance": 0.0, "fullAddress": "2 RUE JULES VERNE 29100 DOUARNENEZ", "giveBlood": 1, "givePlasma": 0, "givePlatelet": 0, "regionCode": "016", "groupCode": "F50044", "latitude": 48.09221268, "longitude": -4.34068489, "name": "SALLE JULES VERNE M1", "postCode": "29100", "samplingLocationCode": "8", "horaires": null, "infos": null, "metro": null, "bus": null, "tram": null, "parking": null, "debutInfos": null, "finInfos": null, "ville": null, "id": null, "phone": null, "urlBlood": null, "urlPlasma": null, "urlPlatelets": null}
{"address1": null, "address2": "2 RUE JULES VERNE", "city": "DOUARNENEZ", "convocationLabel": "SALLE JULES VERNE", "distance": 0.0, "fullAddress": "2 RUE JULES VERNE 29100 DOUARNENEZ", "giveBlood": 1, "givePlasma": 0, "givePlatelet": 0, "regionCode": "016", "groupCode": "F50044", "latitude": 48.093255, "longitude": -4.339972, "name": "Salle Jules Verne VM", "postCode": "29100", "samplingLocationCode": "9", "horaires": null, "infos": null, "metro": null, "bus": null, "tram": null, "parking": null, "debutInfos": null, "finInfos": null, "ville": null, "id": null, "phone": null, "urlBlood": null, "urlPlasma": null, "urlPlatelets": null}
