{"address1": null, "address2": "PLACE DE LA GARE", "city": "GUER", "convocationLabel": "SALLE DES FETES", "distance": 0.0, "fullAddress": "PLACE DE LA GARE 56380 GUER", "giveBlood": 1, "givePlasma": 0, "givePlatelet": 0, "regionCode": "016", "groupCode": "F70284", "latitude": 47.905747, "longitude": -2.123408, "name": "GUER SDF SA", "postCode": "56380", "samplingLocationCode": "2", "horaires": null, "infos": null, "metro": null, "bus": null, "tram": null, "parking": null, "debutInfos": null, "finInfos": null, "ville": null, "id": null, "phone": null, "urlBlood": null, "urlPlasma": null, "urlPlatelets": null}
{"address1": null, "address2": "PLACE DE LA GARE", "city": "GUER", "convocationLabel": "SALLE DES FETES", "distance": 0.0, "fullAddress": "PLACE DE LA GARE 56250 GUER", "giveBlood": 1, "givePlasma": 0, "givePlatelet": 0, "regionCode": "016", "groupCode": "F70284", "latitude": 47.743048, "longitude": -2.679955, "name": "GUER  SEMAINE", "postCode": "56250", "samplingLocationCode": "296", "horaires": null, "infos": null, "metro": null, "bus": null, "tram": null, "parking": null, "debutInfos": null, "finInfos": null, "ville": null, "id": null, "phone": null, "urlBlood": null, "urlPlasma": null, "urlPlatelets": null}
{"address1": null, "address2": "PLACE DE LA GARE", "city": "GUER", "convocationLabel": "SALLE DES FETES ", "distance": 0.0, "fullAddress": "PLACE DE LA GARE 56250 GUER", "giveBlood": 1, "givePlasma": 0, "givePlatelet": 0, "regionCode": "016", "groupCode": "F70284", "latitude": 47.743048, "longitude": -2.679955, "name": "GUER SEMAINE MATIN", "postCode": "56250", "samplingLocationCode": "3", "horaires": null, "infos": null, "metro": null, "bus": null, "tram": null, "parking": null, "debutInfos": null, "finInfos": null, "ville": null, "id": null, "phone": null, "urlBlood": null, "urlPlasma": null, "urlPlatelets": null}
{"address1": null, "address2": "PLACE DE LA GARE", "city": "GUER", "convocationLabel": "SALLE DES FETES", "distance": 0.0, "fullAddress": "PLACE DE LA GARE 56250 GUER", "giveBlood": 1, "givePlasma": 0, "givePlatelet": 0, "regionCode": "016", "groupCode": "F70284", "latitude": 47.90589142, "longitude": -2.12377667, "name": "GUER SDF SEMAINE AM", "postCode": "56250", "samplingLocationCode": "4", "horaires": null, "infos": null, "metro": null, "bus": null, "tram": null, "parking": null, "debutInfos": null, "finInfos": null, "ville": null, "id": null, "phone": null, "urlBlood": null, "urlPlasma": null, "urlPlatelets": null}
{"address1": null, "address2": "PLACE DE LA GARE", "city": "GUER", "convocationLabel": "SALLE DES FETES", "distance": 0.0, "fullAddress": "PLACE DE LA GARE 56380 GUER", "giveBlood": 1, "givePlasma": 0, "givePlatelet": 0, "regionCode": "016", "groupCode": "F70284", "latitude": 47.90582275, "longitude": -2.12363982, "name": "2 GUER-FETES AM ", "postCode": "56380", "samplingLocationCode": "5", "horaires": null, "infos": null, "metro": null, "bus": null, "tram": null, "parking": null, "debutInfos": null, "finInfos": null, "ville": null, "id": null, "phone": null, "urlBlood": null, "urlPlasma": null, "urlPlatelets": null}
