{"address1": "BOULEVARD MAURICE GUILLAUDOT", "address2": null, "city": "VANNES", "convocationLabel": "MDD VANNES", "distance": 0.0, "fullAddress": "BOULEVARD MAURICE GUILLAUDOT 56000 VANNES", "giveBlood": 1, "givePlasma": 0, "givePlatelet": 0, "regionCode": "016", "groupCode": "F00003", "latitude": 47.666601, "longitude": -2.745001, "name": "MDD VANNES LUNDI", "postCode": "56000", "samplingLocationCode": "1400", "horaires": null, "infos": null, "metro": null, "bus": null, "tram": null, "parking": null, "debutInfos": null, "finInfos": null, "ville": null, "id": null, "phone": null, "urlBlood": null, "urlPlasma": null, "urlPlatelets": null}
{"address1": "BOULEVARD DU GENERAL GUILLAUDOT", "address2": null, "city": "VANNES", "convocationLabel": "MDD VANNES", "distance": 0.0, "fullAddress": "BOULEVARD DU GENERAL GUILLAUDOT 56000 VANNES", "giveBlood": 1, "givePlasma": 0, "givePlatelet": 0, "regionCode": "016", "groupCode": "F00003", "latitude": 47.666601, "longitude": -2.745001, "name": "MDD VANNES MARDI", "postCode": "56000", "samplingLocationCode": "2", "horaires": null, "infos": null, "metro": null, "bus": null, "tram": null, "parking": null, "debutInfos": null, "finInfos": null, "ville": null, "id": null, "phone": null, "urlBlood": null, "urlPlasma": null, "urlPlatelets": null}
{"address1": "BOULEVARD DU GENERAL GUILLAUDOT", "address2": null, "city": "VANNES", "convocationLabel": "MDD VANNES", "distance": 0.0, "fullAddress": "BOULEVARD DU GENERAL GUILLAUDOT 56000 VANNES", "giveBlood": 1, "givePlasma": 0, "givePlatelet": 0, "regionCode": "016", "groupCode": "F00003", "latitude": 47.666601, "longitude": -2.745001, "name": "MDD VANNES MERCREDI", "postCode": "56000", "samplingLocationCode": "3", "horaires": null, "infos": null, "metro": null, "bus": null, "tram": null, "parking": null, "debutInfos": null, "finInfos": null, "ville": null, "id": null, "phone": null, "urlBlood": null, "urlPlasma": null, "urlPlatelets": null}
{"address1": "BOULEVARD DU GENERAL GUILLAUDOT", "address2": null, "city": "VANNES", "convocationLabel": "MDD VANNES", "distance": 0.0, "fullAddress": "BOULEVARD DU GENERAL GUILLAUDOT 56000 VANNES", "giveBlood": 1, "givePlasma": 0, "givePlatelet": 0, "regionCode": "016", "groupCode": "F00003", "latitude": 47.666601, "longitude": -2.745001, "name": "MDD VANNES JEUDI", "postCode": "56000", "samplingLocationCode": "4", "horaires": null, "infos": null, "metro": null, "bus": null, "tram": null, "parking": null, "debutInfos": null, "finInfos": null, "ville": null, "id": null, "phone": null, "urlBlood": null, "urlPlasma": null, "urlPlatelets": null}
{"address1": null, "address2": "BOULEVARD DU GENERAL GUILLAUDOT", "city": "VANNES", "convocationLabel": "MDD VANNES", "distance": 0.0, "fullAddress": "BOULEVARD DU GENERAL GUILLAUDOT 56000 VANNES", "giveBlood": 1, "givePlasma": 0, "givePlatelet": 0, "regionCode": "016", "groupCode": "F00003", "latitude": 47.666601, "longitude": -2.745001, "name": "MDD VANNES VENDREDI", "postCode": "56000", "samplingLocationCode": "5", "horaires": null, "infos": null, "metro": null, "bus": null, "tram": null, "parking": null, "debutInfos": null, "finInfos": null, "ville": null, "id": null, "phone": null, "urlBlood": null, "urlPlasma": null, "urlPlatelets": null}
{"address1": "BOULEVARD DU GENERAL GUILLAUDOT", "address2": null, "city": "VANNES", "convocationLabel": "MDD VANNES", "distance": 0.0, "fullAddress": "BOULEVARD DU GENERAL GUILLAUDOT 56000 VANNES", "giveBlood": 1, "givePlasma": 0, "givePlatelet": 0, "regionCode": "016", "groupCode": "F00003", "latitude": 47.666601, "longitude": -2.745001, "name": "MDD VANNES SAMEDI", "postCode": "56000", "samplingLocationCode": "6", "horaires": null, "infos": null, "metro": null, "bus": null, "tram": null, "parking": null, "debutInfos": null, "finInfos": null, "ville": null, "id": null, "phone": null, "urlBlood": null, "urlPlasma": null, "urlPlatelets": null}
{"address1": "BOULEVARD DU GENERAL GUILLAUDOT", "address2": null, "city": "VANNES", "convocationLabel": "MDD VANNES", "distance": 0.0, "fullAddress": "BOULEVARD DU GENERAL GUILLAUDOT 56000 VANNES", "giveBlood": 1, "givePlasma": 0, "givePlatelet": 0, "regionCode": "016", "groupCode": "F00003", "latitude": 47.666601, "longitude": -2.745001, "name": "MDD ACTION OU EVENEMENTIEL", "postCode": "56000", "samplingLocationCode": "7", "horaires": null, "infos": null, "metro": null, "bus": null, "tram": null, "parking": null, "debutInfos": null, "finInfos": null, "ville": null, "id": null, "phone": null, "urlBlood": null, "urlPlasma": null, "urlPlatelets": null}
