{"address1": "SALLE SPEICHER", "address2": "19 RUE DES CHENES", "city": "CAUDAN", "convocationLabel": "ESPACE JEAN ROSTAND", "distance": 0.0, "fullAddress": "SALLE SPEICHER 19 RUE DES CHENES 56850 CAUDAN", "giveBlood": 1, "givePlasma": 0, "givePlatelet": 0, "regionCode": "016", "groupCode": "F30141", "latitude": 47.808314, "longitude": -3.342005, "name": "CAUDAN SALLE SPEICHER 15H 19H", "postCode": "56850", "samplingLocationCode": "2", "horaires": null, "infos": null, "metro": null, "bus": null, "tram": null, "parking": null, "debutInfos": null, "finInfos": null, "ville": null, "id": null, "phone": null, "urlBlood": null, "urlPlasma": null, "urlPlatelets": null}
{"address1": "SALLE GLENMOR", "address2": "19 RUE DES CHENES", "city": "CAUDAN", "convocationLabel": "ESPACE  JEAN ROSTAND", "distance": 0.0, "fullAddress": "SALLE GLENMOR 19 RUE DES CHENES 56850 CAUDAN", "giveBlood": 1, "givePlasma": 0, "givePlatelet": 0, "regionCode": "016", "groupCode": "F30141", "latitude": 47.8080101, "longitude": -3.34218764, "name": "CAUDAN SALLE GLENMOR", "postCode": "56850", "samplingLocationCode": "3", "horaires": null, "infos": null, "metro": null, "bus": null, "tram": null, "parking": null, "debutInfos": null, "finInfos": null, "ville": null, "id": null, "phone": null, "urlBlood": null, "urlPlasma": null, "urlPlatelets": null}
{"address1": null, "address2": "19 RUE DES CHENES", "city": "CAUDAN", "convocationLabel": "MAISON DES ASSOCIATIONS-  JEAN ROSTAND", "distance": 0.0, "fullAddress": "19 RUE DES CHENES 56850 CAUDAN", "giveBlood": 1, "givePlasma": 0, "givePlatelet": 0, "regionCode": "016", "groupCode": "F30141", "latitude": 47.80754471, "longitude": -3.34243155, "name": "CAUDAN MATIN", "postCode": "56850", "samplingLocationCode": "4", "horaires": null, "infos": null, "metro": null, "bus": null, "tram": null, "parking": null, "debutInfos": null, "finInfos": null, "ville": null, "id": null, "phone": null, "urlBlood": null, "urlPlasma": null, "urlPlatelets": null}
{"address1": "SALLE SPEICHER", "address2": "19 RUE DES CHENES", "city": "CAUDAN", "convocationLabel": "ESPACE JEAN ROSTAND ", "distance": 0.0, "fullAddress": "SALLE SPEICHER 19 RUE DES CHENES 56850 CAUDAN", "giveBlood": 1, "givePlasma": 0, "givePlatelet": 0, "regionCode": "016", "groupCode": "F30141", "latitude": 47.808314, "longitude": -3.342005, "name": "CAUDAN SALLE SPEICHER 12H 16H", "postCode": "56850", "samplingLocationCode": "5", "horaires": null, "infos": null, "metro": null, "bus": null, "tram": null, "parking": null, "debutInfos": null, "finInfos": null, "ville": null, "id": null, "phone": null, "urlBlood": null, "urlPlasma": null, "urlPlatelets": null}
{"address1": "SALLE DE SPEICHER", "address2": "19 RUE DES CHENES", "city": "CAUDAN", "convocationLabel": "ESPACE JEAN ROSTAND ", "distance": 0.0, "fullAddress": "SALLE DE SPEICHER 19 RUE DES CHENES 56850 CAUDAN", "giveBlood": 1, "givePlasma": 0, "givePlatelet": 0, "regionCode": "016", "groupCode": "F30141", "latitude": 47.80814743, "longitude": -3.34175873, "name": "CAUDAN SALLE SPEICHER 14 H 18 ", "postCode": "56850", "samplingLocationCode": "6", "horaires": null, "infos": null, "metro": null, "bus": null, "tram": null, "parking": null, "debutInfos": null, "finInfos": null, "ville": null, "id": null, "phone": null, "urlBlood": null, "urlPlasma": null, "urlPlatelets": null}
{"address1": null, "address2": "19 RUE DES CH\u00caNES", "city": "CAUDAN", "convocationLabel": "MAISON DES ASSOCIATIONS-  JEAN ROSTAND", "distance": 0.0, "fullAddress": "19 RUE DES CH\u00caNES 56850 CAUDAN", "giveBlood": 1, "givePlasma": 0, "givePlatelet": 0, "regionCode": "016", "groupCode": "F30141", "latitude": 47.808314, "longitude": -3.342005, "name": "CAUDAN", "postCode": "56850", "samplingLocationCode": "968", "horaires": null, "infos": null, "metro": null, "bus": null, "tram": null, "parking": null, "debutInfos": null, "finInfos": null, "ville": null, "id": null, "phone": null, "urlBlood": null, "urlPlasma": null, "urlPlatelets": null}
