{"address1": null, "address2": "ROUTE DE LA VALETTE", "city": "CESSON SEVIGNE", "convocationLabel": "ESPACE DE GRIPPE PRES DU BOULODROME", "distance": 0.0, "fullAddress": "ROUTE DE LA VALETTE 35510 CESSON SEVIGNE", "giveBlood": 1, "givePlasma": 0, "givePlatelet": 0, "regionCode": "016", "groupCode": "F70037", "latitude": 48.115993, "longitude": -1.592637, "name": "CESSON SEVIGNE GRIPPE JO", "postCode": "35510", "samplingLocationCode": "10", "horaires": null, "infos": null, "metro": null, "bus": null, "tram": null, "parking": null, "debutInfos": null, "finInfos": null, "ville": null, "id": null, "phone": null, "urlBlood": null, "urlPlasma": null, "urlPlatelets": null}
{"address1": null, "address2": "1 RUE DU BAC", "city": "CESSON SEVIGNE", "convocationLabel": "LE CARRE SEVIGNE", "distance": 0.0, "fullAddress": "1 RUE DU BAC 35510 CESSON SEVIGNE", "giveBlood": 1, "givePlasma": 0, "givePlatelet": 0, "regionCode": "016", "groupCode": "F70037", "latitude": 48.117957, "longitude": -1.598982, "name": "CESSON SEVIGNE LE CARRE JO", "postCode": "35510", "samplingLocationCode": "11", "horaires": null, "infos": null, "metro": null, "bus": null, "tram": null, "parking": null, "debutInfos": null, "finInfos": null, "ville": null, "id": null, "phone": null, "urlBlood": null, "urlPlasma": null, "urlPlatelets": null}
{"address1": "PRES DU BOULODROME", "address2": "ROUTE DE LA VALETTE", "city": "CESSON SEVIGNE", "convocationLabel": "ESPACE DE GRIPPE", "distance": 0.0, "fullAddress": "PRES DU BOULODROME ROUTE DE LA VALETTE 35510 CESSON SEVIGNE", "giveBlood": 1, "givePlasma": 0, "givePlatelet": 0, "regionCode": "016", "groupCode": "F70037", "latitude": 48.116289419971594, "longitude": -1.5926527976989746, "name": "2 CESSON SEVIGNE-GRIPPE AM ", "postCode": "35510", "samplingLocationCode": "12", "horaires": null, "infos": null, "metro": null, "bus": null, "tram": null, "parking": null, "debutInfos": null, "finInfos": null, "ville": null, "id": null, "phone": null, "urlBlood": null, "urlPlasma": null, "urlPlatelets": null}
{"address1": "PRES DU BOULODROME", "address2": "ROUTE DE LA VALETTE", "city": "CESSON SEVIGNE", "convocationLabel": "ESPACE DE GRIPPE", "distance": 0.0, "fullAddress": "PRES DU BOULODROME ROUTE DE LA VALETTE 35510 CESSON SEVIGNE", "giveBlood": 1, "givePlasma": 0, "givePlatelet": 0, "regionCode": "016", "groupCode": "F70037", "latitude": 48.11989212, "longitude": -1.5869832, "name": "2 CESSON SEVIGNE-GRIPPE DAM J+", "postCode": "35510", "samplingLocationCode": "13", "horaires": null, "infos": null, "metro": null, "bus": null, "tram": null, "parking": null, "debutInfos": null, "finInfos": null, "ville": null, "id": null, "phone": null, "urlBlood": null, "urlPlasma": null, "urlPlatelets": null}
{"address1": null, "address2": "1 RUE DU BAC", "city": "CESSON SEVIGNE", "convocationLabel": "LE CARRE SEVIGNE", "distance": 0.0, "fullAddress": "1 RUE DU BAC 35510 CESSON SEVIGNE", "giveBlood": 1, "givePlasma": 0, "givePlatelet": 0, "regionCode": "016", "groupCode": "F70037", "latitude": 48.117957, "longitude": -1.598982, "name": "2 CESSON SEVIGNE-CARRE AM ", "postCode": "35510", "samplingLocationCode": "14", "horaires": null, "infos": null, "metro": null, "bus": null, "tram": null, "parking": null, "debutInfos": null, "finInfos": null, "ville": null, "id": null, "phone": null, "urlBlood": null, "urlPlasma": null, "urlPlatelets": null}
{"address1": null, "address2": "1 RUE DU BAC", "city": "CESSON SEVIGNE", "convocationLabel": "LE CARRE SEVIGNE", "distance": 0.0, "fullAddress": "1 RUE DU BAC 35510 CESSON SEVIGNE", "giveBlood": 1, "givePlasma": 0, "givePlatelet": 0, "regionCode": "016", "groupCode": "F70037", "latitude": 48.117957, "longitude": -1.598982, "name": "2 CESSON SEVIGNE-CARRE DAM J+", "postCode": "35510", "samplingLocationCode": "15", "horaires": null, "infos": null, "metro": null, "bus": null, "tram": null, "parking": null, "debutInfos": null, "finInfos": null, "ville": null, "id": null, "phone": null, "urlBlood": null, "urlPlasma": null, "urlPlatelets": null}
{"address1": "PRES DU BOULODROME", "address2": "ROUTE DE LA VALETTE", "city": "CESSON SEVIGNE", "convocationLabel": "ESPACE DE GRIPPE", "distance": 0.0, "fullAddress": "PRES DU BOULODROME ROUTE DE LA VALETTE 35510 CESSON SEVIGNE", "giveBlood": 1, "givePlasma": 0, "givePlatelet": 0, "regionCode": "016", "groupCode": "F70037", "latitude": 48.11634459585011, "longitude": -1.5925347805023193, "name": "2 CESSON SEVIGNE-GRIPPE DAM ", "postCode": "35510", "samplingLocationCode": "16", "horaires": null, "infos": null, "metro": null, "bus": null, "tram": null, "parking": null, "debutInfos": null, "finInfos": null, "ville": null, "id": null, "phone": null, "urlBlood": null, "urlPlasma": null, "urlPlatelets": null}
{"address1": "PRES DU BOULODROME", "address2": "ROUTE DE LA VALETTE", "city": "CESSON SEVIGNE", "convocationLabel": "ESPACE DE GRIPPE", "distance": 0.0, "fullAddress": "PRES DU BOULODROME ROUTE DE LA VALETTE 35510 CESSON SEVIGNE", "giveBlood": 1, "givePlasma": 0, "givePlatelet": 0, "regionCode": "016", "groupCode": "F70037", "latitude": 48.11623967209525, "longitude": -1.5924757719039915, "name": "2 CESSON SEVIGNE-GRIPPE AM J+", "postCode": "35510", "samplingLocationCode": "17", "horaires": null, "infos": null, "metro": null, "bus": null, "tram": null, "parking": null, "debutInfos": null, "finInfos": null, "ville": null, "id": null, "phone": null, "urlBlood": null, "urlPlasma": null, "urlPlatelets": null}
{"address1": "PRES DU BOULODROME", "address2": "ROUTE DE LA VALETTE", "city": "CESSON SEVIGNE", "convocationLabel": "ESPACE DE GRIPPE", "distance": 0.0, "fullAddress": "PRES DU BOULODROME ROUTE DE LA VALETTE 35510 CESSON SEVIGNE", "giveBlood": 1, "givePlasma": 0, "givePlatelet": 0, "regionCode": "016", "groupCode": "F70037", "latitude": 48.115993, "longitude": -1.592637, "name": "2 CESSON SEVIGNE-GRIPPE MAT ", "postCode": "35510", "samplingLocationCode": "18", "horaires": null, "infos": null, "metro": null, "bus": null, "tram": null, "parking": null, "debutInfos": null, "finInfos": null, "ville": null, "id": null, "phone": null, "urlBlood": null, "urlPlasma": null, "urlPlatelets": null}
{"address1": "PRES DU BOULODROME", "address2": "ROUTE DE LA VALETTE", "city": "CESSON SEVIGNE", "convocationLabel": "ESPACE DE GRIPPE", "distance": 0.0, "fullAddress": "PRES DU BOULODROME ROUTE DE LA VALETTE 35510 CESSON SEVIGNE", "giveBlood": 1, "givePlasma": 0, "givePlatelet": 0, "regionCode": "016", "groupCode": "F70037", "latitude": 48.115993, "longitude": -1.592637, "name": "2 CESSON SEVIGNE-GRIPPE JO", "postCode": "35510", "samplingLocationCode": "19", "horaires": null, "infos": null, "metro": null, "bus": null, "tram": null, "parking": null, "debutInfos": null, "finInfos": null, "ville": null, "id": null, "phone": null, "urlBlood": null, "urlPlasma": null, "urlPlatelets": null}
{"address1": null, "address2": "ROUTE DE LA VALETTE", "city": "CESSON SEVIGNE", "convocationLabel": "ESPACE DE GRIPPE PRES DU BOULODROME", "distance": 0.0, "fullAddress": "ROUTE DE LA VALETTE 35510 CESSON SEVIGNE", "giveBlood": 1, "givePlasma": 0, "givePlatelet": 0, "regionCode": "016", "groupCode": "F70037", "latitude": 48.115993, "longitude": -1.592637, "name": "CESSON SEVIGNE ", "postCode": "35510", "samplingLocationCode": "2", "horaires": null, "infos": null, "metro": null, "bus": null, "tram": null, "parking": null, "debutInfos": null, "finInfos": null, "ville": null, "id": null, "phone": null, "urlBlood": null, "urlPlasma": null, "urlPlatelets": null}
{"address1": null, "address2": "ROUTE DE LA VALETTE", "city": "CESSON SEVIGNE", "convocationLabel": "ESPACE DE GRIPPE PRES DU BOULODROME", "distance": 0.0, "fullAddress": "ROUTE DE LA VALETTE 35510 CESSON SEVIGNE", "giveBlood": 1, "givePlasma": 0, "givePlatelet": 0, "regionCode": "016", "groupCode": "F70037", "latitude": 48.115993, "longitude": -1.592637, "name": "CESSON SEVIGNE matin", "postCode": "35510", "samplingLocationCode": "3", "horaires": null, "infos": null, "metro": null, "bus": null, "tram": null, "parking": null, "debutInfos": null, "finInfos": null, "ville": null, "id": null, "phone": null, "urlBlood": null, "urlPlasma": null, "urlPlatelets": null}
{"address1": null, "address2": "ROUTE DE LA VALETTE", "city": "CESSON SEVIGNE", "convocationLabel": "ESPACE DE GRIPPE PRES DU BOULODROME", "distance": 0.0, "fullAddress": "ROUTE DE LA VALETTE 35510 CESSON SEVIGNE", "giveBlood": 1, "givePlasma": 0, "givePlatelet": 0, "regionCode": "016", "groupCode": "F70037", "latitude": 48.115993, "longitude": -1.592637, "name": "CESSON SEVIGNE amidi", "postCode": "35510", "samplingLocationCode": "4", "horaires": null, "infos": null, "metro": null, "bus": null, "tram": null, "parking": null, "debutInfos": null, "finInfos": null, "ville": null, "id": null, "phone": null, "urlBlood": null, "urlPlasma": null, "urlPlatelets": null}
{"address1": null, "address2": "ROUTE DE LA VALETTE", "city": "CESSON SEVIGNE", "convocationLabel": "ESPACE DE GRIPPE PRES DU BOULODROME", "distance": 0.0, "fullAddress": "ROUTE DE LA VALETTE 35510 CESSON SEVIGNE", "giveBlood": 1, "givePlasma": 0, "givePlatelet": 0, "regionCode": "016", "groupCode": "F70037", "latitude": 48.115993, "longitude": -1.592637, "name": "CESSON SEVIGNE M 11-13H30", "postCode": "35510", "samplingLocationCode": "5", "horaires": null, "infos": null, "metro": null, "bus": null, "tram": null, "parking": null, "debutInfos": null, "finInfos": null, "ville": null, "id": null, "phone": null, "urlBlood": null, "urlPlasma": null, "urlPlatelets": null}
{"address1": null, "address2": "ROUTE DE LA VALETTE", "city": "CESSON SEVIGNE", "convocationLabel": "ESPACE DE GRIPPE PRES DU BOULODROME", "distance": 0.0, "fullAddress": "ROUTE DE LA VALETTE 35510 CESSON SEVIGNE", "giveBlood": 1, "givePlasma": 0, "givePlatelet": 0, "regionCode": "016", "groupCode": "F70037", "latitude": 48.115993, "longitude": -1.592637, "name": "CESSON SEVIGNE (journ\u00e9e)", "postCode": "35510", "samplingLocationCode": "50", "horaires": null, "infos": null, "metro": null, "bus": null, "tram": null, "parking": null, "debutInfos": null, "finInfos": null, "ville": null, "id": null, "phone": null, "urlBlood": null, "urlPlasma": null, "urlPlatelets": null}
{"address1": null, "address2": "ROUTE DE LA VALETTE", "city": "CESSON SEVIGNE", "convocationLabel": "ESPACE DE GRIPPE PRES DU BOULODROME", "distance": 0.0, "fullAddress": "ROUTE DE LA VALETTE 35510 CESSON SEVIGNE", "giveBlood": 1, "givePlasma": 0, "givePlatelet": 0, "regionCode": "016", "groupCode": "F70037", "latitude": 48.115993, "longitude": -1.592637, "name": "CESSON SEVIGNE 15H30-19H", "postCode": "35510", "samplingLocationCode": "6", "horaires": null, "infos": null, "metro": null, "bus": null, "tram": null, "parking": null, "debutInfos": null, "finInfos": null, "ville": null, "id": null, "phone": null, "urlBlood": null, "urlPlasma": null, "urlPlatelets": null}
{"address1": null, "address2": "ROUTE DE LA VALETTE", "city": "CESSON SEVIGNE", "convocationLabel": "ESPACE DE GRIPPE PRES DU BOULODROME", "distance": 0.0, "fullAddress": "ROUTE DE LA VALETTE 35510 CESSON SEVIGNE", "giveBlood": 1, "givePlasma": 0, "givePlatelet": 0, "regionCode": "016", "groupCode": "F70037", "latitude": 48.12057114, "longitude": -1.58559752, "name": "CESSON SEVIGNE 12-15h", "postCode": "35510", "samplingLocationCode": "7", "horaires": null, "infos": null, "metro": null, "bus": null, "tram": null, "parking": null, "debutInfos": null, "finInfos": null, "ville": null, "id": null, "phone": null, "urlBlood": null, "urlPlasma": null, "urlPlatelets": null}
{"address1": null, "address2": "ROUTE DE LA VALETTE", "city": "CESSON SEVIGNE", "convocationLabel": "ESPACE DE GRIPPE PRES DU BOULODROME", "distance": 0.0, "fullAddress": "ROUTE DE LA VALETTE 35510 CESSON SEVIGNE", "giveBlood": 1, "givePlasma": 0, "givePlatelet": 0, "regionCode": "016", "groupCode": "F70037", "latitude": 48.11989212, "longitude": -1.5869832, "name": "CESSON SEVIGNE 16H-19H", "postCode": "35510", "samplingLocationCode": "8", "horaires": null, "infos": null, "metro": null, "bus": null, "tram": null, "parking": null, "debutInfos": null, "finInfos": null, "ville": null, "id": null, "phone": null, "urlBlood": null, "urlPlasma": null, "urlPlatelets": null}
{"address1": null, "address2": "ROUTE DE LA VALETTE", "city": "CESSON SEVIGNE", "convocationLabel": "ESPACE DE GRIPPE PRES DU BOULODROME", "distance": 0.0, "fullAddress": "ROUTE DE LA VALETTE 35510 CESSON SEVIGNE", "giveBlood": 1, "givePlasma": 0, "givePlatelet": 0, "regionCode": "016", "groupCode": "F70037", "latitude": 48.115993, "longitude": -1.592637, "name": "CESSON SEVIGNE 12-15h RDV", "postCode": "35510", "samplingLocationCode": "9", "horaires": null, "infos": null, "metro": null, "bus": null, "tram": null, "parking": null, "debutInfos": null, "finInfos": null, "ville": null, "id": null, "phone": null, "urlBlood": null, "urlPlasma": null, "urlPlatelets": null}
