{"address1": null, "address2": "RUE R.P. JANVIER", "city": "ST MEEN LE GRAND", "convocationLabel": "CENTRE CULTUREL THEODORE BOTREL", "distance": 0.0, "fullAddress": "RUE R.P. JANVIER 35290 ST MEEN LE GRAND", "giveBlood": 1, "givePlasma": 0, "givePlatelet": 0, "regionCode": "016", "groupCode": "F70242", "latitude": 48.189141, "longitude": -2.193765, "name": "ST MEEN LE GRAND MAT", "postCode": "35290", "samplingLocationCode": "2", "horaires": null, "infos": null, "metro": null, "bus": null, "tram": null, "parking": null, "debutInfos": null, "finInfos": null, "ville": null, "id": null, "phone": null, "urlBlood": null, "urlPlasma": null, "urlPlatelets": null}
{"address1": null, "address2": "RUE R.P. JANVIER", "city": "ST MEEN LE GRAND", "convocationLabel": "CENTRE CULTUREL THEODORE BOTREL", "distance": 0.0, "fullAddress": "RUE R.P. JANVIER 35290 ST MEEN LE GRAND", "giveBlood": 1, "givePlasma": 0, "givePlatelet": 0, "regionCode": "016", "groupCode": "F70242", "latitude": 48.189141, "longitude": -2.193765, "name": "ST MEEN LE GRAND", "postCode": "35290", "samplingLocationCode": "254", "horaires": null, "infos": null, "metro": null, "bus": null, "tram": null, "parking": null, "debutInfos": null, "finInfos": null, "ville": null, "id": null, "phone": null, "urlBlood": null, "urlPlasma": null, "urlPlatelets": null}
{"address1": null, "address2": "RUE R.P. JANVIER", "city": "ST MEEN LE GRAND", "convocationLabel": "CENTRE CULTUREL THEODORE BOTREL", "distance": 0.0, "fullAddress": "RUE R.P. JANVIER 35290 ST MEEN LE GRAND", "giveBlood": 1, "givePlasma": 0, "givePlatelet": 0, "regionCode": "016", "groupCode": "F70242", "latitude": 48.18901825, "longitude": -2.19397807, "name": "ST MEEN LE GRAND AM", "postCode": "35290", "samplingLocationCode": "3", "horaires": null, "infos": null, "metro": null, "bus": null, "tram": null, "parking": null, "debutInfos": null, "finInfos": null, "ville": null, "id": null, "phone": null, "urlBlood": null, "urlPlasma": null, "urlPlatelets": null}
{"address1": null, "address2": "RUE R.P. JANVIER", "city": "ST MEEN LE GRAND", "convocationLabel": "CENTRE CULTUREL THEODORE BOTREL", "distance": 0.0, "fullAddress": "RUE R.P. JANVIER 35290 ST MEEN LE GRAND", "giveBlood": 1, "givePlasma": 0, "givePlatelet": 0, "regionCode": "016", "groupCode": "F70242", "latitude": 48.189141, "longitude": -2.193765, "name": "ST MEEN LE GRAND SEM AM", "postCode": "35290", "samplingLocationCode": "4", "horaires": null, "infos": null, "metro": null, "bus": null, "tram": null, "parking": null, "debutInfos": null, "finInfos": null, "ville": null, "id": null, "phone": null, "urlBlood": null, "urlPlasma": null, "urlPlatelets": null}
{"address1": null, "address2": "RUE R.P. JANVIER", "city": "ST MEEN LE GRAND", "convocationLabel": "CENTRE CULTUREL THEODORE BOTREL", "distance": 0.0, "fullAddress": "RUE R.P. JANVIER 35290 ST MEEN LE GRAND", "giveBlood": 1, "givePlasma": 0, "givePlatelet": 0, "regionCode": "016", "groupCode": "F70242", "latitude": 48.189141, "longitude": -2.193765, "name": "2 ST MEEN LE GRAND-BOTREL MAT", "postCode": "35290", "samplingLocationCode": "5", "horaires": null, "infos": null, "metro": null, "bus": null, "tram": null, "parking": null, "debutInfos": null, "finInfos": null, "ville": null, "id": null, "phone": null, "urlBlood": null, "urlPlasma": null, "urlPlatelets": null}
{"address1": null, "address2": "RUE R.P. JANVIER", "city": "ST MEEN LE GRAND", "convocationLabel": "CENTRE CULTUREL THEODORE BOTREL", "distance": 0.0, "fullAddress": "RUE R.P. JANVIER 35290 ST MEEN LE GRAND", "giveBlood": 1, "givePlasma": 0, "givePlatelet": 0, "regionCode": "016", "groupCode": "F70242", "latitude": 48.18981171, "longitude": -2.19298506, "name": "2 ST MEEN LE GRAND-BOTREL AM", "postCode": "35290", "samplingLocationCode": "6", "horaires": null, "infos": null, "metro": null, "bus": null, "tram": null, "parking": null, "debutInfos": null, "finInfos": null, "ville": null, "id": null, "phone": null, "urlBlood": null, "urlPlasma": null, "urlPlatelets": null}
{"address1": null, "address2": "RUE R.P. JANVIER", "city": "ST MEEN LE GRAND", "convocationLabel": "CENTRE CULTUREL THEODORE BOTREL", "distance": 0.0, "fullAddress": "RUE R.P. JANVIER 35290 ST MEEN LE GRAND", "giveBlood": 1, "givePlasma": 0, "givePlatelet": 0, "regionCode": "016", "groupCode": "F70242", "latitude": 48.189141, "longitude": -2.193765, "name": "2 ST MEEN LE GD-BOTRE 13H30 AM", "postCode": "35290", "samplingLocationCode": "7", "horaires": null, "infos": null, "metro": null, "bus": null, "tram": null, "parking": null, "debutInfos": null, "finInfos": null, "ville": null, "id": null, "phone": null, "urlBlood": null, "urlPlasma": null, "urlPlatelets": null}
