{"address1": "BATIMENT 43  (pr\u00e8s de la B.U.)", "address2": "ALLEE DE BEAULIEU", "city": "RENNES", "convocationLabel": "CAMPUS DE BEAULIEU", "distance": 0.0, "fullAddress": "BATIMENT 43  (pr\u00e8s de la B.U.) ALLEE DE BEAULIEU 35042 RENNES", "giveBlood": 1, "givePlasma": 0, "givePlatelet": 0, "regionCode": "016", "groupCode": "F70595", "latitude": 48.11913681, "longitude": -1.635198, "name": "2 CAMPUS DE BEAULIEU-43 MAT/AM", "postCode": "35042", "samplingLocationCode": "10", "horaires": null, "infos": null, "metro": null, "bus": null, "tram": null, "parking": null, "debutInfos": null, "finInfos": null, "ville": null, "id": null, "phone": null, "urlBlood": null, "urlPlasma": null, "urlPlatelets": null}
{"address1": "BATIMENT 43  (pr\u00e8s de la B.U.)", "address2": "ALLEE DE BEAULIEU", "city": "RENNES", "convocationLabel": "CAMPUS DE BEAULIEU", "distance": 0.0, "fullAddress": "BATIMENT 43  (pr\u00e8s de la B.U.) ALLEE DE BEAULIEU 35042 RENNES", "giveBlood": 1, "givePlasma": 0, "givePlatelet": 0, "regionCode": "016", "groupCode": "F70595", "latitude": 48.11913681, "longitude": -1.635198, "name": "2 CAMPUS BEAULIEU-43 MAT/AM J+", "postCode": "35042", "samplingLocationCode": "11", "horaires": null, "infos": null, "metro": null, "bus": null, "tram": null, "parking": null, "debutInfos": null, "finInfos": null, "ville": null, "id": null, "phone": null, "urlBlood": null, "urlPlasma": null, "urlPlatelets": null}
{"address1": "BATIMENT 43  (pr\u00e8s de la B.U.)", "address2": "ALLEE DE BEAULIEU", "city": "RENNES", "convocationLabel": "CAMPUS DE BEAULIEU", "distance": 0.0, "fullAddress": "BATIMENT 43  (pr\u00e8s de la B.U.) ALLEE DE BEAULIEU 35042 RENNES", "giveBlood": 1, "givePlasma": 0, "givePlatelet": 0, "regionCode": "016", "groupCode": "F70595", "latitude": 48.119189900523395, "longitude": -1.6350812150017204, "name": "2 CAMPUS DE BEAULIEU-43 MAT J+", "postCode": "35042", "samplingLocationCode": "12", "horaires": null, "infos": null, "metro": null, "bus": null, "tram": null, "parking": null, "debutInfos": null, "finInfos": null, "ville": null, "id": null, "phone": null, "urlBlood": null, "urlPlasma": null, "urlPlatelets": null}
{"address1": null, "address2": "263 AVENUE DU GENERAL LECLERC CS 74205", "city": "RENNES", "convocationLabel": "BATIMENT ADMINISTRATIF BAT 1", "distance": 0.0, "fullAddress": "263 AVENUE DU GENERAL LECLERC CS 74205 35042 RENNES", "giveBlood": 1, "givePlasma": 0, "givePlatelet": 0, "regionCode": "016", "groupCode": "F70595", "latitude": 48.110899, "longitude": -1.68365, "name": "CAMPUS DE BEAULIEU MA JEU", "postCode": "35042", "samplingLocationCode": "2", "horaires": null, "infos": null, "metro": null, "bus": null, "tram": null, "parking": null, "debutInfos": null, "finInfos": null, "ville": null, "id": null, "phone": null, "urlBlood": null, "urlPlasma": null, "urlPlatelets": null}
{"address1": "CAMPUS BEAULIEU", "address2": "263 AVENUE DU GENERAL LECLERC", "city": "RENNES CEDEX", "convocationLabel": "BAT8 B -BIBLIOTHEQUE  GEA -SALLE CONDORCET", "distance": 0.0, "fullAddress": "CAMPUS BEAULIEU 263 AVENUE DU GENERAL LECLERC 35042 RENNES CEDEX", "giveBlood": 1, "givePlasma": 0, "givePlatelet": 0, "regionCode": "016", "groupCode": "F70595", "latitude": 47.962313, "longitude": -1.506261, "name": "CAMPUS B CONDORCET", "postCode": "35042", "samplingLocationCode": "3", "horaires": null, "infos": null, "metro": null, "bus": null, "tram": null, "parking": null, "debutInfos": null, "finInfos": null, "ville": null, "id": null, "phone": null, "urlBlood": null, "urlPlasma": null, "urlPlatelets": null}
{"address1": null, "address2": "263 AVENUE DU GENERAL LECLERC CS 74205", "city": "RENNES", "convocationLabel": "BATIMENT ADMINISTRATIF BAT1", "distance": 0.0, "fullAddress": "263 AVENUE DU GENERAL LECLERC CS 74205 35042 RENNES", "giveBlood": 1, "givePlasma": 0, "givePlatelet": 0, "regionCode": "016", "groupCode": "F70595", "latitude": 48.110899, "longitude": -1.68365, "name": "CAMPUS DE BEAULIEU ME", "postCode": "35042", "samplingLocationCode": "4", "horaires": null, "infos": null, "metro": null, "bus": null, "tram": null, "parking": null, "debutInfos": null, "finInfos": null, "ville": null, "id": null, "phone": null, "urlBlood": null, "urlPlasma": null, "urlPlatelets": null}
{"address1": null, "address2": "All\u00e9e de Beaulieu", "city": "RENNES", "convocationLabel": "BATIMENT 43  (pr\u00e8s de la B.U.)", "distance": 0.0, "fullAddress": "All\u00e9e de Beaulieu 35042 RENNES", "giveBlood": 1, "givePlasma": 0, "givePlatelet": 0, "regionCode": "016", "groupCode": "F70595", "latitude": 48.110899, "longitude": -1.68365, "name": "CAMPUS DE BEAULIEU MA 43", "postCode": "35042", "samplingLocationCode": "5", "horaires": null, "infos": null, "metro": null, "bus": null, "tram": null, "parking": null, "debutInfos": null, "finInfos": null, "ville": null, "id": null, "phone": null, "urlBlood": null, "urlPlasma": null, "urlPlatelets": null}
{"address1": null, "address2": "All\u00e9e de Beaulieu", "city": "RENNES", "convocationLabel": "BATIMENT 43  (pr\u00e8s de la B.U.)", "distance": 0.0, "fullAddress": "All\u00e9e de Beaulieu 35042 RENNES", "giveBlood": 1, "givePlasma": 0, "givePlatelet": 0, "regionCode": "016", "groupCode": "F70595", "latitude": 48.110899, "longitude": -1.68365, "name": "CAMPUS DE BEAULIEU ME 43", "postCode": "35042", "samplingLocationCode": "6", "horaires": null, "infos": null, "metro": null, "bus": null, "tram": null, "parking": null, "debutInfos": null, "finInfos": null, "ville": null, "id": null, "phone": null, "urlBlood": null, "urlPlasma": null, "urlPlatelets": null}
{"address1": "CAMPUS BEAULIEU", "address2": "263 AVENUE DU GENERAL LECLERC CS74205", "city": "RENNES", "convocationLabel": "BATIMENT ADMINISTRATIF BAT 1", "distance": 0.0, "fullAddress": "CAMPUS BEAULIEU 263 AVENUE DU GENERAL LECLERC CS74205 35042 RENNES", "giveBlood": 1, "givePlasma": 0, "givePlatelet": 0, "regionCode": "016", "groupCode": "F70595", "latitude": 48.110899, "longitude": -1.68365, "name": "CAMPUS DE BEAULIEU (10-17H30)", "postCode": "35042", "samplingLocationCode": "629", "horaires": null, "infos": null, "metro": null, "bus": null, "tram": null, "parking": null, "debutInfos": null, "finInfos": null, "ville": null, "id": null, "phone": null, "urlBlood": null, "urlPlasma": null, "urlPlatelets": null}
{"address1": null, "address2": "All\u00e9e de Beaulieu", "city": "RENNES", "convocationLabel": "BATIMENT 43  (pr\u00e8s de la B.U.)", "distance": 0.0, "fullAddress": "All\u00e9e de Beaulieu 35042 RENNES", "giveBlood": 1, "givePlasma": 0, "givePlatelet": 0, "regionCode": "016", "groupCode": "F70595", "latitude": 48.110899, "longitude": -1.68365, "name": "CAMPUS DE BEAULIEU JE 43", "postCode": "35042", "samplingLocationCode": "7", "horaires": null, "infos": null, "metro": null, "bus": null, "tram": null, "parking": null, "debutInfos": null, "finInfos": null, "ville": null, "id": null, "phone": null, "urlBlood": null, "urlPlasma": null, "urlPlatelets": null}
{"address1": "BATIMENT 43  (pr\u00e8s de la B.U.)", "address2": "ALLEE DE BEAULIEU", "city": "RENNES", "convocationLabel": "CAMPUS DE BEAULIEU", "distance": 0.0, "fullAddress": "BATIMENT 43  (pr\u00e8s de la B.U.) ALLEE DE BEAULIEU 35042 RENNES", "giveBlood": 1, "givePlasma": 0, "givePlatelet": 0, "regionCode": "016", "groupCode": "F70595", "latitude": 48.11913681, "longitude": -1.635198, "name": "2 CAMPUS DE BEAULIEU-43 DAM ", "postCode": "35042", "samplingLocationCode": "8", "horaires": null, "infos": null, "metro": null, "bus": null, "tram": null, "parking": null, "debutInfos": null, "finInfos": null, "ville": null, "id": null, "phone": null, "urlBlood": null, "urlPlasma": null, "urlPlatelets": null}
{"address1": "BATIMENT 43  (pr\u00e8s de la B.U.)", "address2": "ALLEE DE BEAULIEU", "city": "RENNES", "convocationLabel": "CAMPUS DE BEAULIEU", "distance": 0.0, "fullAddress": "BATIMENT 43  (pr\u00e8s de la B.U.) ALLEE DE BEAULIEU 35042 RENNES", "giveBlood": 1, "givePlasma": 0, "givePlatelet": 0, "regionCode": "016", "groupCode": "F70595", "latitude": 48.11913681, "longitude": -1.635198, "name": "2 CAMPUS DE BEAULIEU-43 15h J+", "postCode": "35042", "samplingLocationCode": "9", "horaires": null, "infos": null, "metro": null, "bus": null, "tram": null, "parking": null, "debutInfos": null, "finInfos": null, "ville": null, "id": null, "phone": null, "urlBlood": null, "urlPlasma": null, "urlPlatelets": null}
