{"address1": "TECHNICOLOR R & D FRANCE", "address2": "AVENUE DES CHAMPS BLANCS", "city": "CESSON SEVIGNE", "convocationLabel": "SALLE HOLLYWOOD", "distance": 0.0, "fullAddress": "TECHNICOLOR R & D FRANCE AVENUE DES CHAMPS BLANCS 35510 CESSON SEVIGNE", "giveBlood": 1, "givePlasma": 0, "givePlatelet": 0, "regionCode": "016", "groupCode": "F70366", "latitude": 48.131439, "longitude": -1.614958, "name": "CESSON TECHNICOLOR R&D matin ", "postCode": "35510", "samplingLocationCode": "395", "horaires": null, "infos": null, "metro": null, "bus": null, "tram": null, "parking": null, "debutInfos": null, "finInfos": null, "ville": null, "id": null, "phone": null, "urlBlood": null, "urlPlasma": null, "urlPlatelets": null}
{"address1": "TECHNICOLOR R & D FRANCE", "address2": "AVENUE DES CHAMPS BLANCS", "city": "CESSON SEVIGNE", "convocationLabel": "SALLE HOLLYWOOD", "distance": 0.0, "fullAddress": "TECHNICOLOR R & D FRANCE AVENUE DES CHAMPS BLANCS 35510 CESSON SEVIGNE", "giveBlood": 1, "givePlasma": 0, "givePlatelet": 0, "regionCode": "016", "groupCode": "F70366", "latitude": 48.131439, "longitude": -1.614958, "name": "CESSON-TECHNICOLOR R&D amidi ", "postCode": "35510", "samplingLocationCode": "4", "horaires": null, "infos": null, "metro": null, "bus": null, "tram": null, "parking": null, "debutInfos": null, "finInfos": null, "ville": null, "id": null, "phone": null, "urlBlood": null, "urlPlasma": null, "urlPlatelets": null}
{"address1": "SALLE HOLLYWOOD", "address2": "AVENUE DES CHAMPS BLANCS", "city": "CESSON SEVIGNE", "convocationLabel": "EXPERIS / VANTIVA", "distance": 0.0, "fullAddress": "SALLE HOLLYWOOD AVENUE DES CHAMPS BLANCS 35510 CESSON SEVIGNE", "giveBlood": 1, "givePlasma": 0, "givePlatelet": 0, "regionCode": "016", "groupCode": "F70366", "latitude": 48.131439, "longitude": -1.614958, "name": "2 CESSON-EXPE/VANTIVA DAM", "postCode": "35510", "samplingLocationCode": "5", "horaires": null, "infos": null, "metro": null, "bus": null, "tram": null, "parking": null, "debutInfos": null, "finInfos": null, "ville": null, "id": null, "phone": null, "urlBlood": null, "urlPlasma": null, "urlPlatelets": null}
