{"address1": null, "address2": "RUE LE LABOURER", "city": "BAUD", "convocationLabel": "SALLE DES FETES DU SCAOUET", "distance": 0.0, "fullAddress": "RUE LE LABOURER 56150 BAUD", "giveBlood": 1, "givePlasma": 0, "givePlatelet": 0, "regionCode": "016", "groupCode": "F30108", "latitude": 47.87166977, "longitude": -3.01483583, "name": "BAUD 15 h - 19 h", "postCode": "56150", "samplingLocationCode": "1518", "horaires": null, "infos": null, "metro": null, "bus": null, "tram": null, "parking": null, "debutInfos": null, "finInfos": null, "ville": null, "id": null, "phone": null, "urlBlood": null, "urlPlasma": null, "urlPlatelets": null}
{"address1": null, "address2": "RUE LE LABOURER", "city": "BAUD", "convocationLabel": "SALLE DES FETES DU SCAOUET", "distance": 0.0, "fullAddress": "RUE LE LABOURER 56150 BAUD", "giveBlood": 1, "givePlasma": 0, "givePlatelet": 0, "regionCode": "016", "groupCode": "F30108", "latitude": 47.87163, "longitude": -3.015157, "name": "BAUD M", "postCode": "56150", "samplingLocationCode": "2", "horaires": null, "infos": null, "metro": null, "bus": null, "tram": null, "parking": null, "debutInfos": null, "finInfos": null, "ville": null, "id": null, "phone": null, "urlBlood": null, "urlPlasma": null, "urlPlatelets": null}
{"address1": null, "address2": "RUE LE LABOURER", "city": "BAUD", "convocationLabel": "SALLE DES FETES DU SCAOUET", "distance": 0.0, "fullAddress": "RUE LE LABOURER 56150 BAUD", "giveBlood": 1, "givePlasma": 0, "givePlatelet": 0, "regionCode": "016", "groupCode": "F30108", "latitude": 47.87166977, "longitude": -3.01483583, "name": "BAUD 14 h 30 -  19 h", "postCode": "56150", "samplingLocationCode": "3", "horaires": null, "infos": null, "metro": null, "bus": null, "tram": null, "parking": null, "debutInfos": null, "finInfos": null, "ville": null, "id": null, "phone": null, "urlBlood": null, "urlPlasma": null, "urlPlatelets": null}
{"address1": null, "address2": "RUE LE LABOURER", "city": "BAUD", "convocationLabel": "SALLE DES FETES DU SCAOUET", "distance": 0.0, "fullAddress": "RUE LE LABOURER 56150 BAUD", "giveBlood": 1, "givePlasma": 0, "givePlatelet": 0, "regionCode": "016", "groupCode": "F30108", "latitude": 47.87163, "longitude": -3.015157, "name": "BAUD S (vannes)", "postCode": "56150", "samplingLocationCode": "4", "horaires": null, "infos": null, "metro": null, "bus": null, "tram": null, "parking": null, "debutInfos": null, "finInfos": null, "ville": null, "id": null, "phone": null, "urlBlood": null, "urlPlasma": null, "urlPlatelets": null}
{"address1": null, "address2": "RUE LE LABOURER", "city": "BAUD", "convocationLabel": "SALLE DES FETES DU SCAOUET", "distance": 0.0, "fullAddress": "RUE LE LABOURER 56150 BAUD", "giveBlood": 1, "givePlasma": 0, "givePlatelet": 0, "regionCode": "016", "groupCode": "F30108", "latitude": 47.87163, "longitude": -3.015157, "name": "BAUD 12 H 00 - 16 H 30", "postCode": "56150", "samplingLocationCode": "5", "horaires": null, "infos": null, "metro": null, "bus": null, "tram": null, "parking": null, "debutInfos": null, "finInfos": null, "ville": null, "id": null, "phone": null, "urlBlood": null, "urlPlasma": null, "urlPlatelets": null}
{"address1": null, "address2": "RUE LE LABOURER", "city": "BAUD", "convocationLabel": "SALLE DES FETES DU SCAOUET", "distance": 0.0, "fullAddress": "RUE LE LABOURER 56150 BAUD", "giveBlood": 1, "givePlasma": 0, "givePlatelet": 0, "regionCode": "016", "groupCode": "F30108", "latitude": 47.87163, "longitude": -3.015157, "name": "BAUD 14h00 - 18h30", "postCode": "56150", "samplingLocationCode": "6", "horaires": null, "infos": null, "metro": null, "bus": null, "tram": null, "parking": null, "debutInfos": null, "finInfos": null, "ville": null, "id": null, "phone": null, "urlBlood": null, "urlPlasma": null, "urlPlatelets": null}
{"address1": null, "address2": "RUE LE LABOURER", "city": "BAUD", "convocationLabel": "SALLE DES FETES DU SCAOUET", "distance": 0.0, "fullAddress": "RUE LE LABOURER 56150 BAUD", "giveBlood": 1, "givePlasma": 0, "givePlatelet": 0, "regionCode": "016", "groupCode": "F30108", "latitude": 47.87163, "longitude": -3.015157, "name": "BAUD 14 H 30 - 18 H 30", "postCode": "56150", "samplingLocationCode": "7", "horaires": null, "infos": null, "metro": null, "bus": null, "tram": null, "parking": null, "debutInfos": null, "finInfos": null, "ville": null, "id": null, "phone": null, "urlBlood": null, "urlPlasma": null, "urlPlatelets": null}
