{"address1": null, "address2": "RUE VINCENT JEZEQUEL", "city": "LE RELECQ KERHUON", "convocationLabel": "ASTROLABE", "distance": 0.0, "fullAddress": "RUE VINCENT JEZEQUEL 29480 LE RELECQ KERHUON", "giveBlood": 1, "givePlasma": 0, "givePlatelet": 0, "regionCode": "016", "groupCode": "F50130", "latitude": 48.40146255, "longitude": -4.39289761, "name": "LE RELECQ KERHUON ASTROLABE", "postCode": "29480", "samplingLocationCode": "2", "horaires": null, "infos": null, "metro": null, "bus": null, "tram": null, "parking": null, "debutInfos": null, "finInfos": null, "ville": null, "id": null, "phone": null, "urlBlood": null, "urlPlasma": null, "urlPlatelets": null}
{"address1": null, "address2": "64 RUE VINCENT JEZEQUEL", "city": "LE RELECQ KERHUON", "convocationLabel": "CENTRE SOCIO CULTUREL J. JACOLOT", "distance": 0.0, "fullAddress": "64 RUE VINCENT JEZEQUEL 29480 LE RELECQ KERHUON", "giveBlood": 1, "givePlasma": 0, "givePlatelet": 0, "regionCode": "016", "groupCode": "F50130", "latitude": 48.4017, "longitude": -4.391795, "name": "LE RELECQ KERHUON MAI", "postCode": "29480", "samplingLocationCode": "3", "horaires": null, "infos": null, "metro": null, "bus": null, "tram": null, "parking": null, "debutInfos": null, "finInfos": null, "ville": null, "id": null, "phone": null, "urlBlood": null, "urlPlasma": null, "urlPlatelets": null}
{"address1": null, "address2": "64 RUE VINCENT JEZEQUEL", "city": "LE RELECQ KERHUON", "convocationLabel": "CENTRE SOCIO CULTUREL J. JACOLOT", "distance": 0.0, "fullAddress": "64 RUE VINCENT JEZEQUEL 29480 LE RELECQ KERHUON", "giveBlood": 1, "givePlasma": 0, "givePlatelet": 0, "regionCode": "016", "groupCode": "F50130", "latitude": 48.40188599, "longitude": -4.39182949, "name": "LE RELECQ KERHUON JACOLOT", "postCode": "29480", "samplingLocationCode": "4", "horaires": null, "infos": null, "metro": null, "bus": null, "tram": null, "parking": null, "debutInfos": null, "finInfos": null, "ville": null, "id": null, "phone": null, "urlBlood": null, "urlPlasma": null, "urlPlatelets": null}
{"address1": null, "address2": "4 RUE GAY LUSSAC", "city": "LE RELECQ KERHUON", "convocationLabel": "MAISON MUNICIPALE DES ASSOCIATIONS", "distance": 0.0, "fullAddress": "4 RUE GAY LUSSAC 29480 LE RELECQ KERHUON", "giveBlood": 1, "givePlasma": 0, "givePlatelet": 0, "regionCode": "016", "groupCode": "F50130", "latitude": 48.397587, "longitude": -4.412116, "name": "LE RELECQ KERHUON MMA", "postCode": "29480", "samplingLocationCode": "5", "horaires": null, "infos": null, "metro": null, "bus": null, "tram": null, "parking": null, "debutInfos": null, "finInfos": null, "ville": null, "id": null, "phone": null, "urlBlood": null, "urlPlasma": null, "urlPlatelets": null}
{"address1": null, "address2": "64 RUE VINCENT JEZEQUEL", "city": "LE RELECQ KERHUON", "convocationLabel": "CENTRE SOCIO CULTUREL J. JACOLOT", "distance": 0.0, "fullAddress": "64 RUE VINCENT JEZEQUEL 29480 LE RELECQ KERHUON", "giveBlood": 1, "givePlasma": 0, "givePlatelet": 0, "regionCode": "016", "groupCode": "F50130", "latitude": 48.4017, "longitude": -4.391795, "name": "LE RELECQ KERHUON SEPT", "postCode": "29480", "samplingLocationCode": "808", "horaires": null, "infos": null, "metro": null, "bus": null, "tram": null, "parking": null, "debutInfos": null, "finInfos": null, "ville": null, "id": null, "phone": null, "urlBlood": null, "urlPlasma": null, "urlPlatelets": null}
