{"address1": "CAMPUS DE KER LANN", "address2": null, "city": null, "convocationLabel": "ECAM RENNES - LOUIS DE BROGLIE BIBLIOTHEQUE", "distance": 0.0, "fullAddress": "CAMPUS DE KER LANN 35170", "giveBlood": 1, "givePlasma": 0, "givePlatelet": 0, "regionCode": "016", "groupCode": "F70572", "latitude": 48.047526, "longitude": -1.742087, "name": "BRUZ-KER LANN AM", "postCode": "35170", "samplingLocationCode": "2", "horaires": null, "infos": null, "metro": null, "bus": null, "tram": null, "parking": null, "debutInfos": null, "finInfos": null, "ville": null, "id": null, "phone": null, "urlBlood": null, "urlPlasma": null, "urlPlatelets": null}
{"address1": "ECAM RENNES -  BIBLIOTHEQUE", "address2": "2 CTR ANTOINE DE SAINT-EXUPERY", "city": "BRUZ", "convocationLabel": "CAMPUS DE KER LANN", "distance": 0.0, "fullAddress": "ECAM RENNES -  BIBLIOTHEQUE 2 CTR ANTOINE DE SAINT-EXUPERY 35170 BRUZ", "giveBlood": 1, "givePlasma": 0, "givePlatelet": 0, "regionCode": "016", "groupCode": "F70572", "latitude": 48.047526, "longitude": -1.742087, "name": "2 BRUZ-KER LANN-ECAM DAM ", "postCode": "35170", "samplingLocationCode": "3", "horaires": null, "infos": null, "metro": null, "bus": null, "tram": null, "parking": null, "debutInfos": null, "finInfos": null, "ville": null, "id": null, "phone": null, "urlBlood": null, "urlPlasma": null, "urlPlatelets": null}
{"address1": "ECAM RENNES -  BIBLIOTHEQUE", "address2": "CAMPUS DE KER LANN", "city": "BRUZ", "convocationLabel": "CAMPUS DE KER LANN", "distance": 0.0, "fullAddress": "ECAM RENNES -  BIBLIOTHEQUE CAMPUS DE KER LANN 35170 BRUZ", "giveBlood": 1, "givePlasma": 0, "givePlatelet": 0, "regionCode": "016", "groupCode": "F70572", "latitude": 48.047526, "longitude": -1.742087, "name": "2 BRUZ-KER LANN-ECAM DAM J+", "postCode": "35170", "samplingLocationCode": "4", "horaires": null, "infos": null, "metro": null, "bus": null, "tram": null, "parking": null, "debutInfos": null, "finInfos": null, "ville": null, "id": null, "phone": null, "urlBlood": null, "urlPlasma": null, "urlPlatelets": null}
{"address1": "ECAM RENNES -  BIBLIOTHEQUE", "address2": "2 CTR ANTOINE DE SAINT-EXUPERY", "city": "BRUZ", "convocationLabel": "CAMPUS DE KER LANN", "distance": 0.0, "fullAddress": "ECAM RENNES -  BIBLIOTHEQUE 2 CTR ANTOINE DE SAINT-EXUPERY 35170 BRUZ", "giveBlood": 1, "givePlasma": 0, "givePlatelet": 0, "regionCode": "016", "groupCode": "F70572", "latitude": 48.047526, "longitude": -1.742087, "name": "2 BRUZ-KER LANN-ECAM MAT/AM", "postCode": "35170", "samplingLocationCode": "5", "horaires": null, "infos": null, "metro": null, "bus": null, "tram": null, "parking": null, "debutInfos": null, "finInfos": null, "ville": null, "id": null, "phone": null, "urlBlood": null, "urlPlasma": null, "urlPlatelets": null}
{"address1": "ECAM RENNES -  BIBLIOTHEQUE", "address2": "2 CTR ANTOINE DE SAINT-EXUPERY", "city": "BRUZ", "convocationLabel": "CAMPUS DE KER LANN", "distance": 0.0, "fullAddress": "ECAM RENNES -  BIBLIOTHEQUE 2 CTR ANTOINE DE SAINT-EXUPERY 35170 BRUZ", "giveBlood": 1, "givePlasma": 0, "givePlatelet": 0, "regionCode": "016", "groupCode": "F70572", "latitude": 48.047526, "longitude": -1.742087, "name": "2 BRUZ-KER LANN-ECAM MAT/AM J+", "postCode": "35170", "samplingLocationCode": "6", "horaires": null, "infos": null, "metro": null, "bus": null, "tram": null, "parking": null, "debutInfos": null, "finInfos": null, "ville": null, "id": null, "phone": null, "urlBlood": null, "urlPlasma": null, "urlPlatelets": null}
{"address1": null, "address2": "CAMPUS DE KER LANN", "city": "BRUZ", "convocationLabel": "ECAM RENNES -  BIBLIOTHEQUE", "distance": 0.0, "fullAddress": "CAMPUS DE KER LANN 35170 BRUZ", "giveBlood": 1, "givePlasma": 0, "givePlatelet": 0, "regionCode": "016", "groupCode": "F70572", "latitude": 48.047526, "longitude": -1.742087, "name": "KER LANN", "postCode": "35170", "samplingLocationCode": "606", "horaires": null, "infos": null, "metro": null, "bus": null, "tram": null, "parking": null, "debutInfos": null, "finInfos": null, "ville": null, "id": null, "phone": null, "urlBlood": null, "urlPlasma": null, "urlPlatelets": null}
