{"address1": null, "address2": "RUE DE L ECUSSON", "city": "JOSSELIN", "convocationLabel": "CENTRE CULTUREL L'ECUSSON", "distance": 0.0, "fullAddress": "RUE DE L ECUSSON 56120 JOSSELIN", "giveBlood": 1, "givePlasma": 0, "givePlatelet": 0, "regionCode": "016", "groupCode": "F30219", "latitude": 47.961911, "longitude": -2.542758, "name": "JOSSELIN 08h30-12h30", "postCode": "56120", "samplingLocationCode": "1556", "horaires": null, "infos": null, "metro": null, "bus": null, "tram": null, "parking": null, "debutInfos": null, "finInfos": null, "ville": null, "id": null, "phone": null, "urlBlood": null, "urlPlasma": null, "urlPlatelets": null}
{"address1": null, "address2": "RUE DE L ECUSSON", "city": "JOSSELIN", "convocationLabel": "CENTRE CULTUREL L'ECUSSON", "distance": 0.0, "fullAddress": "RUE DE L ECUSSON 56120 JOSSELIN", "giveBlood": 1, "givePlasma": 0, "givePlatelet": 0, "regionCode": "016", "groupCode": "F30219", "latitude": 47.961911, "longitude": -2.542758, "name": "JOSSELIN 15h-19h", "postCode": "56120", "samplingLocationCode": "2", "horaires": null, "infos": null, "metro": null, "bus": null, "tram": null, "parking": null, "debutInfos": null, "finInfos": null, "ville": null, "id": null, "phone": null, "urlBlood": null, "urlPlasma": null, "urlPlatelets": null}
{"address1": null, "address2": "RUE DE L ECUSSON", "city": "JOSSELIN", "convocationLabel": "CENTRE CULTUREL L'ECUSSON", "distance": 0.0, "fullAddress": "RUE DE L ECUSSON 56120 JOSSELIN", "giveBlood": 1, "givePlasma": 0, "givePlatelet": 0, "regionCode": "016", "groupCode": "F30219", "latitude": 47.96071625, "longitude": -2.54340911, "name": "JOSSELIN-14h30-18h30", "postCode": "56120", "samplingLocationCode": "3", "horaires": null, "infos": null, "metro": null, "bus": null, "tram": null, "parking": null, "debutInfos": null, "finInfos": null, "ville": null, "id": null, "phone": null, "urlBlood": null, "urlPlasma": null, "urlPlatelets": null}
{"address1": null, "address2": "RUE DU PONT MAREUC", "city": "JOSSELIN", "convocationLabel": "CENTRE CULTUREL L'ECUSSON", "distance": 0.0, "fullAddress": "RUE DU PONT MAREUC 56120 JOSSELIN", "giveBlood": 1, "givePlasma": 0, "givePlatelet": 0, "regionCode": "016", "groupCode": "F30219", "latitude": 47.961057, "longitude": -2.541219, "name": "JOSSELIN JPM", "postCode": "56120", "samplingLocationCode": "4", "horaires": null, "infos": null, "metro": null, "bus": null, "tram": null, "parking": null, "debutInfos": null, "finInfos": null, "ville": null, "id": null, "phone": null, "urlBlood": null, "urlPlasma": null, "urlPlatelets": null}
{"address1": null, "address2": "RUE DU PONT MAREUC", "city": "JOSSELIN", "convocationLabel": "CENTRE CULTUREL L'ECUSSON", "distance": 0.0, "fullAddress": "RUE DU PONT MAREUC 56120 JOSSELIN", "giveBlood": 1, "givePlasma": 0, "givePlatelet": 0, "regionCode": "016", "groupCode": "F30219", "latitude": 47.961057, "longitude": -2.541219, "name": "JOSSELIN JAM ", "postCode": "56120", "samplingLocationCode": "5", "horaires": null, "infos": null, "metro": null, "bus": null, "tram": null, "parking": null, "debutInfos": null, "finInfos": null, "ville": null, "id": null, "phone": null, "urlBlood": null, "urlPlasma": null, "urlPlatelets": null}
{"address1": null, "address2": "RUE DE L ECUSSON", "city": "JOSSELIN", "convocationLabel": "CENTRE CULTUREL L'ECUSSON", "distance": 0.0, "fullAddress": "RUE DE L ECUSSON 56120 JOSSELIN", "giveBlood": 1, "givePlasma": 0, "givePlatelet": 0, "regionCode": "016", "groupCode": "F30219", "latitude": 47.961911, "longitude": -2.542758, "name": "JOSSELIN 14 h 45 - 18 h 30", "postCode": "56120", "samplingLocationCode": "7", "horaires": null, "infos": null, "metro": null, "bus": null, "tram": null, "parking": null, "debutInfos": null, "finInfos": null, "ville": null, "id": null, "phone": null, "urlBlood": null, "urlPlasma": null, "urlPlatelets": null}
{"address1": null, "address2": "RUE DE L ECUSSON", "city": "JOSSELIN", "convocationLabel": "CENTRE CULTUREL L'ECUSSON", "distance": 0.0, "fullAddress": "RUE DE L ECUSSON 56120 JOSSELIN", "giveBlood": 1, "givePlasma": 0, "givePlatelet": 0, "regionCode": "016", "groupCode": "F30219", "latitude": 47.961911, "longitude": -2.542758, "name": "JOSSELIN 14 h - 18 h", "postCode": "56120", "samplingLocationCode": "8", "horaires": null, "infos": null, "metro": null, "bus": null, "tram": null, "parking": null, "debutInfos": null, "finInfos": null, "ville": null, "id": null, "phone": null, "urlBlood": null, "urlPlasma": null, "urlPlatelets": null}
