{"address1": null, "address2": "PLACE MAURICE MARCHAIS", "city": "VANNES", "convocationLabel": "HOTEL DE VILLE (parking r\u00e9serv\u00e9)", "distance": 0.0, "fullAddress": "PLACE MAURICE MARCHAIS 56000 VANNES", "giveBlood": 1, "givePlasma": 0, "givePlatelet": 0, "regionCode": "016", "groupCode": "F30381", "latitude": 47.658404, "longitude": -2.760416, "name": "ROTARY AM", "postCode": "56000", "samplingLocationCode": "1426", "horaires": null, "infos": null, "metro": null, "bus": null, "tram": null, "parking": null, "debutInfos": null, "finInfos": null, "ville": null, "id": null, "phone": null, "urlBlood": null, "urlPlasma": null, "urlPlatelets": null}
{"address1": null, "address2": "PLACE MAURICE MARCHAIS", "city": "VANNES", "convocationLabel": "HOTEL DE VILLE (parking r\u00e9serv\u00e9)", "distance": 0.0, "fullAddress": "PLACE MAURICE MARCHAIS 56000 VANNES", "giveBlood": 1, "givePlasma": 0, "givePlatelet": 0, "regionCode": "016", "groupCode": "F30381", "latitude": 47.658404, "longitude": -2.760416, "name": "ROTARY PM", "postCode": "56000", "samplingLocationCode": "2", "horaires": null, "infos": null, "metro": null, "bus": null, "tram": null, "parking": null, "debutInfos": null, "finInfos": null, "ville": null, "id": null, "phone": null, "urlBlood": null, "urlPlasma": null, "urlPlatelets": null}
{"address1": null, "address2": "PLACE MAURICE MARCHAIS", "city": "VANNES", "convocationLabel": "HOTEL DE VILLE (parking r\u00e9serv\u00e9)", "distance": 0.0, "fullAddress": "PLACE MAURICE MARCHAIS 56000 VANNES", "giveBlood": 1, "givePlasma": 0, "givePlatelet": 0, "regionCode": "016", "groupCode": "F30381", "latitude": 47.658404, "longitude": -2.760416, "name": "ROTARY J", "postCode": "56000", "samplingLocationCode": "3", "horaires": null, "infos": null, "metro": null, "bus": null, "tram": null, "parking": null, "debutInfos": null, "finInfos": null, "ville": null, "id": null, "phone": null, "urlBlood": null, "urlPlasma": null, "urlPlatelets": null}
{"address1": null, "address2": "16 PLACE THEODORE DECKER", "city": "56000 VANNES", "convocationLabel": "AUDITORIUM DES CARMES", "distance": 0.0, "fullAddress": "16 PLACE THEODORE DECKER 56000 56000 VANNES", "giveBlood": 1, "givePlasma": 0, "givePlatelet": 0, "regionCode": "016", "groupCode": "F30381", "latitude": 47.652004, "longitude": -2.759681, "name": "VANNES-AUDITORIUM15h/19h", "postCode": "56000", "samplingLocationCode": "4", "horaires": null, "infos": null, "metro": null, "bus": null, "tram": null, "parking": null, "debutInfos": null, "finInfos": null, "ville": null, "id": null, "phone": null, "urlBlood": null, "urlPlasma": null, "urlPlatelets": null}
{"address1": null, "address2": "16 PLACE THEODORE DECKER", "city": "56000 VANNES", "convocationLabel": "AUDITORIUM DES CARMES", "distance": 0.0, "fullAddress": "16 PLACE THEODORE DECKER 56000 56000 VANNES", "giveBlood": 1, "givePlasma": 0, "givePlatelet": 0, "regionCode": "016", "groupCode": "F30381", "latitude": 47.652004, "longitude": -2.759681, "name": "VANNES-AUDITORIUM 9h/12h30", "postCode": "56000", "samplingLocationCode": "5", "horaires": null, "infos": null, "metro": null, "bus": null, "tram": null, "parking": null, "debutInfos": null, "finInfos": null, "ville": null, "id": null, "phone": null, "urlBlood": null, "urlPlasma": null, "urlPlatelets": null}
