{"address1": null, "address2": "2 RUE DE LA LIBERATION", "city": "EDERN", "convocationLabel": "SALLE ANDRE ANGOT", "distance": 0.0, "fullAddress": "2 RUE DE LA LIBERATION 29510 EDERN", "giveBlood": 1, "givePlasma": 0, "givePlatelet": 0, "regionCode": "016", "groupCode": "F50012", "latitude": 48.104599, "longitude": -3.97535896, "name": "EDERN M", "postCode": "29510", "samplingLocationCode": "10", "horaires": null, "infos": null, "metro": null, "bus": null, "tram": null, "parking": null, "debutInfos": null, "finInfos": null, "ville": null, "id": null, "phone": null, "urlBlood": null, "urlPlasma": null, "urlPlatelets": null}
{"address1": null, "address2": "HENT AR MENEZ", "city": "LANDUDAL", "convocationLabel": "SALLE POLYVALENTE L'ATELIER", "distance": 0.0, "fullAddress": "HENT AR MENEZ 29510 LANDUDAL", "giveBlood": 1, "givePlasma": 0, "givePlatelet": 0, "regionCode": "016", "groupCode": "F50012", "latitude": 48.06386566, "longitude": -3.97657847, "name": "LANDUDAL M", "postCode": "29510", "samplingLocationCode": "11", "horaires": null, "infos": null, "metro": null, "bus": null, "tram": null, "parking": null, "debutInfos": null, "finInfos": null, "ville": null, "id": null, "phone": null, "urlBlood": null, "urlPlasma": null, "urlPlatelets": null}
{"address1": null, "address2": "46 RUE DE LA BOISSIERE", "city": "BRIEC", "convocationLabel": "CENTRE CULTUREL ARTHEMUSE", "distance": 0.0, "fullAddress": "46 RUE DE LA BOISSIERE 29510 BRIEC", "giveBlood": 1, "givePlasma": 0, "givePlatelet": 0, "regionCode": "016", "groupCode": "F50012", "latitude": 48.09918976, "longitude": -3.99786711, "name": "BRIEC M", "postCode": "29510", "samplingLocationCode": "1153", "horaires": null, "infos": null, "metro": null, "bus": null, "tram": null, "parking": null, "debutInfos": null, "finInfos": null, "ville": null, "id": null, "phone": null, "urlBlood": null, "urlPlasma": null, "urlPlatelets": null}
{"address1": null, "address2": "HENT AR MENEZ", "city": "LANDUDAL", "convocationLabel": "SALLE POLYVALENTE L'ATELIER", "distance": 0.0, "fullAddress": "HENT AR MENEZ 29510 LANDUDAL", "giveBlood": 1, "givePlasma": 0, "givePlatelet": 0, "regionCode": "016", "groupCode": "F50012", "latitude": 48.06386566, "longitude": -3.97657847, "name": "LANDUDAL AM", "postCode": "29510", "samplingLocationCode": "12", "horaires": null, "infos": null, "metro": null, "bus": null, "tram": null, "parking": null, "debutInfos": null, "finInfos": null, "ville": null, "id": null, "phone": null, "urlBlood": null, "urlPlasma": null, "urlPlatelets": null}
{"address1": null, "address2": "2 RUE DE LA LIBERATION", "city": "EDERN", "convocationLabel": "SALLE ANDRE ANGOT", "distance": 0.0, "fullAddress": "2 RUE DE LA LIBERATION 29510 EDERN", "giveBlood": 1, "givePlasma": 0, "givePlatelet": 0, "regionCode": "016", "groupCode": "F50012", "latitude": 48.104599, "longitude": -3.97535896, "name": "EDERN -  MA", "postCode": "29510", "samplingLocationCode": "2", "horaires": null, "infos": null, "metro": null, "bus": null, "tram": null, "parking": null, "debutInfos": null, "finInfos": null, "ville": null, "id": null, "phone": null, "urlBlood": null, "urlPlasma": null, "urlPlatelets": null}
{"address1": null, "address2": "RUE DU SALOU", "city": "LANDREVARZEC", "convocationLabel": "SALLE HERMINE", "distance": 0.0, "fullAddress": "RUE DU SALOU 29510 LANDREVARZEC", "giveBlood": 1, "givePlasma": 0, "givePlatelet": 0, "regionCode": "016", "groupCode": "F50012", "latitude": 48.089412, "longitude": -4.058008, "name": "LANDREVARZEC - AM", "postCode": "29510", "samplingLocationCode": "3", "horaires": null, "infos": null, "metro": null, "bus": null, "tram": null, "parking": null, "debutInfos": null, "finInfos": null, "ville": null, "id": null, "phone": null, "urlBlood": null, "urlPlasma": null, "urlPlatelets": null}
{"address1": null, "address2": "46 RUE DE LA BOISSIERE", "city": "BRIEC", "convocationLabel": "CENTRE CULTUREL ARTHEMUSE", "distance": 0.0, "fullAddress": "46 RUE DE LA BOISSIERE 29510 BRIEC", "giveBlood": 1, "givePlasma": 0, "givePlatelet": 0, "regionCode": "016", "groupCode": "F50012", "latitude": 48.09917, "longitude": -3.997211, "name": "BRIEC AM", "postCode": "29510", "samplingLocationCode": "4", "horaires": null, "infos": null, "metro": null, "bus": null, "tram": null, "parking": null, "debutInfos": null, "finInfos": null, "ville": null, "id": null, "phone": null, "urlBlood": null, "urlPlasma": null, "urlPlatelets": null}
{"address1": null, "address2": "2 RUE DE LA LIBERATION", "city": "EDERN", "convocationLabel": "SALLE ANDRE ANGOT", "distance": 0.0, "fullAddress": "2 RUE DE LA LIBERATION 29510 EDERN", "giveBlood": 1, "givePlasma": 0, "givePlatelet": 0, "regionCode": "016", "groupCode": "F50012", "latitude": 48.104598, "longitude": -3.975359, "name": "EDERN - AM", "postCode": "29510", "samplingLocationCode": "5", "horaires": null, "infos": null, "metro": null, "bus": null, "tram": null, "parking": null, "debutInfos": null, "finInfos": null, "ville": null, "id": null, "phone": null, "urlBlood": null, "urlPlasma": null, "urlPlatelets": null}
{"address1": null, "address2": "RUE DU SALOU", "city": "LANDREVARZEC", "convocationLabel": "SALLE HERMINE", "distance": 0.0, "fullAddress": "RUE DU SALOU 29510 LANDREVARZEC", "giveBlood": 1, "givePlasma": 0, "givePlatelet": 0, "regionCode": "016", "groupCode": "F50012", "latitude": 48.089412, "longitude": -4.058008, "name": " LANDREVARZEC - MA", "postCode": "29510", "samplingLocationCode": "6", "horaires": null, "infos": null, "metro": null, "bus": null, "tram": null, "parking": null, "debutInfos": null, "finInfos": null, "ville": null, "id": null, "phone": null, "urlBlood": null, "urlPlasma": null, "urlPlatelets": null}
{"address1": null, "address2": "RUE DU SALOU", "city": "LANDREVARZEC", "convocationLabel": "SALLE HERMINE", "distance": 0.0, "fullAddress": "RUE DU SALOU 29510 LANDREVARZEC", "giveBlood": 1, "givePlasma": 0, "givePlatelet": 0, "regionCode": "016", "groupCode": "F50012", "latitude": 48.089412, "longitude": -4.058008, "name": "LANDREVARZEC AM", "postCode": "29510", "samplingLocationCode": "7", "horaires": null, "infos": null, "metro": null, "bus": null, "tram": null, "parking": null, "debutInfos": null, "finInfos": null, "ville": null, "id": null, "phone": null, "urlBlood": null, "urlPlasma": null, "urlPlatelets": null}
{"address1": null, "address2": "RUE DU SALOU", "city": "LANDREVARZEC", "convocationLabel": "SALLE HERMINE", "distance": 0.0, "fullAddress": "RUE DU SALOU 29510 LANDREVARZEC", "giveBlood": 1, "givePlasma": 0, "givePlatelet": 0, "regionCode": "016", "groupCode": "F50012", "latitude": 48.08905029, "longitude": -4.05549002, "name": "LANDREVARZEC M", "postCode": "29510", "samplingLocationCode": "8", "horaires": null, "infos": null, "metro": null, "bus": null, "tram": null, "parking": null, "debutInfos": null, "finInfos": null, "ville": null, "id": null, "phone": null, "urlBlood": null, "urlPlasma": null, "urlPlatelets": null}
{"address1": null, "address2": "2 RUE DE LA LIBERATION", "city": "EDERN", "convocationLabel": "SALLE ANDRE ANGOT", "distance": 0.0, "fullAddress": "2 RUE DE LA LIBERATION 29510 EDERN", "giveBlood": 1, "givePlasma": 0, "givePlatelet": 0, "regionCode": "016", "groupCode": "F50012", "latitude": 48.104598, "longitude": -3.975359, "name": "EDERN  AM", "postCode": "29510", "samplingLocationCode": "9", "horaires": null, "infos": null, "metro": null, "bus": null, "tram": null, "parking": null, "debutInfos": null, "finInfos": null, "ville": null, "id": null, "phone": null, "urlBlood": null, "urlPlasma": null, "urlPlatelets": null}
