{"address1": null, "address2": "RUE DE GUENFOL", "city": "MALANSAC", "convocationLabel": "CENTRE ASSOCIATIF", "distance": 0.0, "fullAddress": "RUE DE GUENFOL 56220 MALANSAC", "giveBlood": 1, "givePlasma": 0, "givePlatelet": 0, "regionCode": "016", "groupCode": "F30318", "latitude": 47.677983, "longitude": -2.298096, "name": "MALANSAC AM 1", "postCode": "56220", "samplingLocationCode": "1527", "horaires": null, "infos": null, "metro": null, "bus": null, "tram": null, "parking": null, "debutInfos": null, "finInfos": null, "ville": null, "id": null, "phone": null, "urlBlood": null, "urlPlasma": null, "urlPlatelets": null}
{"address1": null, "address2": "RUE DU STADE", "city": "MALANSAC", "convocationLabel": "LE PALIS BLEU", "distance": 0.0, "fullAddress": "RUE DU STADE 56220 MALANSAC", "giveBlood": 1, "givePlasma": 0, "givePlatelet": 0, "regionCode": "016", "groupCode": "F30318", "latitude": 47.68032837, "longitude": -2.29969573, "name": "MALANSAC- 15 h - 19 h", "postCode": "56220", "samplingLocationCode": "3", "horaires": null, "infos": null, "metro": null, "bus": null, "tram": null, "parking": null, "debutInfos": null, "finInfos": null, "ville": null, "id": null, "phone": null, "urlBlood": null, "urlPlasma": null, "urlPlatelets": null}
{"address1": null, "address2": "RUE DU STADE", "city": "MALANSAC", "convocationLabel": "LE PALIS BLEU", "distance": 0.0, "fullAddress": "RUE DU STADE 56220 MALANSAC", "giveBlood": 1, "givePlasma": 0, "givePlatelet": 0, "regionCode": "016", "groupCode": "F30318", "latitude": 47.679727, "longitude": -2.299067, "name": "MALANSAC PM", "postCode": "56220", "samplingLocationCode": "4", "horaires": null, "infos": null, "metro": null, "bus": null, "tram": null, "parking": null, "debutInfos": null, "finInfos": null, "ville": null, "id": null, "phone": null, "urlBlood": null, "urlPlasma": null, "urlPlatelets": null}
{"address1": null, "address2": "RUE DU STADE", "city": "MALANSAC", "convocationLabel": "LE PALIS BLEU", "distance": 0.0, "fullAddress": "RUE DU STADE 56220 MALANSAC", "giveBlood": 1, "givePlasma": 0, "givePlatelet": 0, "regionCode": "016", "groupCode": "F30318", "latitude": 47.679727, "longitude": -2.299067, "name": "MALANSAC LE PALIS BLEU AM", "postCode": "56220", "samplingLocationCode": "5", "horaires": null, "infos": null, "metro": null, "bus": null, "tram": null, "parking": null, "debutInfos": null, "finInfos": null, "ville": null, "id": null, "phone": null, "urlBlood": null, "urlPlasma": null, "urlPlatelets": null}
{"address1": null, "address2": "RUE DU STADE", "city": "MALANSAC", "convocationLabel": "LE PALIS BLEU", "distance": 0.0, "fullAddress": "RUE DU STADE 56220 MALANSAC", "giveBlood": 1, "givePlasma": 0, "givePlatelet": 0, "regionCode": "016", "groupCode": "F30318", "latitude": 47.68032837, "longitude": -2.29969573, "name": "MALANSAC 14 h 45 - 18 h 45", "postCode": "56220", "samplingLocationCode": "6", "horaires": null, "infos": null, "metro": null, "bus": null, "tram": null, "parking": null, "debutInfos": null, "finInfos": null, "ville": null, "id": null, "phone": null, "urlBlood": null, "urlPlasma": null, "urlPlatelets": null}
{"address1": null, "address2": "RUE GUENFOL", "city": "MALANSAC", "convocationLabel": "CENTRE ASSOCIATIF", "distance": 0.0, "fullAddress": "RUE GUENFOL 56220 MALANSAC", "giveBlood": 1, "givePlasma": 0, "givePlatelet": 0, "regionCode": "016", "groupCode": "F30318", "latitude": 47.685396, "longitude": -2.288219, "name": "MALANSAC CENTRE ASSOCIATIF", "postCode": "56220", "samplingLocationCode": "7", "horaires": null, "infos": null, "metro": null, "bus": null, "tram": null, "parking": null, "debutInfos": null, "finInfos": null, "ville": null, "id": null, "phone": null, "urlBlood": null, "urlPlasma": null, "urlPlatelets": null}
