{"address1": "SALLE 206 - 2\u00e8me ETAGE", "address2": "17 Bd Flandres Dunkerque 1940", "city": "LORIENT", "convocationLabel": "ENSIBS", "distance": 0.0, "fullAddress": "SALLE 206 - 2\u00e8me ETAGE 17 Bd Flandres Dunkerque 1940 56100 LORIENT", "giveBlood": 1, "givePlasma": 0, "givePlatelet": 0, "regionCode": "016", "groupCode": "F30283", "latitude": 47.750424, "longitude": -3.377626, "name": "LORIENT- ENSIBS", "postCode": "56100", "samplingLocationCode": "2", "horaires": null, "infos": null, "metro": null, "bus": null, "tram": null, "parking": null, "debutInfos": null, "finInfos": null, "ville": null, "id": null, "phone": null, "urlBlood": null, "urlPlasma": null, "urlPlatelets": null}
{"address1": "BATIMENT 2 SALLES S021 S022 et S023", "address2": "2 Rue le Coat Saint-Haouen", "city": "LORIENT", "convocationLabel": "FAC SCIENCES", "distance": 0.0, "fullAddress": "BATIMENT 2 SALLES S021 S022 et S023 2 Rue le Coat Saint-Haouen 56100 LORIENT", "giveBlood": 1, "givePlasma": 0, "givePlatelet": 0, "regionCode": "016", "groupCode": "F30283", "latitude": 47.747202, "longitude": -3.393352, "name": "LORIENT-Fac Sciences 9 h 13 h ", "postCode": "56100", "samplingLocationCode": "3", "horaires": null, "infos": null, "metro": null, "bus": null, "tram": null, "parking": null, "debutInfos": null, "finInfos": null, "ville": null, "id": null, "phone": null, "urlBlood": null, "urlPlasma": null, "urlPlatelets": null}
{"address1": "BATIMENT 2 SALLES S021 S022 et S023", "address2": "2 Rue le Coat Saint-Haouen", "city": "LORIENT", "convocationLabel": "FAC SCIENCES", "distance": 0.0, "fullAddress": "BATIMENT 2 SALLES S021 S022 et S023 2 Rue le Coat Saint-Haouen 56100 LORIENT", "giveBlood": 1, "givePlasma": 0, "givePlatelet": 0, "regionCode": "016", "groupCode": "F30283", "latitude": 47.74825287, "longitude": -3.37024498, "name": "LORIENT Fac Sciences 12h -16h ", "postCode": "56100", "samplingLocationCode": "4", "horaires": null, "infos": null, "metro": null, "bus": null, "tram": null, "parking": null, "debutInfos": null, "finInfos": null, "ville": null, "id": null, "phone": null, "urlBlood": null, "urlPlasma": null, "urlPlatelets": null}
{"address1": "SALLES S007 et S009", "address2": "2 RUE LE COAT SAINT HAOUEN", "city": "LORIENT", "convocationLabel": "BATIMENT  FAC SCIENCES 1", "distance": 0.0, "fullAddress": "SALLES S007 et S009 2 RUE LE COAT SAINT HAOUEN 56100 LORIENT", "giveBlood": 1, "givePlasma": 0, "givePlatelet": 0, "regionCode": "016", "groupCode": "F30283", "latitude": 47.747202, "longitude": -3.393352, "name": " UBS FAC SCIENCES S007 S009", "postCode": "56100", "samplingLocationCode": "5", "horaires": null, "infos": null, "metro": null, "bus": null, "tram": null, "parking": null, "debutInfos": null, "finInfos": null, "ville": null, "id": null, "phone": null, "urlBlood": null, "urlPlasma": null, "urlPlatelets": null}
{"address1": "BATIMENT 2 SALLES S021 S022 et S023", "address2": "2 Rue le Coat Saint-Haouen", "city": "LORIENT", "convocationLabel": "FAC SCIENCES", "distance": 0.0, "fullAddress": "BATIMENT 2 SALLES S021 S022 et S023 2 Rue le Coat Saint-Haouen 56100 LORIENT", "giveBlood": 1, "givePlasma": 0, "givePlatelet": 0, "regionCode": "016", "groupCode": "F30283", "latitude": 47.747202, "longitude": -3.393352, "name": "LORIENT Fac Sciences 8h30 12h3", "postCode": "56100", "samplingLocationCode": "991", "horaires": null, "infos": null, "metro": null, "bus": null, "tram": null, "parking": null, "debutInfos": null, "finInfos": null, "ville": null, "id": null, "phone": null, "urlBlood": null, "urlPlasma": null, "urlPlatelets": null}
