{"address1": null, "address2": "ESPLANADE CHARLES DE GAULLE", "city": "RENNES", "convocationLabel": "LE 4BIS (3\u00e8me Etage)", "distance": 0.0, "fullAddress": "ESPLANADE CHARLES DE GAULLE 35000 RENNES", "giveBlood": 1, "givePlasma": 0, "givePlatelet": 0, "regionCode": "016", "groupCode": "F70189", "latitude": 48.106594, "longitude": -1.676795, "name": "RENNES - 4 BIS 12H-18H30", "postCode": "35000", "samplingLocationCode": "2", "horaires": null, "infos": null, "metro": null, "bus": null, "tram": null, "parking": null, "debutInfos": null, "finInfos": null, "ville": null, "id": null, "phone": null, "urlBlood": null, "urlPlasma": null, "urlPlatelets": null}
{"address1": null, "address2": "ESPLANADE CHARLES DE GAULLE", "city": "RENNES", "convocationLabel": "MAISON DES ASSOCIATIONS", "distance": 0.0, "fullAddress": "ESPLANADE CHARLES DE GAULLE 35000 RENNES", "giveBlood": 1, "givePlasma": 0, "givePlatelet": 0, "regionCode": "016", "groupCode": "F70189", "latitude": 48.106594, "longitude": -1.676795, "name": "RENNES- MAISON  ASSOCIATIONS", "postCode": "35000", "samplingLocationCode": "201", "horaires": null, "infos": null, "metro": null, "bus": null, "tram": null, "parking": null, "debutInfos": null, "finInfos": null, "ville": null, "id": null, "phone": null, "urlBlood": null, "urlPlasma": null, "urlPlatelets": null}
{"address1": null, "address2": "COURS DES ALLIES", "city": "RENNES", "convocationLabel": "MAISON DES ASSOCIATIONS*", "distance": 0.0, "fullAddress": "COURS DES ALLIES 35000 RENNES", "giveBlood": 1, "givePlasma": 0, "givePlatelet": 0, "regionCode": "016", "groupCode": "F70189", "latitude": 48.105315, "longitude": -1.675953, "name": "RENNES-CHAMP DE MARS 3 ET 4", "postCode": "35000", "samplingLocationCode": "3", "horaires": null, "infos": null, "metro": null, "bus": null, "tram": null, "parking": null, "debutInfos": null, "finInfos": null, "ville": null, "id": null, "phone": null, "urlBlood": null, "urlPlasma": null, "urlPlatelets": null}
{"address1": null, "address2": "ESPLANADE CHARLES DE GAULLE", "city": "RENNES", "convocationLabel": "MAISON DES ASSOCIATIONS", "distance": 0.0, "fullAddress": "ESPLANADE CHARLES DE GAULLE 35000 RENNES", "giveBlood": 1, "givePlasma": 0, "givePlatelet": 0, "regionCode": "016", "groupCode": "F70189", "latitude": 48.106594, "longitude": -1.676795, "name": "RENNES ENTREPRISES", "postCode": "35000", "samplingLocationCode": "5", "horaires": null, "infos": null, "metro": null, "bus": null, "tram": null, "parking": null, "debutInfos": null, "finInfos": null, "ville": null, "id": null, "phone": null, "urlBlood": null, "urlPlasma": null, "urlPlatelets": null}
{"address1": null, "address2": "ESPLANADE CHARLES DE GAULLE", "city": "RENNES", "convocationLabel": "MAISON DES ASSOCIATIONS", "distance": 0.0, "fullAddress": "ESPLANADE CHARLES DE GAULLE 35000 RENNES", "giveBlood": 1, "givePlasma": 0, "givePlatelet": 0, "regionCode": "016", "groupCode": "F70189", "latitude": 48.106594, "longitude": -1.676795, "name": "RENNES ENTREPR. MAISON", "postCode": "35000", "samplingLocationCode": "6", "horaires": null, "infos": null, "metro": null, "bus": null, "tram": null, "parking": null, "debutInfos": null, "finInfos": null, "ville": null, "id": null, "phone": null, "urlBlood": null, "urlPlasma": null, "urlPlatelets": null}
{"address1": null, "address2": "ESPLANADE CHARLES DE GAULLE", "city": "RENNES", "convocationLabel": "MAISON DES ASSOCIATIONS", "distance": 0.0, "fullAddress": "ESPLANADE CHARLES DE GAULLE 35000 RENNES", "giveBlood": 1, "givePlasma": 0, "givePlatelet": 0, "regionCode": "016", "groupCode": "F70189", "latitude": 48.106594, "longitude": -1.676795, "name": "RENNES- MAISON  ASSOC SA", "postCode": "35000", "samplingLocationCode": "7", "horaires": null, "infos": null, "metro": null, "bus": null, "tram": null, "parking": null, "debutInfos": null, "finInfos": null, "ville": null, "id": null, "phone": null, "urlBlood": null, "urlPlasma": null, "urlPlatelets": null}
