{"address1": null, "address2": null, "city": "RENNES", "convocationLabel": "MDD RENNES", "distance": 0.0, "fullAddress": "35000 RENNES", "giveBlood": 1, "givePlasma": 0, "givePlatelet": 0, "regionCode": "016", "groupCode": "F00006", "latitude": 48.110899, "longitude": -1.68365, "name": "MDD RENNES  Lundi ", "postCode": "35000", "samplingLocationCode": "2", "horaires": null, "infos": null, "metro": null, "bus": null, "tram": null, "parking": null, "debutInfos": null, "finInfos": null, "ville": null, "id": null, "phone": null, "urlBlood": null, "urlPlasma": null, "urlPlatelets": null}
{"address1": null, "address2": null, "city": "RENNES", "convocationLabel": "MDD RENNES", "distance": 0.0, "fullAddress": "35000 RENNES", "giveBlood": 1, "givePlasma": 0, "givePlatelet": 0, "regionCode": "016", "groupCode": "F00006", "latitude": 48.110899, "longitude": -1.68365, "name": "MDD RENNES Mardi", "postCode": "35000", "samplingLocationCode": "3", "horaires": null, "infos": null, "metro": null, "bus": null, "tram": null, "parking": null, "debutInfos": null, "finInfos": null, "ville": null, "id": null, "phone": null, "urlBlood": null, "urlPlasma": null, "urlPlatelets": null}
{"address1": null, "address2": null, "city": "RENNES", "convocationLabel": "MDD RENNES", "distance": 0.0, "fullAddress": "35000 RENNES", "giveBlood": 1, "givePlasma": 0, "givePlatelet": 0, "regionCode": "016", "groupCode": "F00006", "latitude": 48.110899, "longitude": -1.68365, "name": "MDD RENNES Mercredi", "postCode": "35000", "samplingLocationCode": "4", "horaires": null, "infos": null, "metro": null, "bus": null, "tram": null, "parking": null, "debutInfos": null, "finInfos": null, "ville": null, "id": null, "phone": null, "urlBlood": null, "urlPlasma": null, "urlPlatelets": null}
{"address1": null, "address2": null, "city": "RENNES", "convocationLabel": "MDD RENNES", "distance": 0.0, "fullAddress": "35000 RENNES", "giveBlood": 1, "givePlasma": 0, "givePlatelet": 0, "regionCode": "016", "groupCode": "F00006", "latitude": 48.110899, "longitude": -1.68365, "name": "MDD RENNES Vendredi ", "postCode": "35000", "samplingLocationCode": "5", "horaires": null, "infos": null, "metro": null, "bus": null, "tram": null, "parking": null, "debutInfos": null, "finInfos": null, "ville": null, "id": null, "phone": null, "urlBlood": null, "urlPlasma": null, "urlPlatelets": null}
{"address1": null, "address2": null, "city": "RENNES", "convocationLabel": "MDD RENNES", "distance": 0.0, "fullAddress": "35000 RENNES", "giveBlood": 1, "givePlasma": 0, "givePlatelet": 0, "regionCode": "016", "groupCode": "F00006", "latitude": 48.110899, "longitude": -1.68365, "name": "MDD  RENNES Jeudi ", "postCode": "35000", "samplingLocationCode": "564", "horaires": null, "infos": null, "metro": null, "bus": null, "tram": null, "parking": null, "debutInfos": null, "finInfos": null, "ville": null, "id": null, "phone": null, "urlBlood": null, "urlPlasma": null, "urlPlatelets": null}
{"address1": null, "address2": null, "city": "RENNES", "convocationLabel": "MDD RENNES", "distance": 0.0, "fullAddress": "35000 RENNES", "giveBlood": 1, "givePlasma": 0, "givePlatelet": 0, "regionCode": "016", "groupCode": "F00006", "latitude": 48.110899, "longitude": -1.68365, "name": " MDD RENNES - Samedi ", "postCode": "35000", "samplingLocationCode": "6", "horaires": null, "infos": null, "metro": null, "bus": null, "tram": null, "parking": null, "debutInfos": null, "finInfos": null, "ville": null, "id": null, "phone": null, "urlBlood": null, "urlPlasma": null, "urlPlatelets": null}
