{"address1": null, "address2": "Place Saint Vincent", "city": "CHATELAUDREN", "convocationLabel": "Salle des F\u00eates", "distance": 0.0, "fullAddress": "Place Saint Vincent 22170 CHATELAUDREN", "giveBlood": 1, "givePlasma": 0, "givePlatelet": 0, "regionCode": "016", "groupCode": "F10108", "latitude": 48.541582, "longitude": -2.967466, "name": "Salle des F\u00eates", "postCode": "22170", "samplingLocationCode": "1255", "horaires": null, "infos": null, "metro": null, "bus": null, "tram": null, "parking": null, "debutInfos": null, "finInfos": null, "ville": null, "id": null, "phone": null, "urlBlood": null, "urlPlasma": null, "urlPlatelets": null}
{"address1": null, "address2": "Rue de la Solidarit\u00e9", "city": "PLELO", "convocationLabel": "SALLE POLYVALENTE", "distance": 0.0, "fullAddress": "Rue de la Solidarit\u00e9 22170 PLELO", "giveBlood": 1, "givePlasma": 0, "givePlatelet": 0, "regionCode": "016", "groupCode": "F10108", "latitude": 48.55430984, "longitude": -2.94631696, "name": "PLELO Salle Poly AM1", "postCode": "22170", "samplingLocationCode": "2", "horaires": null, "infos": null, "metro": null, "bus": null, "tram": null, "parking": null, "debutInfos": null, "finInfos": null, "ville": null, "id": null, "phone": null, "urlBlood": null, "urlPlasma": null, "urlPlatelets": null}
{"address1": null, "address2": "Rue de la Grande Ville Neuve", "city": "PLOUAGAT", "convocationLabel": "SALLE POLYVALENTE", "distance": 0.0, "fullAddress": "Rue de la Grande Ville Neuve 22170 PLOUAGAT", "giveBlood": 1, "givePlasma": 0, "givePlatelet": 0, "regionCode": "016", "groupCode": "F10108", "latitude": 48.53766028977665, "longitude": -2.995281815528869, "name": "PLOUAGAT Salle Poly AM1", "postCode": "22170", "samplingLocationCode": "3", "horaires": null, "infos": null, "metro": null, "bus": null, "tram": null, "parking": null, "debutInfos": null, "finInfos": null, "ville": null, "id": null, "phone": null, "urlBlood": null, "urlPlasma": null, "urlPlatelets": null}
{"address1": "Place du 11 Novembre", "address2": null, "city": "PLELO", "convocationLabel": "MAIRIE", "distance": 0.0, "fullAddress": "Place du 11 Novembre 22170 PLELO", "giveBlood": 1, "givePlasma": 0, "givePlatelet": 0, "regionCode": "016", "groupCode": "F10108", "latitude": 48.556169, "longitude": -2.945873, "name": "PLELO Mairie", "postCode": "22170", "samplingLocationCode": "4", "horaires": null, "infos": null, "metro": null, "bus": null, "tram": null, "parking": null, "debutInfos": null, "finInfos": null, "ville": null, "id": null, "phone": null, "urlBlood": null, "urlPlasma": null, "urlPlatelets": null}
