{"address1": null, "address2": "Rue de la Gare", "city": "PORDIC", "convocationLabel": "SALLE DES FETES", "distance": 0.0, "fullAddress": "Rue de la Gare 22590 PORDIC", "giveBlood": 1, "givePlasma": 0, "givePlatelet": 0, "regionCode": "016", "groupCode": "F10150", "latitude": 48.554875, "longitude": -2.857344, "name": "PORDIC tournoi Fuhrmann AM", "postCode": "22590", "samplingLocationCode": "1297", "horaires": null, "infos": null, "metro": null, "bus": null, "tram": null, "parking": null, "debutInfos": null, "finInfos": null, "ville": null, "id": null, "phone": null, "urlBlood": null, "urlPlasma": null, "urlPlatelets": null}
{"address1": null, "address2": "Rue de la Gare", "city": "PORDIC", "convocationLabel": "SALLE DES FETES", "distance": 0.0, "fullAddress": "Rue de la Gare 22590 PORDIC", "giveBlood": 1, "givePlasma": 0, "givePlatelet": 0, "regionCode": "016", "groupCode": "F10150", "latitude": 48.57118607, "longitude": -2.81321454, "name": "PORDIC sdf AM1", "postCode": "22590", "samplingLocationCode": "2", "horaires": null, "infos": null, "metro": null, "bus": null, "tram": null, "parking": null, "debutInfos": null, "finInfos": null, "ville": null, "id": null, "phone": null, "urlBlood": null, "urlPlasma": null, "urlPlatelets": null}
{"address1": null, "address2": "rue Pierre de Coubertin", "city": "PORDIC", "convocationLabel": "COMPLEXE SPORTIF", "distance": 0.0, "fullAddress": "rue Pierre de Coubertin 22590 PORDIC", "giveBlood": 1, "givePlasma": 0, "givePlatelet": 0, "regionCode": "016", "groupCode": "F10150", "latitude": 48.569394, "longitude": -2.811943, "name": "PORDIC Complexe Sportif AM1", "postCode": "22590", "samplingLocationCode": "3", "horaires": null, "infos": null, "metro": null, "bus": null, "tram": null, "parking": null, "debutInfos": null, "finInfos": null, "ville": null, "id": null, "phone": null, "urlBlood": null, "urlPlasma": null, "urlPlatelets": null}
