{"address1": null, "address2": "5 AVENUE DES ARCHERS", "city": "LA GACILLY", "convocationLabel": "ESPACE CULTUREL - SALLE ARTEMISIA", "distance": 0.0, "fullAddress": "5 AVENUE DES ARCHERS 56200 LA GACILLY", "giveBlood": 1, "givePlasma": 0, "givePlatelet": 0, "regionCode": "016", "groupCode": "F30238", "latitude": 47.768517, "longitude": -2.130836, "name": "LA GACILLY  15 H 18 H 30", "postCode": "56200", "samplingLocationCode": "10", "horaires": null, "infos": null, "metro": null, "bus": null, "tram": null, "parking": null, "debutInfos": null, "finInfos": null, "ville": null, "id": null, "phone": null, "urlBlood": null, "urlPlasma": null, "urlPlatelets": null}
{"address1": null, "address2": "5 AVENUE DES ARCHERS", "city": "LA GACILLY", "convocationLabel": "ESPACE CULTUREL - SALLE ARTEMISIA", "distance": 0.0, "fullAddress": "5 AVENUE DES ARCHERS 56200 LA GACILLY", "giveBlood": 1, "givePlasma": 0, "givePlatelet": 0, "regionCode": "016", "groupCode": "F30238", "latitude": 47.77042389, "longitude": -2.13105702, "name": "LA GACILLY-SALLE ARTEMISIA 9 H", "postCode": "56200", "samplingLocationCode": "1540", "horaires": null, "infos": null, "metro": null, "bus": null, "tram": null, "parking": null, "debutInfos": null, "finInfos": null, "ville": null, "id": null, "phone": null, "urlBlood": null, "urlPlasma": null, "urlPlatelets": null}
{"address1": null, "address2": "AVENUE DES ARCHERS", "city": "LA GACILLY", "convocationLabel": "SALLE DES FETES", "distance": 0.0, "fullAddress": "AVENUE DES ARCHERS 56200 LA GACILLY", "giveBlood": 1, "givePlasma": 0, "givePlatelet": 0, "regionCode": "016", "groupCode": "F30238", "latitude": 47.769509, "longitude": -2.131111, "name": "LA GACILLY J", "postCode": "56200", "samplingLocationCode": "2", "horaires": null, "infos": null, "metro": null, "bus": null, "tram": null, "parking": null, "debutInfos": null, "finInfos": null, "ville": null, "id": null, "phone": null, "urlBlood": null, "urlPlasma": null, "urlPlatelets": null}
{"address1": null, "address2": "AVENUE DES ARCHERS", "city": "LA GACILLY", "convocationLabel": "SALLE DES FETES", "distance": 0.0, "fullAddress": "AVENUE DES ARCHERS 56200 LA GACILLY", "giveBlood": 1, "givePlasma": 0, "givePlatelet": 0, "regionCode": "016", "groupCode": "F30238", "latitude": 47.769509, "longitude": -2.131111, "name": "LA GACILLY ETE", "postCode": "56200", "samplingLocationCode": "3", "horaires": null, "infos": null, "metro": null, "bus": null, "tram": null, "parking": null, "debutInfos": null, "finInfos": null, "ville": null, "id": null, "phone": null, "urlBlood": null, "urlPlasma": null, "urlPlatelets": null}
{"address1": null, "address2": "AVENUE DES ARCHERS", "city": "LA GACILLY", "convocationLabel": "SALLE DES FETES", "distance": 0.0, "fullAddress": "AVENUE DES ARCHERS 56200 LA GACILLY", "giveBlood": 1, "givePlasma": 0, "givePlatelet": 0, "regionCode": "016", "groupCode": "F30238", "latitude": 47.769509, "longitude": -2.131111, "name": "LA GACILLY JAM", "postCode": "56200", "samplingLocationCode": "4", "horaires": null, "infos": null, "metro": null, "bus": null, "tram": null, "parking": null, "debutInfos": null, "finInfos": null, "ville": null, "id": null, "phone": null, "urlBlood": null, "urlPlasma": null, "urlPlatelets": null}
{"address1": null, "address2": "5 AVENUE DES ARCHERS", "city": "LA GACILLY", "convocationLabel": "ESPACE CULTUREL - SALLE ARTEMISIA", "distance": 0.0, "fullAddress": "5 AVENUE DES ARCHERS 56200 LA GACILLY", "giveBlood": 1, "givePlasma": 0, "givePlatelet": 0, "regionCode": "016", "groupCode": "F30238", "latitude": 47.76951981, "longitude": -2.13096404, "name": "LA GACILLY- ARTEMISIA 15  19 H", "postCode": "56200", "samplingLocationCode": "5", "horaires": null, "infos": null, "metro": null, "bus": null, "tram": null, "parking": null, "debutInfos": null, "finInfos": null, "ville": null, "id": null, "phone": null, "urlBlood": null, "urlPlasma": null, "urlPlatelets": null}
{"address1": null, "address2": "RUE DU BOIS VERT", "city": "CARENTOIR", "convocationLabel": "SALLE POLYVALENTE", "distance": 0.0, "fullAddress": "RUE DU BOIS VERT 56910 CARENTOIR", "giveBlood": 1, "givePlasma": 0, "givePlatelet": 0, "regionCode": "016", "groupCode": "F30238", "latitude": 47.813247, "longitude": -2.139024, "name": "CARENTOIR", "postCode": "56910", "samplingLocationCode": "7", "horaires": null, "infos": null, "metro": null, "bus": null, "tram": null, "parking": null, "debutInfos": null, "finInfos": null, "ville": null, "id": null, "phone": null, "urlBlood": null, "urlPlasma": null, "urlPlatelets": null}
{"address1": null, "address2": "5 AVENUE DES ARCHERS", "city": "LA GACILLY", "convocationLabel": "ESPACE CULTUREL - SALLE ARTEMISIA", "distance": 0.0, "fullAddress": "5 AVENUE DES ARCHERS 56200 LA GACILLY", "giveBlood": 1, "givePlasma": 0, "givePlatelet": 0, "regionCode": "016", "groupCode": "F30238", "latitude": 47.768517, "longitude": -2.130836, "name": "LA GACILLY 15 h 15 - 18 h 30", "postCode": "56200", "samplingLocationCode": "8", "horaires": null, "infos": null, "metro": null, "bus": null, "tram": null, "parking": null, "debutInfos": null, "finInfos": null, "ville": null, "id": null, "phone": null, "urlBlood": null, "urlPlasma": null, "urlPlatelets": null}
{"address1": null, "address2": "5 AVENUE DES ARCHERS", "city": "LA GACILLY", "convocationLabel": " SALLE ARTEMISIA", "distance": 0.0, "fullAddress": "5 AVENUE DES ARCHERS 56200 LA GACILLY", "giveBlood": 1, "givePlasma": 0, "givePlatelet": 0, "regionCode": "016", "groupCode": "F30238", "latitude": 47.76885223, "longitude": -2.13158798, "name": "LA GACILLY 12h - 16h", "postCode": "56200", "samplingLocationCode": "9", "horaires": null, "infos": null, "metro": null, "bus": null, "tram": null, "parking": null, "debutInfos": null, "finInfos": null, "ville": null, "id": null, "phone": null, "urlBlood": null, "urlPlasma": null, "urlPlatelets": null}
