{"address1": null, "address2": "ROUTE DE GESTEL", "city": "QUEVEN", "convocationLabel": "CLUB DU 3EME AGE", "distance": 0.0, "fullAddress": "ROUTE DE GESTEL 56530 QUEVEN", "giveBlood": 1, "givePlasma": 0, "givePlatelet": 0, "regionCode": "016", "groupCode": "F30369", "latitude": 47.792077, "longitude": -3.426787, "name": "QUEVEN CLUB", "postCode": "56530", "samplingLocationCode": "2", "horaires": null, "infos": null, "metro": null, "bus": null, "tram": null, "parking": null, "debutInfos": null, "finInfos": null, "ville": null, "id": null, "phone": null, "urlBlood": null, "urlPlasma": null, "urlPlatelets": null}
{"address1": null, "address2": "PL CHARLES DE GAULLE", "city": "QUEVEN", "convocationLabel": "SALLE LES ARCS", "distance": 0.0, "fullAddress": "PL CHARLES DE GAULLE 56530 QUEVEN", "giveBlood": 1, "givePlasma": 0, "givePlatelet": 0, "regionCode": "016", "groupCode": "F30369", "latitude": 47.789608, "longitude": -3.4152844, "name": "QUEVEN MATIN", "postCode": "56530", "samplingLocationCode": "3", "horaires": null, "infos": null, "metro": null, "bus": null, "tram": null, "parking": null, "debutInfos": null, "finInfos": null, "ville": null, "id": null, "phone": null, "urlBlood": null, "urlPlasma": null, "urlPlatelets": null}
{"address1": null, "address2": "PL CHARLES DE GAULLE", "city": "QUEVEN", "convocationLabel": "SALLE LES ARCS", "distance": 0.0, "fullAddress": "PL CHARLES DE GAULLE 56530 QUEVEN", "giveBlood": 1, "givePlasma": 0, "givePlatelet": 0, "regionCode": "016", "groupCode": "F30369", "latitude": 47.78764725, "longitude": -3.41803098, "name": "QUEVEN-SALLE LES ARCS", "postCode": "56530", "samplingLocationCode": "4", "horaires": null, "infos": null, "metro": null, "bus": null, "tram": null, "parking": null, "debutInfos": null, "finInfos": null, "ville": null, "id": null, "phone": null, "urlBlood": null, "urlPlasma": null, "urlPlatelets": null}
{"address1": null, "address2": "ROUTE DE GESTEL", "city": "QUEVEN", "convocationLabel": "SALLE OMNISPORTS DU RONQUEDO", "distance": 0.0, "fullAddress": "ROUTE DE GESTEL 56530 QUEVEN", "giveBlood": 1, "givePlasma": 0, "givePlatelet": 0, "regionCode": "016", "groupCode": "F30369", "latitude": 47.792077, "longitude": -3.426787, "name": "QUEVEN RONQUEDO", "postCode": "56530", "samplingLocationCode": "5", "horaires": null, "infos": null, "metro": null, "bus": null, "tram": null, "parking": null, "debutInfos": null, "finInfos": null, "ville": null, "id": null, "phone": null, "urlBlood": null, "urlPlasma": null, "urlPlatelets": null}
{"address1": null, "address2": "PLACE CHARLES DE GAULLE", "city": "QUEVEN", "convocationLabel": "SALLE LES ARCS", "distance": 0.0, "fullAddress": "PLACE CHARLES DE GAULLE 56530 QUEVEN", "giveBlood": 1, "givePlasma": 0, "givePlatelet": 0, "regionCode": "016", "groupCode": "F30369", "latitude": 47.78764725, "longitude": -3.41803098, "name": "QUEVEN 14 h 30 - 19 h 00", "postCode": "56530", "samplingLocationCode": "6", "horaires": null, "infos": null, "metro": null, "bus": null, "tram": null, "parking": null, "debutInfos": null, "finInfos": null, "ville": null, "id": null, "phone": null, "urlBlood": null, "urlPlasma": null, "urlPlatelets": null}
{"address1": null, "address2": "PL CHARLES DE GAULLE", "city": "QUEVEN", "convocationLabel": "SALLE LES ARCS", "distance": 0.0, "fullAddress": "PL CHARLES DE GAULLE 56530 QUEVEN", "giveBlood": 1, "givePlasma": 0, "givePlatelet": 0, "regionCode": "016", "groupCode": "F30369", "latitude": 47.790128, "longitude": -3.407618, "name": "QUEVEN", "postCode": "56530", "samplingLocationCode": "966", "horaires": null, "infos": null, "metro": null, "bus": null, "tram": null, "parking": null, "debutInfos": null, "finInfos": null, "ville": null, "id": null, "phone": null, "urlBlood": null, "urlPlasma": null, "urlPlatelets": null}
