{"address1": "RUE COCARD", "address2": null, "city": "CANCALE", "convocationLabel": "SALLE SOCIO CULTURELLE", "distance": 0.0, "fullAddress": "RUE COCARD 35260 CANCALE", "giveBlood": 1, "givePlasma": 0, "givePlatelet": 0, "regionCode": "016", "groupCode": "F70036", "latitude": 48.67716, "longitude": -1.84873, "name": "CANCALE", "postCode": "35260", "samplingLocationCode": "2", "horaires": null, "infos": null, "metro": null, "bus": null, "tram": null, "parking": null, "debutInfos": null, "finInfos": null, "ville": null, "id": null, "phone": null, "urlBlood": null, "urlPlasma": null, "urlPlatelets": null}
{"address1": null, "address2": "BD SCISSY", "city": "CANCALE", "convocationLabel": "SALLE CANCAVEN", "distance": 0.0, "fullAddress": "BD SCISSY 35260 CANCALE", "giveBlood": 1, "givePlasma": 0, "givePlatelet": 0, "regionCode": "016", "groupCode": "F70036", "latitude": 48.674821, "longitude": -1.863513, "name": "2 CANCALE-CANCAVEN DAM", "postCode": "35260", "samplingLocationCode": "3", "horaires": null, "infos": null, "metro": null, "bus": null, "tram": null, "parking": null, "debutInfos": null, "finInfos": null, "ville": null, "id": null, "phone": null, "urlBlood": null, "urlPlasma": null, "urlPlatelets": null}
{"address1": null, "address2": "4 RUE DU PORT", "city": "CANCALE", "convocationLabel": "SALLE OMNISPORTS", "distance": 0.0, "fullAddress": "4 RUE DU PORT 35260 CANCALE", "giveBlood": 1, "givePlasma": 0, "givePlatelet": 0, "regionCode": "016", "groupCode": "F70036", "latitude": 48.677264, "longitude": -1.851311, "name": "CANCALE ETE SALLE OMNISPORT", "postCode": "35260", "samplingLocationCode": "4", "horaires": null, "infos": null, "metro": null, "bus": null, "tram": null, "parking": null, "debutInfos": null, "finInfos": null, "ville": null, "id": null, "phone": null, "urlBlood": null, "urlPlasma": null, "urlPlatelets": null}
{"address1": null, "address2": "BD SCISSY", "city": "CANCALE", "convocationLabel": "SALLE CANCAVEN", "distance": 0.0, "fullAddress": "BD SCISSY 35260 CANCALE", "giveBlood": 1, "givePlasma": 0, "givePlatelet": 0, "regionCode": "016", "groupCode": "F70036", "latitude": 48.674821, "longitude": -1.863513, "name": "CANCALE ETE SEMAINE", "postCode": "35260", "samplingLocationCode": "49", "horaires": null, "infos": null, "metro": null, "bus": null, "tram": null, "parking": null, "debutInfos": null, "finInfos": null, "ville": null, "id": null, "phone": null, "urlBlood": null, "urlPlasma": null, "urlPlatelets": null}
{"address1": null, "address2": "BD SCISSY", "city": "CANCALE", "convocationLabel": "SALLE CANCAVEN", "distance": 0.0, "fullAddress": "BD SCISSY 35260 CANCALE", "giveBlood": 1, "givePlasma": 0, "givePlatelet": 0, "regionCode": "016", "groupCode": "F70036", "latitude": 48.67764664, "longitude": -1.86119592, "name": "2 CANCALE-CANCAVEN AM ", "postCode": "35260", "samplingLocationCode": "5", "horaires": null, "infos": null, "metro": null, "bus": null, "tram": null, "parking": null, "debutInfos": null, "finInfos": null, "ville": null, "id": null, "phone": null, "urlBlood": null, "urlPlasma": null, "urlPlatelets": null}
