{"address1": null, "address2": "13 BD CH DE GAULLES", "city": "ETEL", "convocationLabel": "SALLE DES FETES", "distance": 0.0, "fullAddress": "13 BD CH DE GAULLES 56410 ETEL", "giveBlood": 1, "givePlasma": 0, "givePlatelet": 0, "regionCode": "016", "groupCode": "F30179", "latitude": 47.654792, "longitude": -3.202288, "name": "ETEL JOURNEE LORIENT", "postCode": "56410", "samplingLocationCode": "1522", "horaires": null, "infos": null, "metro": null, "bus": null, "tram": null, "parking": null, "debutInfos": null, "finInfos": null, "ville": null, "id": null, "phone": null, "urlBlood": null, "urlPlasma": null, "urlPlatelets": null}
{"address1": null, "address2": "ALLEE DES ASTERIES", "city": "BELZ", "convocationLabel": "SALLE DES ASTERIES", "distance": 0.0, "fullAddress": "ALLEE DES ASTERIES 56550 BELZ", "giveBlood": 1, "givePlasma": 0, "givePlatelet": 0, "regionCode": "016", "groupCode": "F30179", "latitude": 47.65488434, "longitude": -3.2024858, "name": "BELZ ", "postCode": "56550", "samplingLocationCode": "2", "horaires": null, "infos": null, "metro": null, "bus": null, "tram": null, "parking": null, "debutInfos": null, "finInfos": null, "ville": null, "id": null, "phone": null, "urlBlood": null, "urlPlasma": null, "urlPlatelets": null}
{"address1": null, "address2": null, "city": "ETEL", "convocationLabel": "GYMNASE DE LA FALAISE", "distance": 0.0, "fullAddress": "56410 ETEL", "giveBlood": 1, "givePlasma": 0, "givePlatelet": 0, "regionCode": "016", "groupCode": "F30179", "latitude": 47.656029, "longitude": -3.19733, "name": "ETEL J  Gymnase Lorient", "postCode": "56410", "samplingLocationCode": "3", "horaires": null, "infos": null, "metro": null, "bus": null, "tram": null, "parking": null, "debutInfos": null, "finInfos": null, "ville": null, "id": null, "phone": null, "urlBlood": null, "urlPlasma": null, "urlPlatelets": null}
{"address1": null, "address2": "BOULEVARD CHARLES DE GAULLE", "city": "ETEL", "convocationLabel": "SALLE DES FETES", "distance": 0.0, "fullAddress": "BOULEVARD CHARLES DE GAULLE 56410 ETEL", "giveBlood": 1, "givePlasma": 0, "givePlatelet": 0, "regionCode": "016", "groupCode": "F30179", "latitude": 47.654227, "longitude": -3.201969, "name": "ETEL-SALLE DES FETE PM LT", "postCode": "56410", "samplingLocationCode": "4", "horaires": null, "infos": null, "metro": null, "bus": null, "tram": null, "parking": null, "debutInfos": null, "finInfos": null, "ville": null, "id": null, "phone": null, "urlBlood": null, "urlPlasma": null, "urlPlatelets": null}
{"address1": null, "address2": "BOULEVARD CHARLES DE GAULLE", "city": "ETEL", "convocationLabel": "SALLE DES FETES", "distance": 0.0, "fullAddress": "BOULEVARD CHARLES DE GAULLE 56410 ETEL", "giveBlood": 1, "givePlasma": 0, "givePlatelet": 0, "regionCode": "016", "groupCode": "F30179", "latitude": 47.65421677, "longitude": -3.20211601, "name": "ETEL SALLE DES FETES 9 h 13 h", "postCode": "56410", "samplingLocationCode": "5", "horaires": null, "infos": null, "metro": null, "bus": null, "tram": null, "parking": null, "debutInfos": null, "finInfos": null, "ville": null, "id": null, "phone": null, "urlBlood": null, "urlPlasma": null, "urlPlatelets": null}
{"address1": null, "address2": "BOULEVARD CHARLES DE GAULLE", "city": "ETEL", "convocationLabel": "SALLE DES FETES", "distance": 0.0, "fullAddress": "BOULEVARD CHARLES DE GAULLE 56410 ETEL", "giveBlood": 1, "givePlasma": 0, "givePlatelet": 0, "regionCode": "016", "groupCode": "F30179", "latitude": 47.654227, "longitude": -3.201969, "name": "ETEL-SALLE DES FETES 15 - 19 H", "postCode": "56410", "samplingLocationCode": "6", "horaires": null, "infos": null, "metro": null, "bus": null, "tram": null, "parking": null, "debutInfos": null, "finInfos": null, "ville": null, "id": null, "phone": null, "urlBlood": null, "urlPlasma": null, "urlPlatelets": null}
{"address1": null, "address2": "BOULEVARD CHARLES DE GAULLE", "city": "ETEL", "convocationLabel": "ETEL - SALLE DES FETES", "distance": 0.0, "fullAddress": "BOULEVARD CHARLES DE GAULLE 56410 ETEL", "giveBlood": 1, "givePlasma": 0, "givePlatelet": 0, "regionCode": "016", "groupCode": "F30179", "latitude": 47.654227, "longitude": -3.201969, "name": "ETEL  12 H - 16 H", "postCode": "56410", "samplingLocationCode": "7", "horaires": null, "infos": null, "metro": null, "bus": null, "tram": null, "parking": null, "debutInfos": null, "finInfos": null, "ville": null, "id": null, "phone": null, "urlBlood": null, "urlPlasma": null, "urlPlatelets": null}
