{"address1": null, "address2": null, "city": "MONTREUIL SOUS PEROUSE", "convocationLabel": "ESPACE ALBERT SAUVEE", "distance": 0.0, "fullAddress": "35500 MONTREUIL SOUS PEROUSE", "giveBlood": 1, "givePlasma": 0, "givePlatelet": 0, "regionCode": "016", "groupCode": "F70281", "latitude": 48.15045929, "longitude": -1.23657799, "name": "VITRE MONTREUIL SA", "postCode": "35500", "samplingLocationCode": "10", "horaires": null, "infos": null, "metro": null, "bus": null, "tram": null, "parking": null, "debutInfos": null, "finInfos": null, "ville": null, "id": null, "phone": null, "urlBlood": null, "urlPlasma": null, "urlPlatelets": null}
{"address1": null, "address2": null, "city": "MONTREUIL SOUS PEROUSE", "convocationLabel": "ESPACE ALBERT SAUVEE", "distance": 0.0, "fullAddress": "35500 MONTREUIL SOUS PEROUSE", "giveBlood": 1, "givePlasma": 0, "givePlatelet": 0, "regionCode": "016", "groupCode": "F70281", "latitude": 48.15045929, "longitude": -1.23657799, "name": "VITRE MONTREUIL MAT SEM", "postCode": "35500", "samplingLocationCode": "11", "horaires": null, "infos": null, "metro": null, "bus": null, "tram": null, "parking": null, "debutInfos": null, "finInfos": null, "ville": null, "id": null, "phone": null, "urlBlood": null, "urlPlasma": null, "urlPlatelets": null}
{"address1": null, "address2": null, "city": "MONTREUIL SOUS PEROUSE", "convocationLabel": "ESPACE ALBERT SAUVEE", "distance": 0.0, "fullAddress": "35500 MONTREUIL SOUS PEROUSE", "giveBlood": 1, "givePlasma": 0, "givePlatelet": 0, "regionCode": "016", "groupCode": "F70281", "latitude": 48.15045929, "longitude": -1.23657799, "name": "VITRE MONTREUIL AM SEM", "postCode": "35500", "samplingLocationCode": "12", "horaires": null, "infos": null, "metro": null, "bus": null, "tram": null, "parking": null, "debutInfos": null, "finInfos": null, "ville": null, "id": null, "phone": null, "urlBlood": null, "urlPlasma": null, "urlPlatelets": null}
{"address1": null, "address2": "RUE DE VERDUN", "city": "VITRE", "convocationLabel": "CENTRE CULTUREL J. DUHAMEL RUE DE VERDUN", "distance": 0.0, "fullAddress": "RUE DE VERDUN 35500 VITRE", "giveBlood": 1, "givePlasma": 0, "givePlatelet": 0, "regionCode": "016", "groupCode": "F70281", "latitude": 48.121165, "longitude": -1.215098, "name": "VITRE 1er JOUR DUHAMEL AM", "postCode": "35500", "samplingLocationCode": "13", "horaires": null, "infos": null, "metro": null, "bus": null, "tram": null, "parking": null, "debutInfos": null, "finInfos": null, "ville": null, "id": null, "phone": null, "urlBlood": null, "urlPlasma": null, "urlPlatelets": null}
{"address1": null, "address2": "RUE DE VERDUN", "city": "VITRE", "convocationLabel": "CENTRE CULTUREL J. DUHAMEL RUE DE VERDUN", "distance": 0.0, "fullAddress": "RUE DE VERDUN 35500 VITRE", "giveBlood": 1, "givePlasma": 0, "givePlatelet": 0, "regionCode": "016", "groupCode": "F70281", "latitude": 48.121165, "longitude": -1.215098, "name": "VITRE DUHAMEL SA", "postCode": "35500", "samplingLocationCode": "14", "horaires": null, "infos": null, "metro": null, "bus": null, "tram": null, "parking": null, "debutInfos": null, "finInfos": null, "ville": null, "id": null, "phone": null, "urlBlood": null, "urlPlasma": null, "urlPlatelets": null}
{"address1": null, "address2": "RUE DE VERDUN", "city": "VITRE", "convocationLabel": "CENTRE CULTUREL J. DUHAMEL RUE DE VERDUN", "distance": 0.0, "fullAddress": "RUE DE VERDUN 35500 VITRE", "giveBlood": 1, "givePlasma": 0, "givePlatelet": 0, "regionCode": "016", "groupCode": "F70281", "latitude": 48.121165, "longitude": -1.215098, "name": "VITRE DUHAMEL MAT", "postCode": "35500", "samplingLocationCode": "15", "horaires": null, "infos": null, "metro": null, "bus": null, "tram": null, "parking": null, "debutInfos": null, "finInfos": null, "ville": null, "id": null, "phone": null, "urlBlood": null, "urlPlasma": null, "urlPlatelets": null}
{"address1": null, "address2": "RUE DE VERDUN", "city": "VITRE", "convocationLabel": "CENTRE CULTUREL J. DUHAMEL", "distance": 0.0, "fullAddress": "RUE DE VERDUN 35500 VITRE", "giveBlood": 1, "givePlasma": 0, "givePlatelet": 0, "regionCode": "016", "groupCode": "F70281", "latitude": 48.121165, "longitude": -1.215098, "name": "VITRE DUHAMEL AM", "postCode": "35500", "samplingLocationCode": "16", "horaires": null, "infos": null, "metro": null, "bus": null, "tram": null, "parking": null, "debutInfos": null, "finInfos": null, "ville": null, "id": null, "phone": null, "urlBlood": null, "urlPlasma": null, "urlPlatelets": null}
{"address1": null, "address2": "CHEMIN DU FEIL", "city": "VITRE", "convocationLabel": "PARC DES EXPOSITIONS", "distance": 0.0, "fullAddress": "CHEMIN DU FEIL 35500 VITRE", "giveBlood": 1, "givePlasma": 0, "givePlatelet": 0, "regionCode": "016", "groupCode": "F70281", "latitude": 48.10717773, "longitude": -1.19404495, "name": "2 VITRE-PARC EXPO DAM VE", "postCode": "35500", "samplingLocationCode": "17", "horaires": null, "infos": null, "metro": null, "bus": null, "tram": null, "parking": null, "debutInfos": null, "finInfos": null, "ville": null, "id": null, "phone": null, "urlBlood": null, "urlPlasma": null, "urlPlatelets": null}
{"address1": null, "address2": "CHEMIN DU FEIL", "city": "VITRE", "convocationLabel": "PARC DES EXPOSITIONS", "distance": 0.0, "fullAddress": "CHEMIN DU FEIL 35500 VITRE", "giveBlood": 1, "givePlasma": 0, "givePlatelet": 0, "regionCode": "016", "groupCode": "F70281", "latitude": 48.10717773, "longitude": -1.19404495, "name": "2 VITRE-PARC EXPO SA J+", "postCode": "35500", "samplingLocationCode": "18", "horaires": null, "infos": null, "metro": null, "bus": null, "tram": null, "parking": null, "debutInfos": null, "finInfos": null, "ville": null, "id": null, "phone": null, "urlBlood": null, "urlPlasma": null, "urlPlatelets": null}
{"address1": null, "address2": "CHEMIN DE FEIL", "city": "VITRE", "convocationLabel": "PARC DES EXPOSITIONS", "distance": 0.0, "fullAddress": "CHEMIN DE FEIL 35500 VITRE", "giveBlood": 1, "givePlasma": 0, "givePlatelet": 0, "regionCode": "016", "groupCode": "F70281", "latitude": 48.10717773, "longitude": -1.19404495, "name": "2 VITRE-PARC EXPO AM LU J+", "postCode": "35500", "samplingLocationCode": "19", "horaires": null, "infos": null, "metro": null, "bus": null, "tram": null, "parking": null, "debutInfos": null, "finInfos": null, "ville": null, "id": null, "phone": null, "urlBlood": null, "urlPlasma": null, "urlPlatelets": null}
{"address1": null, "address2": "CHEMIN DU FEIL", "city": "VITRE", "convocationLabel": "PARC DES EXPOSITIONS pr\u00e8s de la piscine)", "distance": 0.0, "fullAddress": "CHEMIN DU FEIL 35500 VITRE", "giveBlood": 1, "givePlasma": 0, "givePlatelet": 0, "regionCode": "016", "groupCode": "F70281", "latitude": 48.118542, "longitude": -1.220701, "name": "VITRE", "postCode": "35500", "samplingLocationCode": "2", "horaires": null, "infos": null, "metro": null, "bus": null, "tram": null, "parking": null, "debutInfos": null, "finInfos": null, "ville": null, "id": null, "phone": null, "urlBlood": null, "urlPlasma": null, "urlPlatelets": null}
{"address1": null, "address2": "RUE DE VERDUN", "city": "VITRE", "convocationLabel": "CENTRE CULTUREL J. DUHAMEL RUE DE VERDUN", "distance": 0.0, "fullAddress": "RUE DE VERDUN 35500 VITRE", "giveBlood": 1, "givePlasma": 0, "givePlatelet": 0, "regionCode": "016", "groupCode": "F70281", "latitude": 48.121165, "longitude": -1.215098, "name": "2 VITRE SA J+ DUHAMEL", "postCode": "35500", "samplingLocationCode": "20", "horaires": null, "infos": null, "metro": null, "bus": null, "tram": null, "parking": null, "debutInfos": null, "finInfos": null, "ville": null, "id": null, "phone": null, "urlBlood": null, "urlPlasma": null, "urlPlatelets": null}
{"address1": null, "address2": "RUE DE VERDUN", "city": "VITRE", "convocationLabel": "CENTRE CULTUREL J. DUHAMEL RUE DE VERDUN", "distance": 0.0, "fullAddress": "RUE DE VERDUN 35500 VITRE", "giveBlood": 1, "givePlasma": 0, "givePlatelet": 0, "regionCode": "016", "groupCode": "F70281", "latitude": 48.121165, "longitude": -1.215098, "name": "2 VITRE DAM VE DUHAMEL", "postCode": "35500", "samplingLocationCode": "21", "horaires": null, "infos": null, "metro": null, "bus": null, "tram": null, "parking": null, "debutInfos": null, "finInfos": null, "ville": null, "id": null, "phone": null, "urlBlood": null, "urlPlasma": null, "urlPlatelets": null}
{"address1": null, "address2": "RUE DE VERDUN", "city": "VITRE", "convocationLabel": "CENTRE CULTUREL J. DUHAMEL RUE DE VERDUN", "distance": 0.0, "fullAddress": "RUE DE VERDUN 35500 VITRE", "giveBlood": 1, "givePlasma": 0, "givePlatelet": 0, "regionCode": "016", "groupCode": "F70281", "latitude": 48.121165, "longitude": -1.215098, "name": "2 VITRE AM LU J+ DUHAMEL", "postCode": "35500", "samplingLocationCode": "22", "horaires": null, "infos": null, "metro": null, "bus": null, "tram": null, "parking": null, "debutInfos": null, "finInfos": null, "ville": null, "id": null, "phone": null, "urlBlood": null, "urlPlasma": null, "urlPlatelets": null}
{"address1": null, "address2": "CHEMIN DE FEIL", "city": "VITRE", "convocationLabel": "PARC DES EXPOSITIONS", "distance": 0.0, "fullAddress": "CHEMIN DE FEIL 35500 VITRE", "giveBlood": 1, "givePlasma": 0, "givePlatelet": 0, "regionCode": "016", "groupCode": "F70281", "latitude": 48.118542, "longitude": -1.220701, "name": "2 VITRE-PARC EXPO LU MAT J+", "postCode": "35500", "samplingLocationCode": "23", "horaires": null, "infos": null, "metro": null, "bus": null, "tram": null, "parking": null, "debutInfos": null, "finInfos": null, "ville": null, "id": null, "phone": null, "urlBlood": null, "urlPlasma": null, "urlPlatelets": null}
{"address1": null, "address2": "CHEMIN DU FEIL", "city": "VITRE", "convocationLabel": "PARC DES EXPOSITIONS", "distance": 0.0, "fullAddress": "CHEMIN DU FEIL 35500 VITRE", "giveBlood": 1, "givePlasma": 0, "givePlatelet": 0, "regionCode": "016", "groupCode": "F70281", "latitude": 48.10717773, "longitude": -1.19404495, "name": "VITRE EXPO MAT", "postCode": "35500", "samplingLocationCode": "293", "horaires": null, "infos": null, "metro": null, "bus": null, "tram": null, "parking": null, "debutInfos": null, "finInfos": null, "ville": null, "id": null, "phone": null, "urlBlood": null, "urlPlasma": null, "urlPlatelets": null}
{"address1": null, "address2": "CHEMIN DU FEIL (pr\u00e8s de la piscine)", "city": "VITRE", "convocationLabel": "PARC DES EXPOSITIONS", "distance": 0.0, "fullAddress": "CHEMIN DU FEIL (pr\u00e8s de la piscine) 35500 VITRE", "giveBlood": 1, "givePlasma": 0, "givePlatelet": 0, "regionCode": "016", "groupCode": "F70281", "latitude": 48.114083, "longitude": -1.204757, "name": "VITRE (HALLE DE SPORT DU PARC)", "postCode": "35500", "samplingLocationCode": "3", "horaires": null, "infos": null, "metro": null, "bus": null, "tram": null, "parking": null, "debutInfos": null, "finInfos": null, "ville": null, "id": null, "phone": null, "urlBlood": null, "urlPlasma": null, "urlPlatelets": null}
{"address1": null, "address2": "CHEMIN DU FEIL", "city": "VITRE", "convocationLabel": "PARC DES EXPOSITIONS", "distance": 0.0, "fullAddress": "CHEMIN DU FEIL 35500 VITRE", "giveBlood": 1, "givePlasma": 0, "givePlatelet": 0, "regionCode": "016", "groupCode": "F70281", "latitude": 48.118542, "longitude": -1.220701, "name": "VITRE", "postCode": "35500", "samplingLocationCode": "4", "horaires": null, "infos": null, "metro": null, "bus": null, "tram": null, "parking": null, "debutInfos": null, "finInfos": null, "ville": null, "id": null, "phone": null, "urlBlood": null, "urlPlasma": null, "urlPlatelets": null}
{"address1": null, "address2": "CHEMIN DU FEIL", "city": "VITRE", "convocationLabel": "PARC DES EXPOSITIONS", "distance": 0.0, "fullAddress": "CHEMIN DU FEIL 35500 VITRE", "giveBlood": 1, "givePlasma": 0, "givePlatelet": 0, "regionCode": "016", "groupCode": "F70281", "latitude": 48.10717773, "longitude": -1.19404495, "name": "VITRE 1ER JOUR EXPO AM", "postCode": "35500", "samplingLocationCode": "5", "horaires": null, "infos": null, "metro": null, "bus": null, "tram": null, "parking": null, "debutInfos": null, "finInfos": null, "ville": null, "id": null, "phone": null, "urlBlood": null, "urlPlasma": null, "urlPlatelets": null}
{"address1": null, "address2": "CHEMIN DU FEIL", "city": "VITRE", "convocationLabel": "PARC DES EXPOSITIONS", "distance": 0.0, "fullAddress": "CHEMIN DU FEIL 35500 VITRE", "giveBlood": 1, "givePlasma": 0, "givePlatelet": 0, "regionCode": "016", "groupCode": "F70281", "latitude": 48.10717773, "longitude": -1.19404495, "name": "VITRE EXPO AM", "postCode": "35500", "samplingLocationCode": "6", "horaires": null, "infos": null, "metro": null, "bus": null, "tram": null, "parking": null, "debutInfos": null, "finInfos": null, "ville": null, "id": null, "phone": null, "urlBlood": null, "urlPlasma": null, "urlPlatelets": null}
{"address1": null, "address2": "CHEMIN DU FEIL", "city": "VITRE", "convocationLabel": "PARC DES EXPOSITIONS", "distance": 0.0, "fullAddress": "CHEMIN DU FEIL 35500 VITRE", "giveBlood": 1, "givePlasma": 0, "givePlatelet": 0, "regionCode": "016", "groupCode": "F70281", "latitude": 48.118542, "longitude": -1.220701, "name": "VITRE SA matin", "postCode": "35500", "samplingLocationCode": "7", "horaires": null, "infos": null, "metro": null, "bus": null, "tram": null, "parking": null, "debutInfos": null, "finInfos": null, "ville": null, "id": null, "phone": null, "urlBlood": null, "urlPlasma": null, "urlPlatelets": null}
{"address1": null, "address2": "CHEMIN DU FEIL", "city": "VITRE", "convocationLabel": "PARC DES EXPOSITIONS", "distance": 0.0, "fullAddress": "CHEMIN DU FEIL 35500 VITRE", "giveBlood": 1, "givePlasma": 0, "givePlatelet": 0, "regionCode": "016", "groupCode": "F70281", "latitude": 48.10717773, "longitude": -1.19404495, "name": "VITRE SA", "postCode": "35500", "samplingLocationCode": "8", "horaires": null, "infos": null, "metro": null, "bus": null, "tram": null, "parking": null, "debutInfos": null, "finInfos": null, "ville": null, "id": null, "phone": null, "urlBlood": null, "urlPlasma": null, "urlPlatelets": null}
{"address1": null, "address2": null, "city": "MONTREUIL SOUS PEROUSE", "convocationLabel": "ESPACE ALBERT SAUVEE", "distance": 0.0, "fullAddress": "35500 MONTREUIL SOUS PEROUSE", "giveBlood": 1, "givePlasma": 0, "givePlatelet": 0, "regionCode": "016", "groupCode": "F70281", "latitude": 48.15045929, "longitude": -1.23657799, "name": "VITRE 1ER JOUR MONTREUIL AM", "postCode": "35500", "samplingLocationCode": "9", "horaires": null, "infos": null, "metro": null, "bus": null, "tram": null, "parking": null, "debutInfos": null, "finInfos": null, "ville": null, "id": null, "phone": null, "urlBlood": null, "urlPlasma": null, "urlPlatelets": null}
