{"address1": null, "address2": "PLACE DE L HOTEL DE VILLE", "city": "LORIENT", "convocationLabel": "HOTEL DE VILLE", "distance": 0.0, "fullAddress": "PLACE DE L HOTEL DE VILLE 56100 LORIENT", "giveBlood": 1, "givePlasma": 0, "givePlatelet": 0, "regionCode": "016", "groupCode": "F30268", "latitude": 47.747217, "longitude": -3.366252, "name": "LORIENT PM", "postCode": "56100", "samplingLocationCode": "10", "horaires": null, "infos": null, "metro": null, "bus": null, "tram": null, "parking": null, "debutInfos": null, "finInfos": null, "ville": null, "id": null, "phone": null, "urlBlood": null, "urlPlasma": null, "urlPlatelets": null}
{"address1": null, "address2": "PLACE DE L HOTEL DE VILLE", "city": "LORIENT", "convocationLabel": "HOTEL DE VILLE", "distance": 0.0, "fullAddress": "PLACE DE L HOTEL DE VILLE 56100 LORIENT", "giveBlood": 1, "givePlasma": 0, "givePlatelet": 0, "regionCode": "016", "groupCode": "F30268", "latitude": 47.747217, "longitude": -3.366252, "name": "LORIENT AM", "postCode": "56100", "samplingLocationCode": "11", "horaires": null, "infos": null, "metro": null, "bus": null, "tram": null, "parking": null, "debutInfos": null, "finInfos": null, "ville": null, "id": null, "phone": null, "urlBlood": null, "urlPlasma": null, "urlPlatelets": null}
{"address1": "C.H. BRETAGNE SUD- SITE DU SCORFF", "address2": "RUE LOUIS GUIGUEN", "city": "LORIENT", "convocationLabel": "MAISON DU DON DU SCORFF", "distance": 0.0, "fullAddress": "C.H. BRETAGNE SUD- SITE DU SCORFF RUE LOUIS GUIGUEN 56100 LORIENT", "giveBlood": 1, "givePlasma": 0, "givePlatelet": 0, "regionCode": "016", "groupCode": "F30268", "latitude": 47.755274, "longitude": -3.354773, "name": "LORIENT- MAISON DU DON", "postCode": "56100", "samplingLocationCode": "12", "horaires": null, "infos": null, "metro": null, "bus": null, "tram": null, "parking": null, "debutInfos": null, "finInfos": null, "ville": null, "id": null, "phone": null, "urlBlood": null, "urlPlasma": null, "urlPlatelets": null}
{"address1": null, "address2": "RUE JEAN LE COUTALLER", "city": "LORIENT", "convocationLabel": "STADE DU MOUSTOIR SALON DU PORT-", "distance": 0.0, "fullAddress": "RUE JEAN LE COUTALLER 56100 LORIENT", "giveBlood": 1, "givePlasma": 0, "givePlatelet": 0, "regionCode": "016", "groupCode": "F30268", "latitude": 47.746358, "longitude": -3.367904, "name": "FCL JO", "postCode": "56100", "samplingLocationCode": "4", "horaires": null, "infos": null, "metro": null, "bus": null, "tram": null, "parking": null, "debutInfos": null, "finInfos": null, "ville": null, "id": null, "phone": null, "urlBlood": null, "urlPlasma": null, "urlPlatelets": null}
{"address1": null, "address2": "RUE JEAN LE COUTALLER", "city": "LORIENT", "convocationLabel": "STADE DU MOUSTOIR SALON DU PORT -", "distance": 0.0, "fullAddress": "RUE JEAN LE COUTALLER 56100 LORIENT", "giveBlood": 1, "givePlasma": 0, "givePlatelet": 0, "regionCode": "016", "groupCode": "F30268", "latitude": 47.746358, "longitude": -3.367904, "name": "FCL PM", "postCode": "56100", "samplingLocationCode": "5", "horaires": null, "infos": null, "metro": null, "bus": null, "tram": null, "parking": null, "debutInfos": null, "finInfos": null, "ville": null, "id": null, "phone": null, "urlBlood": null, "urlPlasma": null, "urlPlatelets": null}
{"address1": null, "address2": "PLACE DE L'HOTEL DE VILLE", "city": "LORIENT", "convocationLabel": "HOTEL DE VILLE", "distance": 0.0, "fullAddress": "PLACE DE L'HOTEL DE VILLE 56100 LORIENT", "giveBlood": 1, "givePlasma": 0, "givePlatelet": 0, "regionCode": "016", "groupCode": "F30268", "latitude": 47.747217, "longitude": -3.366252, "name": "LORIENT VILLE MATIN", "postCode": "56100", "samplingLocationCode": "6", "horaires": null, "infos": null, "metro": null, "bus": null, "tram": null, "parking": null, "debutInfos": null, "finInfos": null, "ville": null, "id": null, "phone": null, "urlBlood": null, "urlPlasma": null, "urlPlatelets": null}
{"address1": null, "address2": "VOLVO RACE", "city": "LORIENT", "convocationLabel": "CITE DE LA VOILE E. TABARLY  / CAMION EFS", "distance": 0.0, "fullAddress": "VOLVO RACE 56100 LORIENT", "giveBlood": 1, "givePlasma": 0, "givePlatelet": 0, "regionCode": "016", "groupCode": "F30268", "latitude": 47.742744, "longitude": -3.375059, "name": "VOLVO RACE", "postCode": "56100", "samplingLocationCode": "7", "horaires": null, "infos": null, "metro": null, "bus": null, "tram": null, "parking": null, "debutInfos": null, "finInfos": null, "ville": null, "id": null, "phone": null, "urlBlood": null, "urlPlasma": null, "urlPlatelets": null}
{"address1": null, "address2": "RUE JEAN LE COUTALLER", "city": "LORIENT", "convocationLabel": "SALON DU PORT-STADE DU MOUSTOIR", "distance": 0.0, "fullAddress": "RUE JEAN LE COUTALLER 56100 LORIENT", "giveBlood": 1, "givePlasma": 0, "givePlatelet": 0, "regionCode": "016", "groupCode": "F30268", "latitude": 47.746358, "longitude": -3.367904, "name": "LORIENT FCL MATIN", "postCode": "56100", "samplingLocationCode": "8", "horaires": null, "infos": null, "metro": null, "bus": null, "tram": null, "parking": null, "debutInfos": null, "finInfos": null, "ville": null, "id": null, "phone": null, "urlBlood": null, "urlPlasma": null, "urlPlatelets": null}
{"address1": "PLACE DE L'HOTEL DE VILLE", "address2": null, "city": "LORIENT", "convocationLabel": "HOTEL DE VILLE", "distance": 0.0, "fullAddress": "PLACE DE L'HOTEL DE VILLE 56100 LORIENT", "giveBlood": 1, "givePlasma": 0, "givePlatelet": 0, "regionCode": "016", "groupCode": "F30268", "latitude": 47.747217, "longitude": -3.366252, "name": "LORIENT SAMEDI", "postCode": "56100", "samplingLocationCode": "9", "horaires": null, "infos": null, "metro": null, "bus": null, "tram": null, "parking": null, "debutInfos": null, "finInfos": null, "ville": null, "id": null, "phone": null, "urlBlood": null, "urlPlasma": null, "urlPlatelets": null}
{"address1": "PARKING RESERVE", "address2": "Place de l'H\u00f4tel de Ville", "city": "LORIENT", "convocationLabel": "HOTEL DE VILLE", "distance": 0.0, "fullAddress": "PARKING RESERVE Place de l'H\u00f4tel de Ville 56100 LORIENT", "giveBlood": 1, "givePlasma": 0, "givePlatelet": 0, "regionCode": "016", "groupCode": "F30268", "latitude": 47.747217, "longitude": -3.366252, "name": "LORIENT VILLE", "postCode": "56100", "samplingLocationCode": "941", "horaires": null, "infos": null, "metro": null, "bus": null, "tram": null, "parking": null, "debutInfos": null, "finInfos": null, "ville": null, "id": null, "phone": null, "urlBlood": null, "urlPlasma": null, "urlPlatelets": null}
