{"address1": null, "address2": "RUE DU ROTZ", "city": "MAURE DE BRETAGNE", "convocationLabel": "ESPACE CULTUREL DU ROTZ", "distance": 0.0, "fullAddress": "RUE DU ROTZ 35330 MAURE DE BRETAGNE", "giveBlood": 1, "givePlasma": 0, "givePlatelet": 0, "regionCode": "016", "groupCode": "F70127", "latitude": 47.889645, "longitude": -1.988041, "name": "MAURE DE BRETAGNE", "postCode": "35330", "samplingLocationCode": "140", "horaires": null, "infos": null, "metro": null, "bus": null, "tram": null, "parking": null, "debutInfos": null, "finInfos": null, "ville": null, "id": null, "phone": null, "urlBlood": null, "urlPlasma": null, "urlPlatelets": null}
{"address1": null, "address2": "RUE DU ROTZ", "city": "MAURE DE BRETAGNE", "convocationLabel": "ESPACE CULTUREL DU ROTZ", "distance": 0.0, "fullAddress": "RUE DU ROTZ 35330 MAURE DE BRETAGNE", "giveBlood": 1, "givePlasma": 0, "givePlatelet": 0, "regionCode": "016", "groupCode": "F70127", "latitude": 47.889645, "longitude": -1.988041, "name": "MAURE DE BRETAGNE MAT 9H30 13H", "postCode": "35330", "samplingLocationCode": "2", "horaires": null, "infos": null, "metro": null, "bus": null, "tram": null, "parking": null, "debutInfos": null, "finInfos": null, "ville": null, "id": null, "phone": null, "urlBlood": null, "urlPlasma": null, "urlPlatelets": null}
{"address1": null, "address2": "RUE DU ROTZ", "city": "MAURE DE BRETAGNE", "convocationLabel": "ESPACE CULTUREL DU ROTZ", "distance": 0.0, "fullAddress": "RUE DU ROTZ 35330 MAURE DE BRETAGNE", "giveBlood": 1, "givePlasma": 0, "givePlatelet": 0, "regionCode": "016", "groupCode": "F70127", "latitude": 47.88999557, "longitude": -1.98713255, "name": "MAURE DE BRETAGNE MAT", "postCode": "35330", "samplingLocationCode": "3", "horaires": null, "infos": null, "metro": null, "bus": null, "tram": null, "parking": null, "debutInfos": null, "finInfos": null, "ville": null, "id": null, "phone": null, "urlBlood": null, "urlPlasma": null, "urlPlatelets": null}
{"address1": null, "address2": "RUE DU ROTZ", "city": "MAURE DE BRETAGNE", "convocationLabel": "ESPACE CULTUREL DU ROTZ", "distance": 0.0, "fullAddress": "RUE DU ROTZ 35330 MAURE DE BRETAGNE", "giveBlood": 1, "givePlasma": 0, "givePlatelet": 0, "regionCode": "016", "groupCode": "F70127", "latitude": 47.88999557, "longitude": -1.98713255, "name": "MAURE DE BRETAGNE AM", "postCode": "35330", "samplingLocationCode": "4", "horaires": null, "infos": null, "metro": null, "bus": null, "tram": null, "parking": null, "debutInfos": null, "finInfos": null, "ville": null, "id": null, "phone": null, "urlBlood": null, "urlPlasma": null, "urlPlatelets": null}
{"address1": null, "address2": "RUE DU ROTZ", "city": "MAURE DE BRETAGNE", "convocationLabel": "ESPACE CULTUREL DU ROTZ", "distance": 0.0, "fullAddress": "RUE DU ROTZ 35330 MAURE DE BRETAGNE", "giveBlood": 1, "givePlasma": 0, "givePlatelet": 0, "regionCode": "016", "groupCode": "F70127", "latitude": 47.89012909, "longitude": -1.98708475, "name": "2 MAURE-LE ROTZ AM ", "postCode": "35330", "samplingLocationCode": "5", "horaires": null, "infos": null, "metro": null, "bus": null, "tram": null, "parking": null, "debutInfos": null, "finInfos": null, "ville": null, "id": null, "phone": null, "urlBlood": null, "urlPlasma": null, "urlPlatelets": null}
{"address1": null, "address2": "RUE DU ROTZ", "city": "MAURE DE BRETAGNE", "convocationLabel": "ESPACE CULTUREL DU ROTZ", "distance": 0.0, "fullAddress": "RUE DU ROTZ 35330 MAURE DE BRETAGNE", "giveBlood": 1, "givePlasma": 0, "givePlatelet": 0, "regionCode": "016", "groupCode": "F70127", "latitude": 47.931166, "longitude": -2.026321, "name": "2 MAURE LE ROTZ AM 2/3", "postCode": "35330", "samplingLocationCode": "6", "horaires": null, "infos": null, "metro": null, "bus": null, "tram": null, "parking": null, "debutInfos": null, "finInfos": null, "ville": null, "id": null, "phone": null, "urlBlood": null, "urlPlasma": null, "urlPlatelets": null}
