{"address1": null, "address2": "PLACE FRANCOIS MITTERAND", "city": "SAINT AVE", "convocationLabel": "SALLE OLYMPE  DE GOUGES (\u00e0 la mairie)", "distance": 0.0, "fullAddress": "PLACE FRANCOIS MITTERAND 56890 SAINT AVE", "giveBlood": 1, "givePlasma": 0, "givePlatelet": 0, "regionCode": "016", "groupCode": "F30382", "latitude": 47.690772, "longitude": -2.7362, "name": "SALLE OLYMPE DE GOUGES S", "postCode": "56890", "samplingLocationCode": "1459", "horaires": null, "infos": null, "metro": null, "bus": null, "tram": null, "parking": null, "debutInfos": null, "finInfos": null, "ville": null, "id": null, "phone": null, "urlBlood": null, "urlPlasma": null, "urlPlatelets": null}
{"address1": null, "address2": "PLACE FRANCOIS MITTERAND", "city": "SAINT AVE", "convocationLabel": "SALLE OLYMPE  DE GOUGES (\u00e0 la mairie)", "distance": 0.0, "fullAddress": "PLACE FRANCOIS MITTERAND 56890 SAINT AVE", "giveBlood": 1, "givePlasma": 0, "givePlatelet": 0, "regionCode": "016", "groupCode": "F30382", "latitude": 47.690772, "longitude": -2.7362, "name": "SALLE OLYMPE DE GOUGES M", "postCode": "56890", "samplingLocationCode": "3", "horaires": null, "infos": null, "metro": null, "bus": null, "tram": null, "parking": null, "debutInfos": null, "finInfos": null, "ville": null, "id": null, "phone": null, "urlBlood": null, "urlPlasma": null, "urlPlatelets": null}
{"address1": null, "address2": "RUE DES ALIZEES", "city": "ST AVE", "convocationLabel": "ESPACE JEAN LE GAC", "distance": 0.0, "fullAddress": "RUE DES ALIZEES 56890 ST AVE", "giveBlood": 1, "givePlasma": 0, "givePlatelet": 0, "regionCode": "016", "groupCode": "F30382", "latitude": 47.68938828, "longitude": -2.74332571, "name": "ST AVE ESPACE J LE GAC 15-19h", "postCode": "56890", "samplingLocationCode": "4", "horaires": null, "infos": null, "metro": null, "bus": null, "tram": null, "parking": null, "debutInfos": null, "finInfos": null, "ville": null, "id": null, "phone": null, "urlBlood": null, "urlPlasma": null, "urlPlatelets": null}
{"address1": null, "address2": "RUE DES ALIZEES", "city": "ST AVE", "convocationLabel": "ESPACE JEAN LE GAC", "distance": 0.0, "fullAddress": "RUE DES ALIZEES 56890 ST AVE", "giveBlood": 1, "givePlasma": 0, "givePlatelet": 0, "regionCode": "016", "groupCode": "F30382", "latitude": 47.688635, "longitude": -2.742549, "name": "ST AVE ESPACE J. LE GAC AM", "postCode": "56890", "samplingLocationCode": "5", "horaires": null, "infos": null, "metro": null, "bus": null, "tram": null, "parking": null, "debutInfos": null, "finInfos": null, "ville": null, "id": null, "phone": null, "urlBlood": null, "urlPlasma": null, "urlPlatelets": null}
