{"address1": null, "address2": "144 BOULEVARD DE VITRE", "city": "RENNES", "convocationLabel": "FOYER INTERNAT", "distance": 0.0, "fullAddress": "144 BOULEVARD DE VITRE 35000 RENNES", "giveBlood": 1, "givePlasma": 0, "givePlatelet": 0, "regionCode": "016", "groupCode": "F70535", "latitude": 48.121817, "longitude": -1.686013, "name": "LYCEE JOLIOT CURIE 2EME PASS", "postCode": "35000", "samplingLocationCode": "2", "horaires": null, "infos": null, "metro": null, "bus": null, "tram": null, "parking": null, "debutInfos": null, "finInfos": null, "ville": null, "id": null, "phone": null, "urlBlood": null, "urlPlasma": null, "urlPlatelets": null}
{"address1": "FOYER INTERNAT", "address2": "144 BOULEVARD DE VITRE", "city": "RENNES", "convocationLabel": "LYCEE JOLIOT CURIE", "distance": 0.0, "fullAddress": "FOYER INTERNAT 144 BOULEVARD DE VITRE 35000 RENNES", "giveBlood": 1, "givePlasma": 0, "givePlatelet": 0, "regionCode": "016", "groupCode": "F70535", "latitude": 48.1265873, "longitude": -1.651634, "name": "2 RENNES-LYCEE JOLIOT-FOYE DAM", "postCode": "35000", "samplingLocationCode": "3", "horaires": null, "infos": null, "metro": null, "bus": null, "tram": null, "parking": null, "debutInfos": null, "finInfos": null, "ville": null, "id": null, "phone": null, "urlBlood": null, "urlPlasma": null, "urlPlatelets": null}
{"address1": null, "address2": "144 BOULEVARD DE VITRE", "city": "RENNES", "convocationLabel": "FOYER INTERNAT", "distance": 0.0, "fullAddress": "144 BOULEVARD DE VITRE 35000 RENNES", "giveBlood": 1, "givePlasma": 0, "givePlatelet": 0, "regionCode": "016", "groupCode": "F70535", "latitude": 48.121817, "longitude": -1.686013, "name": "LYCEE JOLIOT CURIE 1ER PASS", "postCode": "35000", "samplingLocationCode": "559", "horaires": null, "infos": null, "metro": null, "bus": null, "tram": null, "parking": null, "debutInfos": null, "finInfos": null, "ville": null, "id": null, "phone": null, "urlBlood": null, "urlPlasma": null, "urlPlatelets": null}
