{"address1": null, "address2": "PARKING RESERVE POUR DONNEURS", "city": "HENNEBONT", "convocationLabel": "CENTRE SOCIOCULTUREL", "distance": 0.0, "fullAddress": "PARKING RESERVE POUR DONNEURS 56700 HENNEBONT", "giveBlood": 1, "givePlasma": 0, "givePlatelet": 0, "regionCode": "016", "groupCode": "F30203", "latitude": 47.8087616, "longitude": -3.27516723, "name": "HENNEBONT CENTRE SOCIOCULTUREL", "postCode": "56700", "samplingLocationCode": "4", "horaires": null, "infos": null, "metro": null, "bus": null, "tram": null, "parking": null, "debutInfos": null, "finInfos": null, "ville": null, "id": null, "phone": null, "urlBlood": null, "urlPlasma": null, "urlPlatelets": null}
{"address1": null, "address2": "PARKING RESERVE POUR DONNEURS", "city": "HENNEBONT", "convocationLabel": "CENTRE SOCIOCULTUREL", "distance": 0.0, "fullAddress": "PARKING RESERVE POUR DONNEURS 56700 HENNEBONT", "giveBlood": 1, "givePlasma": 0, "givePlatelet": 0, "regionCode": "016", "groupCode": "F30203", "latitude": 47.80262375, "longitude": -3.27581096, "name": "HENNEBONT-CENTRE SOCIOCULTUREL", "postCode": "56700", "samplingLocationCode": "5", "horaires": null, "infos": null, "metro": null, "bus": null, "tram": null, "parking": null, "debutInfos": null, "finInfos": null, "ville": null, "id": null, "phone": null, "urlBlood": null, "urlPlasma": null, "urlPlatelets": null}
{"address1": null, "address2": "RUE TAGLIAFERI", "city": "HENNEBONT", "convocationLabel": "LE VALLON BOISE", "distance": 0.0, "fullAddress": "RUE TAGLIAFERI 56700 HENNEBONT", "giveBlood": 1, "givePlasma": 0, "givePlatelet": 0, "regionCode": "016", "groupCode": "F30203", "latitude": 47.823701, "longitude": -3.248326, "name": "HENNEBONT- LE VALLON BOISE", "postCode": "56700", "samplingLocationCode": "6", "horaires": null, "infos": null, "metro": null, "bus": null, "tram": null, "parking": null, "debutInfos": null, "finInfos": null, "ville": null, "id": null, "phone": null, "urlBlood": null, "urlPlasma": null, "urlPlatelets": null}
{"address1": null, "address2": "PARKING RESERVE POUR DONNEURS", "city": "HENNEBONT", "convocationLabel": "CENTRE SOCIO CULTUREL", "distance": 0.0, "fullAddress": "PARKING RESERVE POUR DONNEURS 56700 HENNEBONT", "giveBlood": 1, "givePlasma": 0, "givePlatelet": 0, "regionCode": "016", "groupCode": "F30203", "latitude": 47.8066, "longitude": -3.269949, "name": "LYCEES / ENTREPRISE HENNEBONT", "postCode": "56700", "samplingLocationCode": "7", "horaires": null, "infos": null, "metro": null, "bus": null, "tram": null, "parking": null, "debutInfos": null, "finInfos": null, "ville": null, "id": null, "phone": null, "urlBlood": null, "urlPlasma": null, "urlPlatelets": null}
{"address1": null, "address2": "PARKING RESERVE POUR DONNEURS", "city": "HENNEBONT", "convocationLabel": "CENTRE SOCIO CULTUREL", "distance": 0.0, "fullAddress": "PARKING RESERVE POUR DONNEURS 56700 HENNEBONT", "giveBlood": 1, "givePlasma": 0, "givePlatelet": 0, "regionCode": "016", "groupCode": "F30203", "latitude": 47.8066, "longitude": -3.269949, "name": "HENNEBONT CSC 12 H - 16 H 30", "postCode": "56700", "samplingLocationCode": "8", "horaires": null, "infos": null, "metro": null, "bus": null, "tram": null, "parking": null, "debutInfos": null, "finInfos": null, "ville": null, "id": null, "phone": null, "urlBlood": null, "urlPlasma": null, "urlPlatelets": null}
{"address1": null, "address2": "PARKING RESERVE POUR DONNEURS", "city": "HENNEBONT", "convocationLabel": "CENTRE SOCIO CULTUREL", "distance": 0.0, "fullAddress": "PARKING RESERVE POUR DONNEURS 56700 HENNEBONT", "giveBlood": 1, "givePlasma": 0, "givePlatelet": 0, "regionCode": "016", "groupCode": "F30203", "latitude": 47.807041, "longitude": -3.268558, "name": "HENNEBONT - CSC 9H-13H", "postCode": "56700", "samplingLocationCode": "9", "horaires": null, "infos": null, "metro": null, "bus": null, "tram": null, "parking": null, "debutInfos": null, "finInfos": null, "ville": null, "id": null, "phone": null, "urlBlood": null, "urlPlasma": null, "urlPlatelets": null}
{"address1": null, "address2": "PARKING RESERVE POUR DONNEURS", "city": "HENNEBONT", "convocationLabel": "CENTRE SOCIOCULTUREL", "distance": 0.0, "fullAddress": "PARKING RESERVE POUR DONNEURS 56700 HENNEBONT", "giveBlood": 1, "givePlasma": 0, "givePlatelet": 0, "regionCode": "016", "groupCode": "F30203", "latitude": 47.8066, "longitude": -3.269949, "name": "HENNEBONT CENTRE SOCIOCULTUREL", "postCode": "56700", "samplingLocationCode": "920", "horaires": null, "infos": null, "metro": null, "bus": null, "tram": null, "parking": null, "debutInfos": null, "finInfos": null, "ville": null, "id": null, "phone": null, "urlBlood": null, "urlPlasma": null, "urlPlatelets": null}
