{"address1": null, "address2": "RUE DU PRATELLO", "city": "SAINT JEAN BREVELAY", "convocationLabel": "SALLE DES FETES DU VERTIN", "distance": 0.0, "fullAddress": "RUE DU PRATELLO 56660 SAINT JEAN BREVELAY", "giveBlood": 1, "givePlasma": 0, "givePlatelet": 0, "regionCode": "016", "groupCode": "F30384", "latitude": 47.849508, "longitude": -2.724907, "name": "ST JEAN BREVELAY 9 h - 13 h", "postCode": "56660", "samplingLocationCode": "1507", "horaires": null, "infos": null, "metro": null, "bus": null, "tram": null, "parking": null, "debutInfos": null, "finInfos": null, "ville": null, "id": null, "phone": null, "urlBlood": null, "urlPlasma": null, "urlPlatelets": null}
{"address1": null, "address2": "RUE DU PRATELLO", "city": "SAINT JEAN BREVELAY", "convocationLabel": "SALLE DES FETES DU VERTIN", "distance": 0.0, "fullAddress": "RUE DU PRATELLO 56660 SAINT JEAN BREVELAY", "giveBlood": 1, "givePlasma": 0, "givePlatelet": 0, "regionCode": "016", "groupCode": "F30384", "latitude": 47.84890747, "longitude": -2.72342992, "name": "ST JEAN BREVELAY 14 h 30 -", "postCode": "56660", "samplingLocationCode": "2", "horaires": null, "infos": null, "metro": null, "bus": null, "tram": null, "parking": null, "debutInfos": null, "finInfos": null, "ville": null, "id": null, "phone": null, "urlBlood": null, "urlPlasma": null, "urlPlatelets": null}
{"address1": null, "address2": "RUE DU PRATELLO", "city": "SAINT JEAN BREVELAY", "convocationLabel": "SALLE DES FETES DU VERTIN", "distance": 0.0, "fullAddress": "RUE DU PRATELLO 56660 SAINT JEAN BREVELAY", "giveBlood": 1, "givePlasma": 0, "givePlatelet": 0, "regionCode": "016", "groupCode": "F30384", "latitude": 47.84708023, "longitude": -2.72003627, "name": "ST JEAN BREVELAY  15 h 19 h", "postCode": "56660", "samplingLocationCode": "3", "horaires": null, "infos": null, "metro": null, "bus": null, "tram": null, "parking": null, "debutInfos": null, "finInfos": null, "ville": null, "id": null, "phone": null, "urlBlood": null, "urlPlasma": null, "urlPlatelets": null}
{"address1": null, "address2": "RUE CLAIE", "city": "SAINT ALLOUESTRE", "convocationLabel": "SALLE POLYVALENTE DE SAINT ALLOUESTRE", "distance": 0.0, "fullAddress": "RUE CLAIE 56500 SAINT ALLOUESTRE", "giveBlood": 1, "givePlasma": 0, "givePlatelet": 0, "regionCode": "016", "groupCode": "F30384", "latitude": 47.911737, "longitude": -2.723411, "name": "ST ALOUESTRE PM", "postCode": "56500", "samplingLocationCode": "4", "horaires": null, "infos": null, "metro": null, "bus": null, "tram": null, "parking": null, "debutInfos": null, "finInfos": null, "ville": null, "id": null, "phone": null, "urlBlood": null, "urlPlasma": null, "urlPlatelets": null}
{"address1": null, "address2": "RUE CLAIE", "city": "SAINT ALLOUESTRE", "convocationLabel": "SALLE POLYVALENTE DE SAINT ALLOUESTRE", "distance": 0.0, "fullAddress": "RUE CLAIE 56500 SAINT ALLOUESTRE", "giveBlood": 1, "givePlasma": 0, "givePlatelet": 0, "regionCode": "016", "groupCode": "F30384", "latitude": 47.911737, "longitude": -2.723411, "name": "ST ALLOUESTRE AM", "postCode": "56500", "samplingLocationCode": "5", "horaires": null, "infos": null, "metro": null, "bus": null, "tram": null, "parking": null, "debutInfos": null, "finInfos": null, "ville": null, "id": null, "phone": null, "urlBlood": null, "urlPlasma": null, "urlPlatelets": null}
{"address1": null, "address2": "RUE DU VERTIN", "city": "SAINT JEAN BREVELAY", "convocationLabel": "SALLE DES FETES DU VERTIN", "distance": 0.0, "fullAddress": "RUE DU VERTIN 56660 SAINT JEAN BREVELAY", "giveBlood": 1, "givePlasma": 0, "givePlatelet": 0, "regionCode": "016", "groupCode": "F30384", "latitude": 47.847008, "longitude": -2.719727, "name": "ST JEAN BREVELAY (1 Jour)", "postCode": "56660", "samplingLocationCode": "6", "horaires": null, "infos": null, "metro": null, "bus": null, "tram": null, "parking": null, "debutInfos": null, "finInfos": null, "ville": null, "id": null, "phone": null, "urlBlood": null, "urlPlasma": null, "urlPlatelets": null}
