{"address1": null, "address2": "1 AVENUE DE L'EUROPE", "city": "LIFFRE", "convocationLabel": "LYCEE SIMONE VEIL SALLE GALET", "distance": 0.0, "fullAddress": "1 AVENUE DE L'EUROPE 35340 LIFFRE", "giveBlood": 1, "givePlasma": 0, "givePlatelet": 0, "regionCode": "016", "groupCode": "F70117", "latitude": 48.205714, "longitude": -1.506971, "name": "2 LIFFRE J+ DAM LYCEE", "postCode": "35340", "samplingLocationCode": "10", "horaires": null, "infos": null, "metro": null, "bus": null, "tram": null, "parking": null, "debutInfos": null, "finInfos": null, "ville": null, "id": null, "phone": null, "urlBlood": null, "urlPlasma": null, "urlPlatelets": null}
{"address1": null, "address2": "RUE DES ECOLES", "city": "LIFFRE", "convocationLabel": "ESPACE INTER-GENERATIONS", "distance": 0.0, "fullAddress": "RUE DES ECOLES 35340 LIFFRE", "giveBlood": 1, "givePlasma": 0, "givePlatelet": 0, "regionCode": "016", "groupCode": "F70117", "latitude": 48.212732, "longitude": -1.507451, "name": "2 LIFFRE-GENERATIONS MAT J+", "postCode": "35340", "samplingLocationCode": "11", "horaires": null, "infos": null, "metro": null, "bus": null, "tram": null, "parking": null, "debutInfos": null, "finInfos": null, "ville": null, "id": null, "phone": null, "urlBlood": null, "urlPlasma": null, "urlPlatelets": null}
{"address1": null, "address2": "RUE DES ECOLES", "city": "LIFFRE", "convocationLabel": "ESPACE INTER-GENERATIONS", "distance": 0.0, "fullAddress": "RUE DES ECOLES 35340 LIFFRE", "giveBlood": 1, "givePlasma": 0, "givePlatelet": 0, "regionCode": "016", "groupCode": "F70117", "latitude": 48.212732, "longitude": -1.507451, "name": "2 LIFFRE-GENERATIONS AM J+ VE", "postCode": "35340", "samplingLocationCode": "12", "horaires": null, "infos": null, "metro": null, "bus": null, "tram": null, "parking": null, "debutInfos": null, "finInfos": null, "ville": null, "id": null, "phone": null, "urlBlood": null, "urlPlasma": null, "urlPlatelets": null}
{"address1": null, "address2": "RUE DES ECOLES", "city": "LIFFRE", "convocationLabel": "ESPACE INTER-GENERATIONS", "distance": 0.0, "fullAddress": "RUE DES ECOLES 35340 LIFFRE", "giveBlood": 1, "givePlasma": 0, "givePlatelet": 0, "regionCode": "016", "groupCode": "F70117", "latitude": 48.21284866, "longitude": -1.50709498, "name": "2 LIFFRE-GENERATIONS AM J+", "postCode": "35340", "samplingLocationCode": "13", "horaires": null, "infos": null, "metro": null, "bus": null, "tram": null, "parking": null, "debutInfos": null, "finInfos": null, "ville": null, "id": null, "phone": null, "urlBlood": null, "urlPlasma": null, "urlPlatelets": null}
{"address1": null, "address2": "RUE DES ECOLES", "city": "LIFFRE", "convocationLabel": "ESPACE INTER-GENERATIONS", "distance": 0.0, "fullAddress": "RUE DES ECOLES 35340 LIFFRE", "giveBlood": 1, "givePlasma": 0, "givePlatelet": 0, "regionCode": "016", "groupCode": "F70117", "latitude": 48.212732, "longitude": -1.507451, "name": "LIFFRE", "postCode": "35340", "samplingLocationCode": "130", "horaires": null, "infos": null, "metro": null, "bus": null, "tram": null, "parking": null, "debutInfos": null, "finInfos": null, "ville": null, "id": null, "phone": null, "urlBlood": null, "urlPlasma": null, "urlPlatelets": null}
{"address1": null, "address2": "RUE DES ECOLES", "city": "LIFFRE", "convocationLabel": "ESPACE INTER-GENERATIONS", "distance": 0.0, "fullAddress": "RUE DES ECOLES 35340 LIFFRE", "giveBlood": 1, "givePlasma": 0, "givePlatelet": 0, "regionCode": "016", "groupCode": "F70117", "latitude": 48.21284866, "longitude": -1.50709498, "name": "LIFFRE MAT", "postCode": "35340", "samplingLocationCode": "2", "horaires": null, "infos": null, "metro": null, "bus": null, "tram": null, "parking": null, "debutInfos": null, "finInfos": null, "ville": null, "id": null, "phone": null, "urlBlood": null, "urlPlasma": null, "urlPlatelets": null}
{"address1": null, "address2": "RUE DES ECOLES", "city": "LIFFRE", "convocationLabel": "ESPACE INTER-GENERATIONS", "distance": 0.0, "fullAddress": "RUE DES ECOLES 35340 LIFFRE", "giveBlood": 1, "givePlasma": 0, "givePlatelet": 0, "regionCode": "016", "groupCode": "F70117", "latitude": 48.21284866, "longitude": -1.50709498, "name": "LIFFRE AM", "postCode": "35340", "samplingLocationCode": "3", "horaires": null, "infos": null, "metro": null, "bus": null, "tram": null, "parking": null, "debutInfos": null, "finInfos": null, "ville": null, "id": null, "phone": null, "urlBlood": null, "urlPlasma": null, "urlPlatelets": null}
{"address1": null, "address2": "RUE DES ECOLES", "city": "LIFFRE", "convocationLabel": "ESPACE INTER-GENERATIONS", "distance": 0.0, "fullAddress": "RUE DES ECOLES 35340 LIFFRE", "giveBlood": 1, "givePlasma": 0, "givePlatelet": 0, "regionCode": "016", "groupCode": "F70117", "latitude": 48.212732, "longitude": -1.507451, "name": "2 LIFFRE-GENERATION MAT ", "postCode": "35340", "samplingLocationCode": "4", "horaires": null, "infos": null, "metro": null, "bus": null, "tram": null, "parking": null, "debutInfos": null, "finInfos": null, "ville": null, "id": null, "phone": null, "urlBlood": null, "urlPlasma": null, "urlPlatelets": null}
{"address1": null, "address2": "RUE DES ECOLES", "city": "LIFFRE", "convocationLabel": "ESPACE INTER-GENERATIONS", "distance": 0.0, "fullAddress": "RUE DES ECOLES 35340 LIFFRE", "giveBlood": 1, "givePlasma": 0, "givePlatelet": 0, "regionCode": "016", "groupCode": "F70117", "latitude": 48.21284866, "longitude": -1.50709498, "name": "2 LIFFRE-GENERATIONS AM ", "postCode": "35340", "samplingLocationCode": "5", "horaires": null, "infos": null, "metro": null, "bus": null, "tram": null, "parking": null, "debutInfos": null, "finInfos": null, "ville": null, "id": null, "phone": null, "urlBlood": null, "urlPlasma": null, "urlPlatelets": null}
{"address1": null, "address2": "RUE DES ECOLES", "city": "LIFFRE", "convocationLabel": "ESPACE INTER-GENERATIONS", "distance": 0.0, "fullAddress": "RUE DES ECOLES 35340 LIFFRE", "giveBlood": 1, "givePlasma": 0, "givePlatelet": 0, "regionCode": "016", "groupCode": "F70117", "latitude": 48.212732, "longitude": -1.507451, "name": "2 LIFFRE-GENERATIONS J+ DAM", "postCode": "35340", "samplingLocationCode": "6", "horaires": null, "infos": null, "metro": null, "bus": null, "tram": null, "parking": null, "debutInfos": null, "finInfos": null, "ville": null, "id": null, "phone": null, "urlBlood": null, "urlPlasma": null, "urlPlatelets": null}
{"address1": null, "address2": "RUE DES ECOLES", "city": "LIFFRE", "convocationLabel": "ESPACE INTER-GENERATIONS", "distance": 0.0, "fullAddress": "RUE DES ECOLES 35340 LIFFRE", "giveBlood": 1, "givePlasma": 0, "givePlatelet": 0, "regionCode": "016", "groupCode": "F70117", "latitude": 48.212732, "longitude": -1.507451, "name": "2 LIFFRE-GENERATIONS DAM ", "postCode": "35340", "samplingLocationCode": "7", "horaires": null, "infos": null, "metro": null, "bus": null, "tram": null, "parking": null, "debutInfos": null, "finInfos": null, "ville": null, "id": null, "phone": null, "urlBlood": null, "urlPlasma": null, "urlPlatelets": null}
{"address1": null, "address2": "1 AVENUE DE L'EUROPE", "city": "LIFFRE", "convocationLabel": "LYCEE SIMONE VEIL SALLE GALET", "distance": 0.0, "fullAddress": "1 AVENUE DE L'EUROPE 35340 LIFFRE", "giveBlood": 1, "givePlasma": 0, "givePlatelet": 0, "regionCode": "016", "groupCode": "F70117", "latitude": 48.205714, "longitude": -1.506971, "name": "2 LIFFRE AM LYCEE", "postCode": "35340", "samplingLocationCode": "8", "horaires": null, "infos": null, "metro": null, "bus": null, "tram": null, "parking": null, "debutInfos": null, "finInfos": null, "ville": null, "id": null, "phone": null, "urlBlood": null, "urlPlasma": null, "urlPlatelets": null}
{"address1": null, "address2": "1 AVENUE DE L'EUROPE", "city": "LIFFRE", "convocationLabel": "LYCEE SIMONE VEIL SALLE GALET", "distance": 0.0, "fullAddress": "1 AVENUE DE L'EUROPE 35340 LIFFRE", "giveBlood": 1, "givePlasma": 0, "givePlatelet": 0, "regionCode": "016", "groupCode": "F70117", "latitude": 48.205714, "longitude": -1.506971, "name": "2 LIFFRE J+ MAT LYCEE", "postCode": "35340", "samplingLocationCode": "9", "horaires": null, "infos": null, "metro": null, "bus": null, "tram": null, "parking": null, "debutInfos": null, "finInfos": null, "ville": null, "id": null, "phone": null, "urlBlood": null, "urlPlasma": null, "urlPlatelets": null}
