{"address1": "LYCEE LA MENNAIS", "address2": "2 RUE DU GENERAL DUBRETON", "city": "PLOERMEL", "convocationLabel": "Salle de Groupe INSCRIVEZ VOUS A LA VIE SCOLAIRE", "distance": 0.0, "fullAddress": "LYCEE LA MENNAIS 2 RUE DU GENERAL DUBRETON 56800 PLOERMEL", "giveBlood": 1, "givePlasma": 0, "givePlatelet": 0, "regionCode": "016", "groupCode": "F30305", "latitude": 47.931226, "longitude": -2.398847, "name": "LYCEE  LA MENNAIS  PLOERMEL JO", "postCode": "56800", "samplingLocationCode": "1552", "horaires": null, "infos": null, "metro": null, "bus": null, "tram": null, "parking": null, "debutInfos": null, "finInfos": null, "ville": null, "id": null, "phone": null, "urlBlood": null, "urlPlasma": null, "urlPlatelets": null}
{"address1": "SALLE DE GROUPE", "address2": "2 RUE DU GENERAL DUBRETON", "city": "PLOERMEL", "convocationLabel": "INSCRIVEZ VOUS A LA VIE SCOLAIRE", "distance": 0.0, "fullAddress": "SALLE DE GROUPE 2 RUE DU GENERAL DUBRETON 56801 PLOERMEL", "giveBlood": 1, "givePlasma": 0, "givePlatelet": 0, "regionCode": "016", "groupCode": "F30305", "latitude": 47.931226, "longitude": -2.398847, "name": "LYCEE LA MENNAIS PLOERMEL AM", "postCode": "56801", "samplingLocationCode": "2", "horaires": null, "infos": null, "metro": null, "bus": null, "tram": null, "parking": null, "debutInfos": null, "finInfos": null, "ville": null, "id": null, "phone": null, "urlBlood": null, "urlPlasma": null, "urlPlatelets": null}
{"address1": "LYCEE LA MENNAIS", "address2": "2 RUE DU GENERAL DUBRETON", "city": "PLOERMEL", "convocationLabel": "SALLE DE GROUPE INSCRIVEZ VOUS A LA VIE SCOLAIRE", "distance": 0.0, "fullAddress": "LYCEE LA MENNAIS 2 RUE DU GENERAL DUBRETON 56800 PLOERMEL", "giveBlood": 1, "givePlasma": 0, "givePlatelet": 0, "regionCode": "016", "groupCode": "F30305", "latitude": 47.931226, "longitude": -2.398847, "name": "PLOERMEL LYCEE LAMENNAIS 12 h ", "postCode": "56800", "samplingLocationCode": "3", "horaires": null, "infos": null, "metro": null, "bus": null, "tram": null, "parking": null, "debutInfos": null, "finInfos": null, "ville": null, "id": null, "phone": null, "urlBlood": null, "urlPlasma": null, "urlPlatelets": null}
{"address1": "LYCEE LA MENNAIS", "address2": "2 RUE DU GENERAL DUBRETON", "city": "PLOERMEL", "convocationLabel": "AMPHI INSCRIPTION A LA VIE SCOLAIRE", "distance": 0.0, "fullAddress": "LYCEE LA MENNAIS 2 RUE DU GENERAL DUBRETON 56800 PLOERMEL", "giveBlood": 1, "givePlasma": 0, "givePlatelet": 0, "regionCode": "016", "groupCode": "F30305", "latitude": 47.931242, "longitude": -2.398881, "name": "LYCEE LA MENNAIS AMPHI", "postCode": "56800", "samplingLocationCode": "4", "horaires": null, "infos": null, "metro": null, "bus": null, "tram": null, "parking": null, "debutInfos": null, "finInfos": null, "ville": null, "id": null, "phone": null, "urlBlood": null, "urlPlasma": null, "urlPlatelets": null}
{"address1": "SALLE DE GROUPE INSCRIVEZ VOUS A LA VIE SCOLAIRE", "address2": "2 RUE DU GENERAL DUBRETON", "city": "PLOERMEL", "convocationLabel": "LYCEE LA MENNAIS", "distance": 0.0, "fullAddress": "SALLE DE GROUPE INSCRIVEZ VOUS A LA VIE SCOLAIRE 2 RUE DU GENERAL DUBRETON 56800 PLOERMEL", "giveBlood": 1, "givePlasma": 0, "givePlatelet": 0, "regionCode": "016", "groupCode": "F30305", "latitude": 47.931242, "longitude": -2.398881, "name": "PLOERMEL-LYC LA MENNAIS 9h-13h", "postCode": "56800", "samplingLocationCode": "5", "horaires": null, "infos": null, "metro": null, "bus": null, "tram": null, "parking": null, "debutInfos": null, "finInfos": null, "ville": null, "id": null, "phone": null, "urlBlood": null, "urlPlasma": null, "urlPlatelets": null}
{"address1": "LYCEE LA MENNAIS", "address2": "2 RUE DU GENERAL DUBRETON", "city": "PLOERMEL", "convocationLabel": "AMPHI INSCRIPTION A LA VIE SCOLAIRE", "distance": 0.0, "fullAddress": "LYCEE LA MENNAIS 2 RUE DU GENERAL DUBRETON 56800 PLOERMEL", "giveBlood": 1, "givePlasma": 0, "givePlatelet": 0, "regionCode": "016", "groupCode": "F30305", "latitude": 47.931242, "longitude": -2.398881, "name": "LYCEE LA MENNAIS AMPHI matin", "postCode": "56800", "samplingLocationCode": "6", "horaires": null, "infos": null, "metro": null, "bus": null, "tram": null, "parking": null, "debutInfos": null, "finInfos": null, "ville": null, "id": null, "phone": null, "urlBlood": null, "urlPlasma": null, "urlPlatelets": null}
