{"address1": null, "address2": "PLACE DE L'EGLISE", "city": "LA MEZIERE", "convocationLabel": "ENSEMBLE POLYVALENT", "distance": 0.0, "fullAddress": "PLACE DE L'EGLISE 35520 LA MEZIERE", "giveBlood": 1, "givePlasma": 0, "givePlatelet": 0, "regionCode": "016", "groupCode": "F70135", "latitude": 48.219468, "longitude": -1.75561, "name": "LA MEZIERE samedi matin", "postCode": "35520", "samplingLocationCode": "148", "horaires": null, "infos": null, "metro": null, "bus": null, "tram": null, "parking": null, "debutInfos": null, "finInfos": null, "ville": null, "id": null, "phone": null, "urlBlood": null, "urlPlasma": null, "urlPlatelets": null}
{"address1": null, "address2": "PLACE DE L'EGLISE", "city": "LA MEZIERE", "convocationLabel": "MAIRIE", "distance": 0.0, "fullAddress": "PLACE DE L'EGLISE 35520 LA MEZIERE", "giveBlood": 1, "givePlasma": 0, "givePlatelet": 0, "regionCode": "016", "groupCode": "F70135", "latitude": 48.219468, "longitude": -1.75561, "name": "LA MEZIERE SEMAINE", "postCode": "35520", "samplingLocationCode": "2", "horaires": null, "infos": null, "metro": null, "bus": null, "tram": null, "parking": null, "debutInfos": null, "finInfos": null, "ville": null, "id": null, "phone": null, "urlBlood": null, "urlPlasma": null, "urlPlatelets": null}
{"address1": null, "address2": "PLACE DE L'EGLISE", "city": "LA MEZIERE", "convocationLabel": "ENSEMBLE POLYVALENT ", "distance": 0.0, "fullAddress": "PLACE DE L'EGLISE 35520 LA MEZIERE", "giveBlood": 1, "givePlasma": 0, "givePlatelet": 0, "regionCode": "016", "groupCode": "F70135", "latitude": 48.219468, "longitude": -1.75561, "name": "LA MEZIERE SA", "postCode": "35520", "samplingLocationCode": "3", "horaires": null, "infos": null, "metro": null, "bus": null, "tram": null, "parking": null, "debutInfos": null, "finInfos": null, "ville": null, "id": null, "phone": null, "urlBlood": null, "urlPlasma": null, "urlPlatelets": null}
{"address1": null, "address2": "1 RUE DE TEXUE", "city": "LA MEZIERE", "convocationLabel": "COMPLEXE SPORTIF, SALLE SIRIUS", "distance": 0.0, "fullAddress": "1 RUE DE TEXUE 35520 LA MEZIERE", "giveBlood": 1, "givePlasma": 0, "givePlatelet": 0, "regionCode": "016", "groupCode": "F70135", "latitude": 48.218281, "longitude": -1.754493, "name": "LA MEZIERE SIRIUS samedi matin", "postCode": "35520", "samplingLocationCode": "4", "horaires": null, "infos": null, "metro": null, "bus": null, "tram": null, "parking": null, "debutInfos": null, "finInfos": null, "ville": null, "id": null, "phone": null, "urlBlood": null, "urlPlasma": null, "urlPlatelets": null}
{"address1": null, "address2": "PLACE DE L'EGLISE", "city": "LA MEZIERE", "convocationLabel": "MAIRIE", "distance": 0.0, "fullAddress": "PLACE DE L'EGLISE 35520 LA MEZIERE", "giveBlood": 1, "givePlasma": 0, "givePlatelet": 0, "regionCode": "016", "groupCode": "F70135", "latitude": 48.219468, "longitude": -1.75561, "name": "LA MEZIERE mairie sam matin", "postCode": "35520", "samplingLocationCode": "6", "horaires": null, "infos": null, "metro": null, "bus": null, "tram": null, "parking": null, "debutInfos": null, "finInfos": null, "ville": null, "id": null, "phone": null, "urlBlood": null, "urlPlasma": null, "urlPlatelets": null}
{"address1": null, "address2": "PLACE DE L'EGLISE", "city": "LA MEZIERE", "convocationLabel": "MAIRIE", "distance": 0.0, "fullAddress": "PLACE DE L'EGLISE 35520 LA MEZIERE", "giveBlood": 1, "givePlasma": 0, "givePlatelet": 0, "regionCode": "016", "groupCode": "F70135", "latitude": 48.219468, "longitude": -1.75561, "name": "LA MEZIERE mairie sam amidi", "postCode": "35520", "samplingLocationCode": "7", "horaires": null, "infos": null, "metro": null, "bus": null, "tram": null, "parking": null, "debutInfos": null, "finInfos": null, "ville": null, "id": null, "phone": null, "urlBlood": null, "urlPlasma": null, "urlPlatelets": null}
{"address1": null, "address2": "PLACE DE L'EGLISE", "city": "LA MEZIERE", "convocationLabel": "ENSEMBLE POLYVALENT", "distance": 0.0, "fullAddress": "PLACE DE L'EGLISE 35520 LA MEZIERE", "giveBlood": 1, "givePlasma": 0, "givePlatelet": 0, "regionCode": "016", "groupCode": "F70135", "latitude": 48.2192688, "longitude": -1.75597537, "name": "LA MEZIERE ENS POLY SEMAINE", "postCode": "35520", "samplingLocationCode": "8", "horaires": null, "infos": null, "metro": null, "bus": null, "tram": null, "parking": null, "debutInfos": null, "finInfos": null, "ville": null, "id": null, "phone": null, "urlBlood": null, "urlPlasma": null, "urlPlatelets": null}
{"address1": null, "address2": "PLACE DE L'EGLISE", "city": "LA MEZIERE", "convocationLabel": "ENSEMBLE POLYVALENT", "distance": 0.0, "fullAddress": "PLACE DE L'EGLISE 35520 LA MEZIERE", "giveBlood": 1, "givePlasma": 0, "givePlatelet": 0, "regionCode": "016", "groupCode": "F70135", "latitude": 48.21944046, "longitude": -1.75563228, "name": "2 LA MEZIERE-ENS POLY AM ", "postCode": "35520", "samplingLocationCode": "9", "horaires": null, "infos": null, "metro": null, "bus": null, "tram": null, "parking": null, "debutInfos": null, "finInfos": null, "ville": null, "id": null, "phone": null, "urlBlood": null, "urlPlasma": null, "urlPlatelets": null}
