{"address1": "LYCEE SAINT JOSEPH LA SALLE", "address2": "Inscrivez vous aupr\u00e8s du Professeur Principal", "city": "LORIENT", "convocationLabel": "ESCALE SALLE PASTORALE", "distance": 0.0, "fullAddress": "LYCEE SAINT JOSEPH LA SALLE Inscrivez vous aupr\u00e8s du Professeur Principal 56100 LORIENT", "giveBlood": 1, "givePlasma": 0, "givePlatelet": 0, "regionCode": "016", "groupCode": "F30289", "latitude": 47.750133, "longitude": -3.377921, "name": "LORIENT- St Jo Escale", "postCode": "56100", "samplingLocationCode": "3", "horaires": null, "infos": null, "metro": null, "bus": null, "tram": null, "parking": null, "debutInfos": null, "finInfos": null, "ville": null, "id": null, "phone": null, "urlBlood": null, "urlPlasma": null, "urlPlatelets": null}
{"address1": "ESCALE SALLE PASTORALE", "address2": "Inscrivez vous aupr\u00e8s du Professeur Principal", "city": "LORIENT", "convocationLabel": "LYCEE SAINT JOSEPH LASALLE", "distance": 0.0, "fullAddress": "ESCALE SALLE PASTORALE Inscrivez vous aupr\u00e8s du Professeur Principal 56100 LORIENT", "giveBlood": 1, "givePlasma": 0, "givePlatelet": 0, "regionCode": "016", "groupCode": "F30289", "latitude": 47.750133, "longitude": -3.377921, "name": "LT St Jo LaSalle  12 - 16 H", "postCode": "56100", "samplingLocationCode": "4", "horaires": null, "infos": null, "metro": null, "bus": null, "tram": null, "parking": null, "debutInfos": null, "finInfos": null, "ville": null, "id": null, "phone": null, "urlBlood": null, "urlPlasma": null, "urlPlatelets": null}
{"address1": "SALLE QUEBEC", "address2": "Inscrivez vous aupr\u00e8s du professeur principal", "city": "LORIENT", "convocationLabel": "LYCEE SAINT JOSEPH LASALLE", "distance": 0.0, "fullAddress": "SALLE QUEBEC Inscrivez vous aupr\u00e8s du professeur principal 56100 LORIENT", "giveBlood": 1, "givePlasma": 0, "givePlatelet": 0, "regionCode": "016", "groupCode": "F30289", "latitude": 47.742744, "longitude": -3.375059, "name": "LORIENT QUEBEC  12 H-16 H ", "postCode": "56100", "samplingLocationCode": "5", "horaires": null, "infos": null, "metro": null, "bus": null, "tram": null, "parking": null, "debutInfos": null, "finInfos": null, "ville": null, "id": null, "phone": null, "urlBlood": null, "urlPlasma": null, "urlPlatelets": null}
{"address1": "SALLE QUEBEC", "address2": "Inscrivez vous aupr\u00e8s du professeur principal", "city": "LORIENT", "convocationLabel": "LYCEE SAINT JOSEPH LASALLE", "distance": 0.0, "fullAddress": "SALLE QUEBEC Inscrivez vous aupr\u00e8s du professeur principal 56100 LORIENT", "giveBlood": 1, "givePlasma": 0, "givePlatelet": 0, "regionCode": "016", "groupCode": "F30289", "latitude": 47.742744, "longitude": -3.375059, "name": "LORIENT-LYC ST JO 9H-13H", "postCode": "56100", "samplingLocationCode": "6", "horaires": null, "infos": null, "metro": null, "bus": null, "tram": null, "parking": null, "debutInfos": null, "finInfos": null, "ville": null, "id": null, "phone": null, "urlBlood": null, "urlPlasma": null, "urlPlatelets": null}
{"address1": "SALLE QUEBEC", "address2": "Inscrivez vous aupr\u00e8s du professeur principal", "city": "LORIENT", "convocationLabel": "LYCEE SAINT JOSEPH LASALLE", "distance": 0.0, "fullAddress": "SALLE QUEBEC Inscrivez vous aupr\u00e8s du professeur principal 56100 LORIENT", "giveBlood": 1, "givePlasma": 0, "givePlatelet": 0, "regionCode": "016", "groupCode": "F30289", "latitude": 47.742744, "longitude": -3.375059, "name": "LORIENT-ST JO QUEBEC 9 -13 H", "postCode": "56100", "samplingLocationCode": "7", "horaires": null, "infos": null, "metro": null, "bus": null, "tram": null, "parking": null, "debutInfos": null, "finInfos": null, "ville": null, "id": null, "phone": null, "urlBlood": null, "urlPlasma": null, "urlPlatelets": null}
{"address1": "SALLE QUEBEC", "address2": "Inscrivez vous aupr\u00e8s du professeur principal", "city": "LORIENT", "convocationLabel": "LYCEE SAINT JOSEPH LASALLE", "distance": 0.0, "fullAddress": "SALLE QUEBEC Inscrivez vous aupr\u00e8s du professeur principal 56100 LORIENT", "giveBlood": 1, "givePlasma": 0, "givePlatelet": 0, "regionCode": "016", "groupCode": "F30289", "latitude": 47.742744, "longitude": -3.375059, "name": "LORIENT-LYC ST JO 8H30-12H30", "postCode": "56100", "samplingLocationCode": "8", "horaires": null, "infos": null, "metro": null, "bus": null, "tram": null, "parking": null, "debutInfos": null, "finInfos": null, "ville": null, "id": null, "phone": null, "urlBlood": null, "urlPlasma": null, "urlPlatelets": null}
{"address1": "LYCEE SAINT JOSEPH LA SALLE", "address2": "Inscrivez vous aupr\u00e8s de l'infirmerie", "city": "LORIENT", "convocationLabel": "BATIMENT QUEBEC-SALLE MULTIFONCTION", "distance": 0.0, "fullAddress": "LYCEE SAINT JOSEPH LA SALLE Inscrivez vous aupr\u00e8s de l'infirmerie 56100 LORIENT", "giveBlood": 1, "givePlasma": 0, "givePlatelet": 0, "regionCode": "016", "groupCode": "F30289", "latitude": 47.752588, "longitude": -3.361, "name": "LORIENT-Lyc\u00e9e Saint Joseph", "postCode": "56100", "samplingLocationCode": "914", "horaires": null, "infos": null, "metro": null, "bus": null, "tram": null, "parking": null, "debutInfos": null, "finInfos": null, "ville": null, "id": null, "phone": null, "urlBlood": null, "urlPlasma": null, "urlPlatelets": null}
