{"address1": "SALLE ESPACE EXCLUSIVE -A-", "address2": "PLACE THEODORE DECKER", "city": "VANNES", "convocationLabel": "STADE DE LA RABINE", "distance": 0.0, "fullAddress": "SALLE ESPACE EXCLUSIVE -A- PLACE THEODORE DECKER 56000 VANNES", "giveBlood": 1, "givePlasma": 0, "givePlatelet": 0, "regionCode": "016", "groupCode": "F30410", "latitude": 47.652139, "longitude": -2.75958, "name": "VANNES- STADE LA RABINE", "postCode": "56000", "samplingLocationCode": "10", "horaires": null, "infos": null, "metro": null, "bus": null, "tram": null, "parking": null, "debutInfos": null, "finInfos": null, "ville": null, "id": null, "phone": null, "urlBlood": null, "urlPlasma": null, "urlPlatelets": null}
{"address1": null, "address2": "PARKING RESERVE POUR DONNEURS", "city": "VANNES", "convocationLabel": "PALAIS DES ARTS ET DES CONGRES", "distance": 0.0, "fullAddress": "PARKING RESERVE POUR DONNEURS 56000 VANNES", "giveBlood": 1, "givePlasma": 0, "givePlatelet": 0, "regionCode": "016", "groupCode": "F30410", "latitude": 47.660026, "longitude": -2.75162, "name": "VANNES CENTRE journ\u00e9e", "postCode": "56000", "samplingLocationCode": "1409", "horaires": null, "infos": null, "metro": null, "bus": null, "tram": null, "parking": null, "debutInfos": null, "finInfos": null, "ville": null, "id": null, "phone": null, "urlBlood": null, "urlPlasma": null, "urlPlatelets": null}
{"address1": null, "address2": "PARKING RESERVE POUR DONNEURS", "city": "VANNES", "convocationLabel": "PALAIS DES ARTS ET DES CONGRES", "distance": 0.0, "fullAddress": "PARKING RESERVE POUR DONNEURS 56000 VANNES", "giveBlood": 1, "givePlasma": 0, "givePlatelet": 0, "regionCode": "016", "groupCode": "F30410", "latitude": 47.66208267, "longitude": -2.76118326, "name": "VANNES CENTRE PM", "postCode": "56000", "samplingLocationCode": "2", "horaires": null, "infos": null, "metro": null, "bus": null, "tram": null, "parking": null, "debutInfos": null, "finInfos": null, "ville": null, "id": null, "phone": null, "urlBlood": null, "urlPlasma": null, "urlPlatelets": null}
{"address1": null, "address2": "PARKING RESERVE POUR DONNEURS", "city": "VANNES", "convocationLabel": "PALAIS DES ARTS ET DES CONGRES ", "distance": 0.0, "fullAddress": "PARKING RESERVE POUR DONNEURS 56000 VANNES", "giveBlood": 1, "givePlasma": 0, "givePlatelet": 0, "regionCode": "016", "groupCode": "F30410", "latitude": 47.660026, "longitude": -2.75162, "name": "VANNES CENTRE J2", "postCode": "56000", "samplingLocationCode": "3", "horaires": null, "infos": null, "metro": null, "bus": null, "tram": null, "parking": null, "debutInfos": null, "finInfos": null, "ville": null, "id": null, "phone": null, "urlBlood": null, "urlPlasma": null, "urlPlatelets": null}
{"address1": null, "address2": "PARKING RESERVE POUR DONNEURS", "city": "VANNES", "convocationLabel": "PALAIS DES ARTS ET DES CONGRES", "distance": 0.0, "fullAddress": "PARKING RESERVE POUR DONNEURS 56000 VANNES", "giveBlood": 1, "givePlasma": 0, "givePlatelet": 0, "regionCode": "016", "groupCode": "F30410", "latitude": 47.66205215, "longitude": -2.76111889, "name": "VANNES CENTRE AM", "postCode": "56000", "samplingLocationCode": "4", "horaires": null, "infos": null, "metro": null, "bus": null, "tram": null, "parking": null, "debutInfos": null, "finInfos": null, "ville": null, "id": null, "phone": null, "urlBlood": null, "urlPlasma": null, "urlPlatelets": null}
{"address1": null, "address2": "PARKING RESERVE POUR DONNEURS", "city": "VANNES", "convocationLabel": "PALAIS DES ARTS ET DES CONGRES", "distance": 0.0, "fullAddress": "PARKING RESERVE POUR DONNEURS 56000 VANNES", "giveBlood": 1, "givePlasma": 0, "givePlatelet": 0, "regionCode": "016", "groupCode": "F30410", "latitude": 47.660026, "longitude": -2.75162, "name": "VANNES CENTRE LORIENT 13h30/19", "postCode": "56000", "samplingLocationCode": "5", "horaires": null, "infos": null, "metro": null, "bus": null, "tram": null, "parking": null, "debutInfos": null, "finInfos": null, "ville": null, "id": null, "phone": null, "urlBlood": null, "urlPlasma": null, "urlPlatelets": null}
{"address1": null, "address2": "PARKING RESERVE POUR DONNEURS", "city": "VANNES", "convocationLabel": "PALAIS DES ARTS ET DES CONGRES", "distance": 0.0, "fullAddress": "PARKING RESERVE POUR DONNEURS 56000 VANNES", "giveBlood": 1, "givePlasma": 0, "givePlatelet": 0, "regionCode": "016", "groupCode": "F30410", "latitude": 47.66208267, "longitude": -2.76111889, "name": "VANNES-CENTRE 15/19h", "postCode": "56000", "samplingLocationCode": "6", "horaires": null, "infos": null, "metro": null, "bus": null, "tram": null, "parking": null, "debutInfos": null, "finInfos": null, "ville": null, "id": null, "phone": null, "urlBlood": null, "urlPlasma": null, "urlPlatelets": null}
{"address1": null, "address2": "PARKING RESERVE POUR DONNEURS", "city": "VANNES", "convocationLabel": "PALAIS DES ARTS ET DES CONGRES", "distance": 0.0, "fullAddress": "PARKING RESERVE POUR DONNEURS 56000 VANNES", "giveBlood": 1, "givePlasma": 0, "givePlatelet": 0, "regionCode": "016", "groupCode": "F30410", "latitude": 47.660026, "longitude": -2.75162, "name": "VANNES-CENTRE LORIENT PM", "postCode": "56000", "samplingLocationCode": "7", "horaires": null, "infos": null, "metro": null, "bus": null, "tram": null, "parking": null, "debutInfos": null, "finInfos": null, "ville": null, "id": null, "phone": null, "urlBlood": null, "urlPlasma": null, "urlPlatelets": null}
{"address1": null, "address2": "PARKING RESERVE POUR DONNEURS", "city": "VANNES", "convocationLabel": "PALAIS DES ARTS ET DES CONGRES", "distance": 0.0, "fullAddress": "PARKING RESERVE POUR DONNEURS 56000 VANNES", "giveBlood": 1, "givePlasma": 0, "givePlatelet": 0, "regionCode": "016", "groupCode": "F30410", "latitude": 47.660026, "longitude": -2.75162, "name": "VANNES-CENTRE LORIENT AM", "postCode": "56000", "samplingLocationCode": "8", "horaires": null, "infos": null, "metro": null, "bus": null, "tram": null, "parking": null, "debutInfos": null, "finInfos": null, "ville": null, "id": null, "phone": null, "urlBlood": null, "urlPlasma": null, "urlPlatelets": null}
