{"address1": null, "address2": "1 RUE DU PARADIS", "city": "QUIMPER", "convocationLabel": "CENTRE DES CONGRES DU CHAPEAU ROUGE", "distance": 0.0, "fullAddress": "1 RUE DU PARADIS 29000 QUIMPER", "giveBlood": 1, "givePlasma": 0, "givePlatelet": 0, "regionCode": "016", "groupCode": "F50234", "latitude": 47.996246, "longitude": -4.108013, "name": "CHAPEAU ROUGE J1", "postCode": "29000", "samplingLocationCode": "1042", "horaires": null, "infos": null, "metro": null, "bus": null, "tram": null, "parking": null, "debutInfos": null, "finInfos": null, "ville": null, "id": null, "phone": null, "urlBlood": null, "urlPlasma": null, "urlPlatelets": null}
{"address1": null, "address2": "RUE AMIRAL DE LA GRANDIERE", "city": "QUIMPER", "convocationLabel": "HALLES ST FRANCOIS - SALLE N\u00b01", "distance": 0.0, "fullAddress": "RUE AMIRAL DE LA GRANDIERE 29000 QUIMPER", "giveBlood": 1, "givePlasma": 0, "givePlatelet": 0, "regionCode": "016", "groupCode": "F50234", "latitude": 47.9952, "longitude": -4.104928, "name": "Halles St Francois jeu", "postCode": "29000", "samplingLocationCode": "2", "horaires": null, "infos": null, "metro": null, "bus": null, "tram": null, "parking": null, "debutInfos": null, "finInfos": null, "ville": null, "id": null, "phone": null, "urlBlood": null, "urlPlasma": null, "urlPlatelets": null}
{"address1": null, "address2": "ESPLANADE FRANCOIS MITTERAND", "city": "QUIMPER", "convocationLabel": "SALLE \"GRANDS PROJETS\" THEATRE DE CORNOUAILLE", "distance": 0.0, "fullAddress": "ESPLANADE FRANCOIS MITTERAND 29000 QUIMPER", "giveBlood": 1, "givePlasma": 0, "givePlatelet": 0, "regionCode": "016", "groupCode": "F50234", "latitude": 47.995818, "longitude": -4.109602, "name": "Salle \"Grands projets\" ", "postCode": "29000", "samplingLocationCode": "3", "horaires": null, "infos": null, "metro": null, "bus": null, "tram": null, "parking": null, "debutInfos": null, "finInfos": null, "ville": null, "id": null, "phone": null, "urlBlood": null, "urlPlasma": null, "urlPlatelets": null}
{"address1": null, "address2": "ESPLANADE FRANCOIS MITTERAND", "city": "QUIMPER", "convocationLabel": "SALLE \"GRANDS PROJETS\" THEATRE DE CORNOUAILLE", "distance": 0.0, "fullAddress": "ESPLANADE FRANCOIS MITTERAND 29000 QUIMPER", "giveBlood": 1, "givePlasma": 0, "givePlatelet": 0, "regionCode": "016", "groupCode": "F50234", "latitude": 47.995818, "longitude": -4.109602, "name": "Salle \"Grands projets\" vend", "postCode": "29000", "samplingLocationCode": "4", "horaires": null, "infos": null, "metro": null, "bus": null, "tram": null, "parking": null, "debutInfos": null, "finInfos": null, "ville": null, "id": null, "phone": null, "urlBlood": null, "urlPlasma": null, "urlPlatelets": null}
{"address1": null, "address2": "RUE AMIRAL DE LA GRANDIERE", "city": "QUIMPER", "convocationLabel": "HALLES ST FRANCOIS - SALLE N\u00b01", "distance": 0.0, "fullAddress": "RUE AMIRAL DE LA GRANDIERE 29000 QUIMPER", "giveBlood": 1, "givePlasma": 0, "givePlatelet": 0, "regionCode": "016", "groupCode": "F50234", "latitude": 47.9952, "longitude": -4.104928, "name": "Halles St Fran\u00e7ois ven", "postCode": "29000", "samplingLocationCode": "5", "horaires": null, "infos": null, "metro": null, "bus": null, "tram": null, "parking": null, "debutInfos": null, "finInfos": null, "ville": null, "id": null, "phone": null, "urlBlood": null, "urlPlasma": null, "urlPlatelets": null}
{"address1": null, "address2": "RUE AMIRAL DE LA GRANDIERE", "city": "QUIMPER", "convocationLabel": "HALLES ST FRANCOIS - SALLE N\u00b01", "distance": 0.0, "fullAddress": "RUE AMIRAL DE LA GRANDIERE 29000 QUIMPER", "giveBlood": 1, "givePlasma": 0, "givePlatelet": 0, "regionCode": "016", "groupCode": "F50234", "latitude": 47.9952, "longitude": -4.104928, "name": "HallesSt Fran\u00e7ois mer", "postCode": "29000", "samplingLocationCode": "6", "horaires": null, "infos": null, "metro": null, "bus": null, "tram": null, "parking": null, "debutInfos": null, "finInfos": null, "ville": null, "id": null, "phone": null, "urlBlood": null, "urlPlasma": null, "urlPlatelets": null}
{"address1": null, "address2": "RUE AMIRAL DE LA GRANDIERE", "city": "QUIMPER", "convocationLabel": "HALLES SAINT FRANCOIS Salle N\u00b01", "distance": 0.0, "fullAddress": "RUE AMIRAL DE LA GRANDIERE 29000 QUIMPER", "giveBlood": 1, "givePlasma": 0, "givePlatelet": 0, "regionCode": "016", "groupCode": "F50234", "latitude": 47.9952, "longitude": -4.104928, "name": "Halles St Fran\u00e7ois sam", "postCode": "29000", "samplingLocationCode": "7", "horaires": null, "infos": null, "metro": null, "bus": null, "tram": null, "parking": null, "debutInfos": null, "finInfos": null, "ville": null, "id": null, "phone": null, "urlBlood": null, "urlPlasma": null, "urlPlatelets": null}
{"address1": null, "address2": "ESPLANADE FRANCOIS MITTERRAND", "city": "QUIMPER", "convocationLabel": "SALLE \"GRANDS PROJETS\" THEATRE DE CORNOUAILLE", "distance": 0.0, "fullAddress": "ESPLANADE FRANCOIS MITTERRAND 29000 QUIMPER", "giveBlood": 1, "givePlasma": 0, "givePlatelet": 0, "regionCode": "016", "groupCode": "F50234", "latitude": 47.995818, "longitude": -4.109602, "name": "Salle \"Grands Projets\"", "postCode": "29000", "samplingLocationCode": "8", "horaires": null, "infos": null, "metro": null, "bus": null, "tram": null, "parking": null, "debutInfos": null, "finInfos": null, "ville": null, "id": null, "phone": null, "urlBlood": null, "urlPlasma": null, "urlPlatelets": null}
